timestamp,attitude_roll,attitude_pitch,attitude_yaw,rotation_rate_x,rotation_rate_y,rotation_rate_z,gravity_x,gravity_y,gravity_z,user_acc_x,user_acc_y,user_acc_z,magnetic_field_x,magnetic_field_y,magnetic_field_z,latitude(degree),longitude(degree),altitude(meter),speed(m/s),course(degree),timestamp
1466441571.12,-0.289349,-0.002695,-1.758675,0.007230,-0.258367,0.002822,-0.285328,0.002695,-0.958426,-0.005520,-0.000956,0.005637,34.781414,127.415581,-18.330471,,,,,,
1466441571.13,-0.291858,-0.002674,-1.758627,0.007237,-0.250937,0.003840,-0.287731,0.002674,-0.957708,0.001751,0.002437,0.001165,34.781414,127.415581,-18.330471,,,,,,
1466441571.14,-0.294190,-0.002602,-1.758559,0.006146,-0.268992,0.006081,-0.289963,0.002602,-0.957034,0.016801,-0.001335,-0.010068,34.781414,127.415581,-18.330471,,,,,,
1466441571.15,-0.296644,-0.002553,-1.758480,0.008205,-0.325265,0.006436,-0.292311,0.002553,-0.956320,0.035674,0.000544,-0.020044,34.692322,127.410957,-18.530273,,,,,,
1466441571.16,-0.299731,-0.002499,-1.758357,0.008074,-0.424016,0.010248,-0.295262,0.002499,-0.955413,0.049565,-0.000347,-0.035935,34.692322,127.410957,-18.530273,,,,,,
1466441571.17,-0.303919,-0.002465,-1.758203,0.014295,-0.552500,0.014254,-0.299261,0.002465,-0.954168,0.063894,0.003731,-0.041163,34.692322,127.410957,-18.530273,,,,,,
1466441571.18,-0.309916,-0.002370,-1.758010,0.017292,-0.709645,0.015242,-0.304978,0.002370,-0.952356,0.071641,0.001948,-0.049612,34.509834,127.392975,-18.989050,,,,,,
,,,,,,,,,,,,,,,,29.719946,-95.399048,9.640932,-1.000000,-1.000000,1466441569.00
1466441571.19,-0.318285,-0.002221,-1.757779,0.022374,-0.900774,0.017510,-0.312937,0.002221,-0.949771,0.074274,0.000511,-0.052228,34.509834,127.392975,-18.989050,,,,,,
1466441571.20,-0.328000,-0.002048,-1.757526,0.024380,-0.999522,0.018132,-0.322150,0.002048,-0.946686,0.064871,0.000210,-0.031890,34.509834,127.392975,-18.989050,,,,,,
1466441571.21,-0.339269,-0.001850,-1.757240,0.028409,-1.178975,0.021390,-0.332797,0.001850,-0.942997,0.042255,-0.002384,-0.038632,34.275009,127.374695,-19.529278,,,,,,
1466441571.22,-0.352048,-0.001639,-1.756913,0.031455,-1.295777,0.023190,-0.344821,0.001639,-0.938667,0.022738,0.000436,-0.010887,34.275009,127.374695,-19.529278,,,,,,
1466441571.23,-0.365114,-0.001428,-1.756580,0.030368,-1.311707,0.024353,-0.357056,0.001428,-0.934082,0.019959,0.000006,-0.001068,34.275009,127.374695,-19.529278,,,,,,
1466441571.24,-0.378510,-0.001208,-1.756236,0.033518,-1.348868,0.023525,-0.369536,0.001208,-0.929216,0.004714,0.004255,0.004411,33.429802,127.321983,-21.261280,,,,,,
1466441571.25,-0.391941,-0.001004,-1.755894,0.031411,-1.330817,0.023410,-0.381983,0.001004,-0.924169,-0.011419,0.002490,0.018941,33.429802,127.321983,-21.261280,,,,,,
1466441571.26,-0.404620,-0.000799,-1.755569,0.032591,-1.240561,0.021781,-0.393669,0.000799,-0.919252,-0.037468,0.003520,0.042100,33.429802,127.321983,-21.261280,,,,,,
1466441571.27,-0.415844,-0.000622,-1.755275,0.026410,-1.077038,0.019684,-0.403962,0.000622,-0.914776,-0.051849,-0.000103,0.051037,32.907543,127.291946,-22.233618,,,,,,
1466441571.28,-0.425432,-0.000465,-1.755015,0.023409,-0.926254,0.016607,-0.412714,0.000465,-0.910861,-0.025274,-0.001564,0.037554,32.907543,127.291946,-22.233618,,,,,,
1466441571.29,-0.434503,-0.000340,-1.754776,0.022366,-0.909265,0.016499,-0.420960,0.000340,-0.907079,-0.000122,0.000148,0.005712,32.907543,127.291946,-22.233618,,,,,,
1466441571.30,-0.443980,-0.000192,-1.754516,0.024431,-0.959174,0.017879,-0.429537,0.000192,-0.903049,0.008516,0.000433,-0.005291,32.025223,127.243050,-23.750206,,,,,,
1466441571.31,-0.453754,-0.000053,-1.754255,0.023338,-0.981471,0.018017,-0.438343,0.000053,-0.898808,0.017002,0.001290,-0.003429,32.025223,127.243050,-23.750206,,,,,,
,,,,,,,,,,,,,,,,29.719949,-95.399059,9.640932,-1.000000,-1.000000,1466441606.20
1466441571.32,-0.463815,0.000090,-1.753981,0.024358,-1.017573,0.018245,-0.447363,-0.000090,-0.894352,0.023123,0.001814,-0.007824,32.025223,127.243050,-23.750206,,,,,,
,,,,,,,,,,,,,,,,29.719952,-95.399070,9.640932,-1.000000,-1.000000,1466441606.24
1466441571.33,-0.474414,0.000229,-1.753694,0.026415,-1.073852,0.019664,-0.456818,-0.000229,-0.889560,0.010086,0.001098,-0.003094,31.605696,127.220360,-24.424200,,,,,,
1466441571.34,-0.485107,0.000368,-1.753389,0.026428,-1.061113,0.020649,-0.466303,-0.000368,-0.884625,-0.006460,0.000886,0.015179,31.605696,127.220360,-24.424200,,,,,,
1466441571.35,-0.495174,0.000509,-1.753125,0.023339,-0.984650,0.015908,-0.475185,-0.000509,-0.879886,-0.017522,0.002691,0.033161,31.605696,127.220360,-24.424200,,,,,,
1466441571.36,-0.504348,0.000630,-1.752858,0.022378,-0.898650,0.017497,-0.483237,-0.000630,-0.875489,-0.018991,-0.001307,0.025071,30.659674,127.171524,-25.843176,,,,,,
1466441571.37,-0.513120,0.000734,-1.752609,0.023479,-0.873161,0.015209,-0.490898,-0.000734,-0.871217,0.002525,0.003816,0.011476,30.659674,127.171524,-25.843176,,,,,,
1466441571.38,-0.522077,0.000859,-1.752355,0.023435,-0.906080,0.016480,-0.498681,-0.000859,-0.866785,0.013009,0.000218,-0.005346,30.659674,127.171524,-25.843176,,,,,,
1466441571.39,-0.531512,0.000970,-1.752091,0.023373,-0.955985,0.016793,-0.506837,-0.000970,-0.862042,0.026765,0.002618,-0.009006,30.234098,127.149414,-26.446270,,,,,,
1466441571.40,-0.541663,0.001103,-1.751806,0.026458,-1.040933,0.018393,-0.515561,-0.001103,-0.856852,0.051343,0.002201,-0.023473,30.234098,127.149414,-26.446270,,,,,,
1466441571.41,-0.552627,0.001206,-1.751480,0.029438,-1.206581,0.022629,-0.524925,-0.001206,-0.851148,0.069145,0.002915,-0.040179,30.234098,127.149414,-26.446270,,,,,,
1466441571.42,-0.566172,0.001341,-1.751105,0.031323,-1.399833,0.024907,-0.536405,-0.001341,-0.843960,0.066373,0.000456,-0.043461,29.256683,127.101059,-27.746157,,,,,,
1466441571.43,-0.581193,0.001508,-1.750680,0.039677,-1.529380,0.026792,-0.549021,-0.001508,-0.835807,0.053858,0.003583,-0.023461,29.256683,127.101059,-27.746157,,,,,,
1466441571.44,-0.596995,0.001661,-1.750226,0.038529,-1.592032,0.029313,-0.562159,-0.001661,-0.827027,0.033854,0.000532,-0.007491,29.256683,127.101059,-27.746157,,,,,,
1466441571.45,-0.613069,0.001813,-1.749750,0.039569,-1.610086,0.030492,-0.575379,-0.001813,-0.817885,0.030122,0.001035,0.003721,28.516184,127.066940,-28.658356,,,,,,
1466441571.46,-0.629519,0.001967,-1.749249,0.041630,-1.663180,0.031891,-0.588755,-0.001967,-0.808309,0.052378,0.002867,-0.009074,28.516184,127.066940,-28.658356,,,,,,
1466441571.47,-0.647233,0.002116,-1.748726,0.043574,-1.810772,0.032819,-0.602980,-0.002116,-0.797753,0.072066,0.001688,-0.029075,28.516184,127.066940,-28.658356,,,,,,
1466441571.48,-0.666610,0.002255,-1.748161,0.046548,-1.981732,0.037087,-0.618324,-0.002255,-0.785920,0.095420,0.002545,-0.034896,28.516184,127.066940,-28.658356,,,,,,
1466441571.49,-0.688192,0.002405,-1.747534,0.054743,-2.235512,0.040816,-0.635140,-0.002405,-0.772393,0.127632,0.003427,-0.057761,26.714340,126.984322,-30.688873,,,,,,
1466441571.50,-0.712980,0.002576,-1.746801,0.063902,-2.566812,0.047161,-0.654089,-0.002576,-0.756413,0.156622,0.006528,-0.073878,26.714340,126.984322,-30.688873,,,,,,
1466441571.51,-0.741375,0.002751,-1.745955,0.073025,-2.926779,0.053685,-0.675300,-0.002751,-0.737538,0.154105,0.004628,-0.073665,25.528980,126.934349,-31.881428,,,,,,
1466441571.52,-0.772786,0.002919,-1.745003,0.077994,-3.203921,0.058622,-0.698129,-0.002919,-0.715966,0.153528,0.005818,-0.050483,25.528980,126.934349,-31.881428,,,,,,
,,,,,,,,,,,,,,,,29.719962,-95.399147,9.575231,-1.000000,-1.000000,1466441606.44
1466441571.53,-0.806721,0.003060,-1.743973,0.086185,-3.457708,0.064479,-0.722019,-0.003060,-0.691866,0.158329,0.001244,-0.040174,25.528980,126.934349,-31.881428,,,,,,
1466441571.54,-0.843656,0.003182,-1.742844,0.095355,-3.783691,0.068662,-0.747074,-0.003182,-0.664733,0.210209,0.002801,-0.058854,21.832767,126.785660,-35.060070,,,,,,
1466441571.55,-0.885184,0.003265,-1.741604,0.102178,-4.276389,0.078145,-0.774027,-0.003265,-0.633144,0.212901,0.004089,-0.080251,21.832767,126.785660,-35.060070,,,,,,
1466441571.56,-0.930553,0.003292,-1.740205,0.112396,-4.612994,0.083460,-0.801946,-0.003292,-0.597388,0.229284,0.006145,-0.040888,21.832767,126.785660,-35.060070,,,,,,
1466441571.57,-0.979437,0.003260,-1.738737,0.120444,-4.984635,0.087927,-0.830179,-0.003260,-0.557487,0.246866,0.006602,-0.040901,19.187691,126.687820,-36.912163,,,,,,
1466441571.58,-1.032304,0.003138,-1.737102,0.136961,-5.364828,0.111617,-0.858479,-0.003138,-0.512840,0.217182,0.004954,-0.020867,19.187691,126.687820,-36.912163,,,,,,
1466441571.59,-1.088787,0.002882,-1.735477,0.135433,-5.760832,0.097068,-0.886062,-0.002882,-0.463558,0.346984,0.036528,-0.036854,19.187691,126.687820,-36.912163,,,,,,
1466441571.60,-1.151595,0.002532,-1.733569,0.156868,-6.465936,0.121736,-0.913412,-0.002532,-0.407029,0.346822,-0.012437,-0.074492,11.730947,126.439194,-40.693928,,,,,,
1466441571.61,-1.220882,0.001988,-1.731530,0.178467,-7.069057,0.127669,-0.939400,-0.001988,-0.342817,0.414696,0.026341,-0.027788,11.730947,126.439194,-40.693928,,,,,,
1466441571.62,-1.296624,0.001231,-1.729340,0.183976,-7.751831,0.143666,-0.962649,-0.001231,-0.270750,0.453677,0.003490,-0.032137,11.730947,126.439194,-40.693928,,,,,,
1466441571.63,-1.379422,0.000521,-1.727059,0.221641,-8.309250,0.130168,-0.981744,-0.000521,-0.190209,0.013467,0.074511,0.152031,11.730947,126.439194,-40.693928,,,,,,
1466441571.64,-1.449473,-0.000530,-1.725259,0.138859,-6.389483,0.123368,-0.992649,0.000530,-0.121026,-0.404171,-0.033398,0.661675,0.073202,126.105057,-43.335800,,,,,,
1466441571.65,-1.496233,-0.001335,-1.723939,0.120327,-4.224393,0.086353,-0.997221,0.001335,-0.074494,-0.358691,0.015907,0.615266,0.073202,126.105057,-43.335800,,,,,,
1466441571.66,-1.533832,-0.002066,-1.723028,0.080513,-3.723179,0.074654,-0.999315,0.002066,-0.036956,-0.167510,0.000391,0.239486,-4.715322,125.986618,-43.423733,,,,,,
1466441571.67,-1.572269,-0.002814,-1.722035,0.102679,-3.880331,0.073533,-0.999995,0.002814,0.001472,-0.035116,0.006051,0.042549,-4.715322,125.986618,-43.423733,,,,,,
1466441571.69,-1.647580,-0.004345,-1.720306,0.096531,-3.695562,0.068110,-0.997044,0.004345,0.076707,0.049901,0.020343,0.064619,-7.814571,125.916199,-43.180157,,,,,,
1466441571.68,-1.610493,-0.003621,-1.721183,0.079365,-3.789010,0.075066,-0.999206,0.003621,0.039686,0.028029,-0.008077,0.065539,-7.814571,125.916199,-43.180157,,,,,,
1466441571.70,-1.685065,-0.005063,-1.719545,0.079410,-3.774109,0.062199,-0.993466,0.005063,0.114019,0.052944,0.017337,0.024577,-7.814571,125.916199,-43.180157,,,,,,
1466441571.71,-1.722475,-0.005868,-1.718722,0.093330,-3.697690,0.070249,-0.988502,0.005868,0.151095,-0.010873,-0.006051,0.070371,-10.866056,125.853081,-42.701443,,,,,,
1466441571.72,-1.757256,-0.006643,-1.718023,0.079851,-3.417353,0.063155,-0.982645,0.006643,0.185377,0.044657,0.014536,0.106005,-10.866056,125.853081,-42.701443,,,,,,
1466441571.73,-1.792727,-0.007484,-1.717302,0.088081,-3.635047,0.071980,-0.975447,0.007484,0.220107,0.120604,-0.007026,-0.022720,-10.866056,125.853081,-42.701443,,,,,,
1466441571.74,-1.832562,-0.008427,-1.716555,0.101337,-4.103306,0.073865,-0.965900,0.008427,0.258778,0.111057,-0.007969,-0.061390,-10.866056,125.853081,-42.701443,,,,,,
1466441571.75,-1.876199,-0.009526,-1.715746,0.107311,-4.418691,0.085429,-0.953683,0.009526,0.300663,0.152398,-0.000707,-0.049275,-10.866056,125.853081,-42.701443,,,,,,
1466441571.76,-1.921720,-0.010679,-1.714989,0.112388,-4.617248,0.085615,-0.939002,0.010679,0.343745,0.208152,0.012728,-0.015102,-19.813061,125.691292,-39.870094,,,,,,
1466441571.77,-1.971265,-0.011959,-1.714222,0.120320,-5.075965,0.093822,-0.920813,0.011959,0.389822,0.204413,0.005421,-0.057134,-19.813061,125.691292,-39.870094,,,,,,
1466441571.78,-2.024420,-0.013412,-1.713448,0.133783,-5.367985,0.102054,-0.898784,0.013411,0.438186,0.190258,0.006364,-0.003310,-23.301964,125.640549,-38.104485,,,,,,
1466441571.79,-2.079737,-0.014965,-1.712770,0.132416,-5.601656,0.108843,-0.873163,0.014964,0.487198,0.232264,0.004201,-0.003662,-23.301964,125.640549,-38.104485,,,,,,
1466441571.80,-2.139615,-0.016681,-1.712110,0.149836,-6.135767,0.117532,-0.842421,0.016680,0.538562,0.287977,0.018400,-0.031970,-23.301964,125.640549,-38.104485,,,,,,
1466441571.81,-2.205254,-0.018587,-1.711504,0.159787,-6.685794,0.124185,-0.805254,0.018586,0.592638,0.292345,0.012618,-0.039828,-27.050064,125.595543,-35.700619,,,,,,
1466441571.82,-2.275653,-0.020659,-1.711017,0.171937,-7.174251,0.134712,-0.761542,0.020658,0.647786,0.350791,0.017733,-0.000890,-27.050064,125.595543,-35.700619,,,,,,
1466441571.83,-2.351772,-0.022943,-1.710664,0.179696,-7.771003,0.143784,-0.710040,0.022941,0.703788,0.375186,0.002282,0.002176,-31.035061,125.561043,-32.430389,,,,,,
1466441571.84,-2.434071,-0.025391,-1.710488,0.199153,-8.372020,0.157153,-0.649743,0.025388,0.759730,0.380929,0.009372,0.037526,-31.035061,125.561043,-32.430389,,,,,,
1466441571.85,-2.521497,-0.028091,-1.710439,0.215562,-8.864716,0.164517,-0.580883,0.028088,0.813502,0.406781,0.014561,0.096364,-31.035061,125.561043,-32.430389,,,,,,
1466441571.86,-2.614880,-0.030888,-1.710691,0.228589,-9.500766,0.177035,-0.502455,0.030883,0.864052,0.442075,0.026643,0.111870,-38.997669,125.562790,-22.218235,,,,,,
1466441571.87,-2.714025,-0.033807,-1.711261,0.227856,-10.092178,0.176486,-0.414422,0.033800,0.909457,0.508157,0.003721,0.101957,-38.997669,125.562790,-22.218235,,,,,,
1466441571.88,-2.820296,-0.036880,-1.712226,0.256726,-10.819569,0.195979,-0.315583,0.036872,0.948181,0.554245,0.004129,0.191269,-38.997669,125.562790,-22.218235,,,,,,
1466441571.89,-2.934843,-0.040042,-1.713613,0.270574,-11.631910,0.221312,-0.205115,0.040031,0.977919,0.576102,0.014473,0.269960,-39.321159,125.722176,-16.587887,,,,,,
1466441571.90,-3.056625,-0.043132,-1.715432,0.290948,-12.359267,0.230151,-0.084787,0.043119,0.995466,0.646234,0.029956,0.313250,-39.321159,125.722176,-16.587887,,,,,,
1466441571.91,3.097508,-0.046292,-1.717737,0.315629,-13.037802,0.245076,0.044023,0.046276,0.997958,0.606551,0.028737,0.448697,-41.548649,125.827156,-8.283150,,,,,,
1466441571.92,2.965228,-0.049062,-1.720547,0.302574,-13.254412,0.249615,0.175240,0.049042,0.983303,0.555717,0.014755,0.569583,-41.548649,125.827156,-8.283150,,,,,,
1466441571.93,2.831250,-0.051575,-1.723723,0.326874,-13.408380,0.248476,0.304979,0.051552,0.950963,0.503981,0.035530,0.685802,-41.548649,125.827156,-8.283150,,,,,,
1466441571.94,2.697048,-0.053589,-1.727182,0.306683,-13.380756,0.246153,0.429430,0.053563,0.901510,0.443083,0.027217,0.746851,-41.548649,125.827156,-8.283150,,,,,,
1466441571.95,2.564708,-0.055142,-1.730844,0.318707,-13.137601,0.241447,0.544586,0.055114,0.836892,0.354446,0.025437,0.819068,-39.448963,126.244987,11.548189,,,,,,
1466441571.96,2.437062,-0.056207,-1.734535,0.298129,-12.577999,0.230466,0.646653,0.056177,0.760712,0.224684,0.026113,0.867645,-39.448963,126.244987,11.548189,,,,,,
1466441571.97,2.317087,-0.056736,-1.738122,0.282130,-11.764627,0.216833,0.733031,0.056705,0.677827,0.109880,0.027264,0.882063,-34.514736,126.529404,20.649931,,,,,,
1466441571.98,2.205987,-0.056832,-1.741462,0.257743,-10.846135,0.203597,0.803659,0.056801,0.592373,-0.010354,0.022011,0.858951,-34.514736,126.529404,20.649931,,,,,,
1466441571.99,2.105523,-0.056597,-1.744464,0.228282,-9.746041,0.178573,0.859030,0.056567,0.508790,-0.112601,0.009717,0.821838,-34.514736,126.529404,20.649931,,,,,,
1466441572.00,2.017650,-0.056159,-1.747082,0.206544,-8.430408,0.152204,0.900389,0.056129,0.431449,-0.248214,0.015923,0.778878,-34.514736,126.529404,20.649931,,,,,,
1466441572.01,1.943241,-0.055620,-1.749225,0.163523,-7.102026,0.127864,0.930000,0.055591,0.363331,-0.318871,0.001507,0.696560,-21.092247,127.061874,32.214466,,,,,,
1466441572.02,1.882702,-0.055081,-1.750995,0.142985,-5.673850,0.103984,0.950307,0.055053,0.306408,-0.433416,0.002686,0.644627,-21.092247,127.061874,32.214466,,,,,,
1466441572.03,1.837907,-0.054605,-1.752236,0.091805,-4.066199,0.073626,0.963100,0.054578,0.263552,-0.514568,0.000582,0.584195,-21.092247,127.061874,32.214466,,,,,,
1466441572.04,1.808944,-0.054285,-1.753052,0.065041,-2.515898,0.043651,0.970345,0.054259,0.235556,-0.544533,-0.000136,0.527063,-11.333567,127.359749,35.755013,,,,,,
1466441572.05,1.794890,-0.054117,-1.753425,0.021161,-1.021878,0.019335,0.973568,0.054090,0.221898,-0.587430,-0.001265,0.453334,-11.333567,127.359749,35.755013,,,,,,
1466441572.06,1.796301,-0.054146,-1.753400,-0.009869,0.522055,-0.010603,0.973253,0.054120,0.223270,-0.573335,-0.003842,0.432888,-11.333567,127.359749,35.755013,,,,,,
1466441572.07,1.812338,-0.054347,-1.752941,-0.047431,1.954496,-0.037720,0.969537,0.054321,0.238846,-0.556192,-0.003707,0.387359,-9.693544,127.404900,36.074970,,,,,,
1466441572.08,1.842695,-0.054723,-1.752117,-0.078605,3.386933,-0.064830,0.961821,0.054696,0.268159,-0.525801,-0.003717,0.387694,-9.693544,127.404900,36.074970,,,,,,
1466441572.09,1.886150,-0.055211,-1.750876,-0.113206,4.638857,-0.087619,0.949238,0.055183,0.309681,-0.437260,-0.004432,0.360180,-9.693544,127.404900,36.074970,,,,,,
1466441572.10,1.941813,-0.055769,-1.749280,-0.138249,5.869544,-0.111329,0.930510,0.055740,0.362000,-0.402953,0.000626,0.374496,-13.168961,127.307816,35.308319,,,,,,
1466441572.11,2.009872,-0.056290,-1.747290,-0.167581,7.080052,-0.132788,0.903711,0.056261,0.424429,-0.306635,0.004897,0.409280,-13.168961,127.307816,35.308319,,,,,,
1466441572.12,2.088147,-0.056729,-1.745032,-0.185528,8.035709,-0.148379,0.867734,0.056699,0.493784,-0.197141,0.012592,0.405386,-13.168961,127.307816,35.308319,,,,,,
1466441572.13,2.174769,-0.057004,-1.742453,-0.205788,8.840601,-0.166221,0.821749,0.056974,0.566994,-0.088824,0.003802,0.409965,-17.736822,127.170433,33.770741,,,,,,
1466441572.14,2.269561,-0.057078,-1.739634,-0.226032,9.661414,-0.182033,0.764391,0.057047,0.642225,-0.005708,0.017508,0.450747,-17.736822,127.170433,33.770741,,,,,,
1466441572.15,2.370796,-0.056790,-1.736592,-0.245550,10.222068,-0.189827,0.695584,0.056759,0.716200,0.142719,0.002170,0.455767,-17.736822,127.170433,33.770741,,,,,,
1466441572.16,2.475834,-0.056230,-1.733527,-0.245119,10.560791,-0.195144,0.616680,0.056200,0.785205,0.247196,0.021788,0.438916,-29.521238,126.755287,26.248217,,,,,,
1466441572.17,2.583234,-0.055234,-1.730420,-0.259777,10.760416,-0.195346,0.528987,0.055206,0.846833,0.354085,0.016785,0.416946,-29.521238,126.755287,26.248217,,,,,,
1466441572.18,2.691043,-0.054013,-1.727462,-0.249140,10.743435,-0.200551,0.434825,0.053987,0.898895,0.452458,0.027525,0.389633,-29.521238,126.755287,26.248217,,,,,,
1466441572.19,2.796942,-0.052465,-1.724680,-0.249463,10.492838,-0.194722,0.337403,0.052441,0.939899,0.540863,0.022556,0.349530,-34.942490,126.512245,20.026245,,,,,,
1466441572.20,2.898617,-0.050695,-1.722174,-0.238354,10.020316,-0.186426,0.240283,0.050673,0.969379,0.612333,0.017182,0.262493,-34.942490,126.512245,20.026245,,,,,,
1466441572.21,2.994175,-0.048870,-1.719984,-0.217878,9.372598,-0.179150,0.146709,0.048851,0.987973,0.651341,0.019905,0.194232,-34.942490,126.512245,20.026245,,,,,,
1466441572.22,3.082454,-0.046972,-1.718126,-0.201809,8.623980,-0.160601,0.059039,0.046955,0.997151,0.666349,0.019573,0.116893,-41.214561,126.093056,5.410873,,,,,,
1466441572.23,-3.120978,-0.045177,-1.716595,-0.177391,7.732030,-0.146467,-0.020593,0.045162,0.998767,0.679986,0.017979,0.044583,-41.214561,126.093056,5.410873,,,,,,
1466441572.24,-3.050912,-0.043459,-1.715407,-0.159484,6.757236,-0.122240,-0.090471,0.043445,0.994951,0.648073,0.018811,-0.046739,-41.214561,126.093056,5.410873,,,,,,
1466441572.25,-2.991028,-0.041942,-1.714462,-0.134197,5.709201,-0.107126,-0.149864,0.041930,0.987817,0.648506,0.022371,-0.115869,-41.975433,125.953323,-1.095014,,,,,,
1466441572.26,-2.942840,-0.040645,-1.713794,-0.109112,4.515672,-0.081520,-0.197284,0.040634,0.979504,0.631946,0.013428,-0.201550,-41.975433,125.953323,-1.095014,,,,,,
1466441572.27,-2.907160,-0.039683,-1.713319,-0.074540,3.235088,-0.061745,-0.232108,0.039673,0.971881,0.625708,0.015335,-0.275363,-41.975433,125.953323,-1.095014,,,,,,
1466441572.28,-2.884266,-0.039067,-1.713035,-0.045264,1.985284,-0.036846,-0.254302,0.039057,0.966336,0.569473,0.004812,-0.318982,-41.349945,125.814583,-9.394181,,,,,,
1466441572.29,-2.873378,-0.038767,-1.712909,-0.016990,0.782206,-0.014371,-0.264811,0.038757,0.963521,0.544611,0.007660,-0.335424,-41.349945,125.814583,-9.394181,,,,,,
1466441572.30,-2.875231,-0.038834,-1.712937,0.012231,-0.511131,0.010801,-0.263025,0.038824,0.964008,0.526605,0.001871,-0.360797,-41.349945,125.814583,-9.394181,,,,,,
1466441572.31,-2.889930,-0.039257,-1.713104,0.044685,-1.781099,0.031571,-0.248823,0.039247,0.967754,0.501325,0.005828,-0.375682,-41.089523,125.796692,-10.687344,,,,,,
1466441572.32,-2.916413,-0.039992,-1.713427,0.070905,-2.923653,0.053666,-0.223103,0.039981,0.973975,0.465489,0.007168,-0.348059,-41.089523,125.796692,-10.687344,,,,,,
1466441572.33,-2.953088,-0.040994,-1.713916,0.093078,-3.899499,0.073646,-0.187232,0.040983,0.981460,0.420738,0.008211,-0.288223,-41.089523,125.796692,-10.687344,,,,,,
1466441572.34,-2.999681,-0.042240,-1.714590,0.117327,-4.920999,0.091785,-0.141310,0.042228,0.989064,0.434507,0.010568,-0.244466,-41.632786,125.840363,-7.634835,,,,,,
1466441572.35,-3.056306,-0.043703,-1.715502,0.139517,-5.883041,0.111679,-0.085102,0.043689,0.995414,0.405339,0.010022,-0.207587,-41.632786,125.840363,-7.634835,,,,,,
1466441572.36,-3.121097,-0.045285,-1.716612,0.155563,-6.662430,0.122970,-0.020473,0.045269,0.998765,0.384746,0.008976,-0.129350,-41.632786,125.840363,-7.634835,,,,,,
1466441572.37,3.090471,-0.046968,-1.717964,0.173911,-7.300606,0.135506,0.051043,0.046951,0.997592,0.349378,0.010789,-0.044360,-41.969902,125.907600,-3.630177,,,,,,
1466441572.38,3.013306,-0.048618,-1.719564,0.180668,-7.842153,0.147424,0.127784,0.048599,0.990611,0.389993,0.017120,0.082708,-41.969902,125.907600,-3.630177,,,,,,
1466441572.39,2.931076,-0.050268,-1.721428,0.199217,-8.321055,0.157898,0.208702,0.050247,0.976688,0.338295,0.019669,0.159604,-41.969902,125.907600,-3.630177,,,,,,
1466441572.40,2.845812,-0.051814,-1.723462,0.197846,-8.565269,0.159428,0.291096,0.051791,0.955291,0.293514,0.012052,0.227891,-40.650948,126.151733,7.785686,,,,,,
1466441572.41,2.759192,-0.053175,-1.725664,0.207298,-8.668272,0.161148,0.372621,0.053150,0.926460,0.254225,0.018902,0.278801,-40.650948,126.151733,7.785686,,,,,,
1466441572.42,2.672229,-0.054399,-1.727999,0.206228,-8.670399,0.162224,0.451650,0.054372,0.890537,0.192103,0.008159,0.317059,-40.650948,126.151733,7.785686,,,,,,
1466441572.43,2.586467,-0.055357,-1.730346,0.197933,-8.501553,0.155835,0.526242,0.055329,0.848533,0.101626,0.010086,0.377755,-38.364807,126.322578,14.075665,,,,,,
1466441572.44,2.504302,-0.056185,-1.732727,0.200592,-8.087437,0.147918,0.594081,0.056155,0.802443,0.033132,0.006161,0.389162,-38.364807,126.322578,14.075665,,,,,,
1466441572.45,2.427083,-0.056712,-1.734964,0.176767,-7.568185,0.138251,0.654194,0.056682,0.754200,-0.065205,0.011220,0.399365,-38.364807,126.322578,14.075665,,,,,,
1466441572.46,2.356334,-0.057081,-1.737120,0.169125,-6.879056,0.128599,0.705857,0.057050,0.706054,-0.122254,0.009234,0.394792,-31.097988,126.691124,24.691111,,,,,,
1466441572.47,2.293100,-0.057215,-1.738984,0.140290,-6.117697,0.112087,0.749057,0.057184,0.660033,-0.196445,0.009069,0.387773,-31.097988,126.691124,24.691111,,,,,,
1466441572.48,2.238197,-0.057315,-1.740678,0.131795,-5.263979,0.098208,0.784144,0.057284,0.617930,-0.257822,0.005781,0.360799,-27.238977,126.848442,28.193785,,,,,,
1466441572.50,2.156655,-0.057197,-1.743179,0.084233,-3.323977,0.062576,0.831875,0.057166,0.552011,-0.351071,-0.001395,0.332923,-27.238977,126.848442,28.193785,,,,,,
1466441572.49,2.192461,-0.057253,-1.742061,0.098924,-4.322117,0.082689,0.811578,0.057221,0.581435,-0.302987,-0.001008,0.357774,-27.238977,126.848442,28.193785,,,,,,
1466441572.51,2.131220,-0.057112,-1.743914,0.051515,-2.268488,0.041022,0.845649,0.057081,0.530679,-0.401221,-0.008253,0.336112,-27.238977,126.848442,28.193785,,,,,,
1466441572.53,2.114650,-0.057109,-1.744470,0.001207,0.022984,-0.001076,0.854326,0.057078,0.516594,-0.400407,-0.005320,0.298134,-22.004520,127.039841,31.686888,,,,,,
1466441572.52,2.117192,-0.057104,-1.744376,0.032771,-1.105766,0.019873,0.853010,0.057073,0.518764,-0.412870,-0.004155,0.326618,-22.004520,127.039841,31.686888,,,,,,
1466441572.54,2.122709,-0.057164,-1.744250,-0.021953,1.060416,-0.021443,0.850132,0.057133,0.523461,-0.394520,-0.001652,0.281334,-21.440710,127.061203,31.986311,,,,,,
1466441572.56,2.169724,-0.057349,-1.742869,-0.069405,3.085368,-0.059737,0.824583,0.057317,0.562830,-0.299223,0.002665,0.266912,-21.440710,127.061203,31.986311,,,,,,
1466441572.55,2.141174,-0.057246,-1.743704,-0.048299,2.106340,-0.040802,0.840318,0.057215,0.539066,-0.357988,0.001592,0.285061,-21.440710,127.061203,31.986311,,,,,,
1466441572.57,2.206839,-0.057416,-1.741762,-0.091796,3.895558,-0.073356,0.803127,0.057385,0.593038,-0.239895,0.000523,0.244242,-22.347183,127.031525,31.479719,,,,,,
1466441572.59,2.302831,-0.057398,-1.738899,-0.125099,5.331177,-0.098360,0.742591,0.057366,0.667284,-0.131110,0.000587,0.265486,-22.347183,127.031525,31.479719,,,,,,
1466441572.58,2.251221,-0.057457,-1.740428,-0.105790,4.605941,-0.088470,0.776023,0.057426,0.628085,-0.198325,-0.000556,0.253308,-22.347183,127.031525,31.479719,,,,,,
1466441572.60,2.360799,-0.057279,-1.737165,-0.136041,5.926886,-0.113816,0.702689,0.057248,0.709190,-0.076957,0.003482,0.262505,-22.347183,127.031525,31.479719,,,,,,
1466441572.61,2.423807,-0.057048,-1.735318,-0.146089,6.396223,-0.122091,0.656648,0.057017,0.752038,-0.006243,0.006002,0.240164,-27.536301,126.844780,27.920053,,,,,,
1466441572.62,2.490681,-0.056622,-1.733354,-0.157328,6.769989,-0.126576,0.604941,0.056592,0.794257,0.049066,0.010104,0.247186,-27.536301,126.844780,27.920053,,,,,,
1466441572.63,2.560757,-0.056073,-1.731382,-0.161223,7.059863,-0.128397,0.547860,0.056043,0.834691,0.124503,0.013399,0.214610,-31.011698,126.704544,24.730759,,,,,,
1466441572.65,2.703708,-0.054518,-1.727457,-0.158985,7.141629,-0.132101,0.423394,0.054491,0.904305,0.247214,0.006696,0.166724,-31.011698,126.704544,24.730759,,,,,,
1466441572.64,2.632183,-0.055340,-1.729378,-0.166445,7.136323,-0.132076,0.486916,0.055312,0.871696,0.179436,0.007631,0.183846,-31.011698,126.704544,24.730759,,,,,,
1466441572.66,2.774399,-0.053587,-1.725622,-0.157026,7.008897,-0.129138,0.358482,0.053562,0.931999,0.315682,-0.042652,0.096871,-37.393894,126.393684,15.928258,,,,,,
1466441572.68,2.907043,-0.051472,-1.722311,-0.166465,6.291094,-0.114001,0.232098,0.051450,0.971331,0.360722,0.011951,0.016844,-37.393894,126.393684,15.928258,,,,,,
1466441572.67,2.842879,-0.052732,-1.723889,-0.129678,6.746610,-0.124272,0.293882,0.052708,0.954387,0.335925,0.101528,0.041218,-37.393894,126.393684,15.928258,,,,,,
1466441572.69,2.966286,-0.050444,-1.720955,-0.122356,5.789927,-0.120394,0.174188,0.050423,0.983421,0.425314,0.053459,0.003670,-37.393894,126.393684,15.928258,,,,,,
1466441572.70,3.020502,-0.049362,-1.719765,-0.123014,5.288715,-0.102349,0.120648,0.049342,0.991468,0.452594,-0.055019,0.009173,-40.962242,126.132011,6.339366,,,,,,
1466441572.71,3.069468,-0.048527,-1.718717,-0.091736,4.757801,-0.100053,0.071978,0.048508,0.996226,0.487669,0.065231,-0.080683,-40.962242,126.132011,6.339366,,,,,,
1466441572.72,3.113071,-0.047630,-1.717854,-0.088177,4.224730,-0.080739,0.028485,0.047612,0.998460,0.522189,-0.035207,-0.036286,-40.962242,126.132011,6.339366,,,,,,
1466441572.73,-3.131415,-0.047012,-1.717052,-0.055763,3.754332,-0.076692,-0.010166,0.046995,0.998843,0.534137,0.013323,-0.013934,-41.660671,126.040588,2.352587,,,,,,
1466441572.74,-3.096810,-0.046340,-1.716337,-0.066918,3.354029,-0.070999,-0.044719,0.046323,0.997925,0.531719,0.018603,-0.044541,-41.660671,126.040588,2.352587,,,,,,
1466441572.75,-3.066559,-0.045831,-1.715724,-0.039808,2.906979,-0.061782,-0.074884,0.045815,0.996139,0.572473,0.003318,-0.014236,-41.660671,126.040588,2.352587,,,,,,
1466441572.76,-3.041403,-0.045414,-1.715154,-0.037280,2.376076,-0.058450,-0.099919,0.045398,0.993959,0.575520,0.016079,-0.077104,-41.956921,125.916580,-3.465172,,,,,,
1466441572.77,-3.021746,-0.045176,-1.714650,-0.010288,1.830287,-0.051807,-0.119438,0.045161,0.991814,0.574531,0.013632,-0.063408,-41.956921,125.916580,-3.465172,,,,,,
1466441572.78,-3.007153,-0.045049,-1.714210,-0.006665,1.331223,-0.043351,-0.133899,0.045033,0.989971,0.575046,0.011455,-0.078777,-41.956921,125.916580,-3.465172,,,,,,
1466441572.79,-2.997697,-0.045060,-1.713811,0.010792,0.816181,-0.040100,-0.143254,0.045045,0.988660,0.573583,0.026564,-0.093427,-41.903816,125.871506,-5.273488,,,,,,
1466441572.80,-2.993617,-0.045208,-1.713452,0.020742,0.267213,-0.032390,-0.147286,0.045193,0.988061,0.518914,0.022480,-0.146905,-41.903816,125.871506,-5.273488,,,,,,
1466441572.81,-2.995274,-0.045460,-1.713158,0.034904,-0.317863,-0.023384,-0.145646,0.045444,0.988292,0.492509,-0.002247,-0.167034,-41.871628,125.836090,-6.278764,,,,,,
1466441572.82,-3.003344,-0.045954,-1.712914,0.056433,-0.971959,-0.013938,-0.137663,0.045938,0.989413,0.429808,-0.007654,-0.201098,-41.871628,125.836090,-6.278764,,,,,,
1466441572.83,-3.017860,-0.046607,-1.712776,0.069445,-1.617568,-0.000296,-0.123283,0.046590,0.991277,0.367119,-0.014089,-0.258947,-41.871628,125.836090,-6.278764,,,,,,
1466441572.84,-3.040698,-0.047361,-1.712778,0.072535,-2.538173,0.012932,-0.100611,0.047344,0.993799,0.280192,0.103077,-0.399225,-42.094955,125.791794,-5.640411,,,,,,
1466441572.85,-3.076290,-0.047947,-1.713099,0.055832,-3.930259,0.047193,-0.065181,0.047929,0.996722,0.163081,0.081786,-0.552020,-42.094955,125.791794,-5.640411,,,,,,
1466441572.86,-3.127944,-0.049002,-1.713801,0.120779,-5.585718,0.085315,-0.013632,0.048983,0.998707,0.184377,-0.005541,-0.411854,-42.300991,125.804825,-3.338859,,,,,,
1466441572.87,3.087296,-0.050439,-1.714900,0.157085,-7.174237,0.111281,0.054201,0.050418,0.997256,0.153913,-0.054614,-0.327396,-42.300991,125.804825,-3.338859,,,,,,
1466441572.88,3.002763,-0.052613,-1.716533,0.256026,-8.891298,0.149824,0.138193,0.052588,0.989008,0.199743,-0.141135,-0.020228,-42.300991,125.804825,-3.338859,,,,,,
1466441572.89,2.901173,-0.054840,-1.718787,0.256057,-10.515942,0.190882,0.237752,0.054812,0.969778,0.197001,0.033536,0.017756,-42.188351,125.879112,1.402979,,,,,,
1466441572.90,2.788049,-0.056657,-1.721716,0.259001,-11.489746,0.243828,0.345669,0.056627,0.936646,0.204685,0.188475,0.220382,-42.188351,125.879112,1.402979,,,,,,
1466441572.91,2.672414,-0.058274,-1.724924,0.283562,-11.475879,0.216090,0.451387,0.058241,0.890426,0.378997,-0.089033,0.634812,-42.188351,125.879112,1.402979,,,,,,
1466441572.92,2.562673,-0.059765,-1.727965,0.276002,-10.758017,0.182840,0.546143,0.059729,0.835560,0.253845,-0.068213,0.699093,-37.374321,126.284286,16.817116,,,,,,
1466441572.93,2.458301,-0.061113,-1.730939,0.288285,-10.343849,0.154708,0.630170,0.061075,0.774051,0.111224,-0.052484,0.652310,-37.374321,126.284286,16.817116,,,,,,
1466441572.94,2.358019,-0.062101,-1.733936,0.260157,-9.842676,0.155795,0.704455,0.062062,0.707030,-0.013705,0.063335,0.543153,-37.374321,126.284286,16.817116,,,,,,
1466441572.95,2.266336,-0.062484,-1.736600,0.215548,-8.899785,0.154095,0.766210,0.062443,0.639549,-0.126897,0.080364,0.614265,-37.374321,126.284286,16.817116,,,,,,
1466441572.96,2.183859,-0.062600,-1.739202,0.208126,-8.029096,0.146498,0.816288,0.062560,0.574248,-0.164630,0.037309,0.594346,-27.176807,126.743675,28.719982,,,,,,
1466441572.97,2.110407,-0.062516,-1.741431,0.175321,-7.047924,0.122216,0.856233,0.062476,0.512798,-0.273439,-0.015418,0.530537,-27.176807,126.743675,28.719982,,,,,,
1466441572.98,2.049916,-0.062470,-1.743247,0.147278,-5.689773,0.080672,0.885670,0.062429,0.460099,-0.338887,-0.040426,0.603850,-27.176807,126.743675,28.719982,,,,,,
1466441572.99,2.002377,-0.062490,-1.744651,0.120128,-4.444215,0.054738,0.906533,0.062449,0.417491,-0.419075,0.007162,0.484563,-22.086004,126.932388,32.058632,,,,,,
1466441573.00,1.967418,-0.062438,-1.745640,0.078095,-3.155159,0.044482,0.920574,0.062397,0.385551,-0.477093,0.027828,0.410103,-22.086004,126.932388,32.058632,,,,,,
1466441573.01,1.945441,-0.062396,-1.746290,0.052025,-1.887321,0.024796,0.928827,0.062355,0.365230,-0.467004,0.022178,0.386998,-22.086004,126.932388,32.058632,,,,,,
1466441573.02,1.935338,-0.062424,-1.746616,0.024785,-0.707606,0.003532,0.932468,0.062383,0.355827,-0.487002,0.003840,0.370446,-16.292454,127.119614,34.677597,,,,,,
1466441573.03,1.938092,-0.062573,-1.746576,-0.006530,0.611221,-0.023930,0.931475,0.062532,0.358390,-0.487963,-0.010057,0.371819,-16.292454,127.119614,34.677597,,,,,,
1466441573.04,1.954153,-0.062859,-1.746143,-0.035730,1.924727,-0.047099,0.925583,0.062817,0.373297,-0.462479,-0.001218,0.338175,-16.292454,127.119614,34.677597,,,,,,
1466441573.05,1.982103,-0.063241,-1.745363,-0.065162,3.053480,-0.069110,0.914767,0.063198,0.399009,-0.382952,-0.005703,0.318887,-16.045847,127.130051,34.754234,,,,,,
1466441573.06,2.019536,-0.063631,-1.744298,-0.085299,3.961358,-0.084404,0.899171,0.063588,0.432952,-0.362352,0.008311,0.311189,-16.045847,127.130051,34.754234,,,,,,
1466441573.07,2.067327,-0.064023,-1.742921,-0.112654,5.052937,-0.102986,0.877439,0.063980,0.475402,-0.328291,0.012375,0.323945,-16.045847,127.130051,34.754234,,,,,,
1466441573.09,2.194053,-0.064545,-1.739147,-0.160260,6.968500,-0.132079,0.810291,0.064500,0.582467,-0.168461,0.008437,0.364585,-20.766211,126.986160,32.720882,,,,,,
1466441573.08,2.126147,-0.064346,-1.741150,-0.142163,6.125405,-0.121451,0.847957,0.064302,0.526151,-0.261470,0.013030,0.356631,-20.766211,126.986160,32.720882,,,,,,
1466441573.10,2.269336,-0.064643,-1.736964,-0.166794,7.686309,-0.146167,0.764183,0.064598,0.641757,-0.062996,0.011788,0.362073,-20.766211,126.986160,32.720882,,,,,,
1466441573.11,2.350640,-0.064555,-1.734544,-0.193755,8.244860,-0.160342,0.709542,0.064510,0.701704,0.022407,-0.005596,0.334749,-25.060722,126.838203,30.189507,,,,,,
1466441573.12,2.437035,-0.064232,-1.731990,-0.195258,8.740728,-0.165582,0.646361,0.064188,0.760327,0.101716,0.013190,0.378070,-25.060722,126.838203,30.189507,,,,,,
1466441573.13,2.526791,-0.063652,-1.729404,-0.209822,9.010439,-0.169417,0.575628,0.063609,0.815234,0.202570,0.006551,0.325696,-25.060722,126.838203,30.189507,,,,,,
1466441573.14,2.617836,-0.062866,-1.726827,-0.200120,9.098576,-0.174218,0.499149,0.062824,0.864236,0.293042,0.013897,0.304130,-34.474728,126.454033,21.171843,,,,,,
1466441573.15,2.708457,-0.061817,-1.724369,-0.209813,9.017873,-0.169463,0.418917,0.061778,0.905920,0.348844,0.004476,0.256723,-34.474728,126.454033,21.171843,,,,,,
1466441573.16,2.797376,-0.060625,-1.722071,-0.190903,8.813997,-0.168166,0.336839,0.060588,0.939611,0.425566,0.014943,0.221568,-34.474728,126.454033,21.171843,,,,,,
1466441573.17,2.882830,-0.059292,-1.719967,-0.190338,8.425359,-0.159341,0.255435,0.059257,0.965008,0.456952,0.010399,0.167346,-38.206814,126.254066,15.083928,,,,,,
1466441573.18,2.963349,-0.057919,-1.718105,-0.167604,7.886993,-0.148491,0.177004,0.057886,0.982506,0.524732,0.016821,0.087318,-38.206814,126.254066,15.083928,,,,,,
1466441573.19,3.037074,-0.056553,-1.716507,-0.155734,7.174500,-0.137624,0.104162,0.056523,0.992953,0.539317,0.014018,0.007932,-38.206814,126.254066,15.083928,,,,,,
1466441573.20,3.102826,-0.055228,-1.715191,-0.136557,6.362164,-0.115479,0.038698,0.055200,0.997725,0.531996,0.026160,-0.063277,-41.944340,125.938889,2.728777,,,,,,
1466441573.21,-3.123309,-0.053945,-1.714111,-0.127046,5.463859,-0.104514,-0.018256,0.053918,0.998378,0.540168,0.036093,-0.136486,-41.944340,125.938889,2.728777,,,,,,
1466441573.22,-3.075800,-0.052832,-1.713289,-0.100596,4.508176,-0.081462,-0.065653,0.052807,0.996444,0.522623,0.033588,-0.181686,-41.944340,125.938889,2.728777,,,,,,
1466441573.23,-3.037857,-0.051835,-1.712670,-0.092248,3.538719,-0.065794,-0.103411,0.051812,0.993288,0.532168,0.025504,-0.222719,-42.270107,125.841965,-2.101287,,,,,,
1466441573.24,-3.010966,-0.051066,-1.712296,-0.062836,2.399340,-0.040523,-0.130085,0.051043,0.990188,0.491871,0.015622,-0.296844,-42.270107,125.841965,-2.101287,,,,,,
1466441573.25,-2.995256,-0.050571,-1.712068,-0.040811,1.297154,-0.025073,-0.145628,0.050550,0.988047,0.502943,0.019671,-0.300120,-42.270107,125.841965,-2.101287,,,,,,
1466441573.26,-2.990171,-0.050361,-1.712014,-0.013407,0.251221,-0.002519,-0.150653,0.050340,0.987304,0.461947,-0.000718,-0.298019,-41.972321,125.759125,-7.095229,,,,,,
1466441573.27,-2.995262,-0.050462,-1.712114,0.015111,-0.760727,0.016629,-0.145623,0.050441,0.988053,0.440698,-0.008647,-0.286256,-41.972321,125.759125,-7.095229,,,,,,
1466441573.28,-3.010179,-0.050848,-1.712350,0.042626,-1.727011,0.033361,-0.130866,0.050826,0.990096,0.437537,-0.009002,-0.261932,-41.972321,125.759125,-7.095229,,,,,,
1466441573.29,-3.033748,-0.051464,-1.712717,0.060747,-2.547814,0.045978,-0.107493,0.051441,0.992874,0.451197,0.005383,-0.213898,-41.968628,125.761185,-7.080655,,,,,,
1466441573.30,-3.064677,-0.052269,-1.713171,0.082173,-3.272009,0.063315,-0.076735,0.052245,0.995682,0.422087,0.014070,-0.155273,-41.968628,125.761185,-7.080655,,,,,,
1466441573.31,-3.103092,-0.053216,-1.713792,0.095049,-4.035464,0.072374,-0.038437,0.053191,0.997844,0.389008,0.008683,-0.180767,-41.968628,125.761185,-7.080655,,,,,,
1466441573.32,3.134153,-0.054306,-1.714620,0.111160,-4.755404,0.087549,0.007429,0.054279,0.998498,0.346530,0.011776,-0.150552,-42.262638,125.829407,-2.864647,,,,,,
,,,,,,,,,,,,,,,,29.719954,-95.399129,9.583241,-1.000000,-1.000000,1466441608.25
1466441573.33,3.082320,-0.055508,-1.715591,0.126417,-5.316058,0.096403,0.059147,0.055480,0.996706,0.328625,0.023652,-0.093401,-42.262638,125.829407,-2.864647,,,,,,
1466441573.34,3.024113,-0.056759,-1.716762,0.138333,-5.991391,0.108101,0.117021,0.056728,0.991508,0.304747,0.015263,-0.071525,-42.262638,125.829407,-2.864647,,,,,,
1466441573.35,2.959368,-0.058049,-1.718190,0.150309,-6.607281,0.125814,0.180913,0.058016,0.981786,0.250636,0.009458,-0.027303,-42.131935,125.902092,0.969146,,,,,,
1466441573.36,2.889454,-0.059332,-1.719799,0.162464,-7.094669,0.134205,0.249036,0.059297,0.966677,0.250948,0.014464,0.053709,-42.131935,125.902092,0.969146,,,,,,
1466441573.37,2.816074,-0.060544,-1.721622,0.169536,-7.391989,0.140334,0.319214,0.060507,0.945749,0.209488,0.017725,0.115179,-42.131935,125.902092,0.969146,,,,,,
1466441573.38,2.741575,-0.061642,-1.723552,0.171620,-7.424912,0.142672,0.388695,0.061603,0.919305,0.162133,0.013668,0.206443,-39.880554,126.144035,11.162397,,,,,,
1466441573.39,2.668440,-0.062585,-1.725485,0.165454,-7.258189,0.135233,0.454803,0.062544,0.888393,0.119996,0.007524,0.262318,-39.880554,126.144035,11.162397,,,,,,
1466441573.40,2.597046,-0.063431,-1.727471,0.173158,-7.068112,0.127662,0.516989,0.063389,0.853642,0.049051,-0.005650,0.287197,-39.880554,126.144035,11.162397,,,,,,
1466441573.41,2.529344,-0.064103,-1.729407,0.155606,-6.639120,0.119632,0.573529,0.064059,0.816677,-0.009716,-0.005023,0.313114,-37.492889,126.297836,16.447357,,,,,,
1466441573.42,2.466542,-0.064613,-1.731200,0.148797,-6.141105,0.106922,0.623633,0.064568,0.779046,-0.054923,0.000084,0.322120,-37.492889,126.297836,16.447357,,,,,,
1466441573.43,2.409305,-0.065059,-1.732887,0.139957,-5.557094,0.097928,0.667158,0.065013,0.742074,-0.119536,0.003346,0.323814,-37.492889,126.297836,16.447357,,,,,,
1466441573.44,2.359336,-0.065315,-1.734350,0.113263,-4.784062,0.083473,0.703379,0.065269,0.707812,-0.176661,-0.002510,0.313092,-31.552935,126.589828,24.633404,,,,,,
1466441573.45,2.317173,-0.065531,-1.735581,0.098274,-4.021645,0.065903,0.732578,0.065484,0.677525,-0.210499,-0.004556,0.311626,-31.552935,126.589828,24.633404,,,,,,
1466441573.46,2.282750,-0.065690,-1.736583,0.082254,-3.228440,0.050268,0.755454,0.065643,0.651905,-0.275565,-0.005920,0.313564,-31.552935,126.589828,24.633404,,,,,,
1466441573.47,2.256579,-0.065868,-1.737361,0.066266,-2.412933,0.032364,0.772245,0.065821,0.631906,-0.276594,-0.009302,0.303306,-28.970358,126.695381,27.136265,,,,,,
1466441573.48,2.238310,-0.066023,-1.737885,0.045987,-1.620788,0.016731,0.783652,0.065975,0.617687,-0.292517,-0.006131,0.250172,-28.970358,126.695381,27.136265,,,,,,
1466441573.49,2.228264,-0.066174,-1.738132,0.023613,-0.802095,-0.000134,0.789810,0.066126,0.609777,-0.291137,-0.003397,0.232203,-27.167780,126.764526,28.636387,,,,,,
1466441573.50,2.225782,-0.066317,-1.738188,0.008576,-0.067302,-0.011144,0.791314,0.066268,0.607809,-0.296898,0.002885,0.238581,-27.167780,126.764526,28.636387,,,,,,
1466441573.51,2.230779,-0.066477,-1.738033,-0.007483,0.696169,-0.025529,0.788258,0.066429,0.611749,-0.302158,0.004433,0.212927,-27.167780,126.764526,28.636387,,,,,,
1466441573.52,2.243993,-0.066631,-1.737630,-0.027721,1.523350,-0.040317,0.780098,0.066581,0.622105,-0.278862,0.002800,0.199764,-26.430157,126.789146,29.211916,,,,,,
1466441573.53,2.264704,-0.066768,-1.737004,-0.043849,2.233728,-0.053304,0.767040,0.066718,0.638121,-0.234966,0.006264,0.182787,-26.430157,126.789146,29.211916,,,,,,
1466441573.55,2.326472,-0.066864,-1.735147,-0.081448,3.643859,-0.076023,0.726182,0.066814,0.684248,-0.178056,0.009831,0.144823,-26.430157,126.789146,29.211916,,,,,,
1466441573.54,2.291910,-0.066837,-1.736199,-0.059005,2.880379,-0.059503,0.749394,0.066787,0.658748,-0.208577,0.008912,0.150960,-26.430157,126.789146,29.211916,,,,,,
1466441573.56,2.368872,-0.066789,-1.733854,-0.100693,4.415823,-0.089399,0.696529,0.066739,0.714418,-0.157513,0.008578,0.179869,-29.381145,126.674324,26.790680,,,,,,
1466441573.57,2.416849,-0.066660,-1.732392,-0.111813,4.877730,-0.098694,0.661471,0.066611,0.747007,-0.081027,-0.001333,0.211612,-29.381145,126.674324,26.790680,,,,,,
1466441573.58,2.467483,-0.066451,-1.730887,-0.112583,5.109210,-0.102275,0.622824,0.066402,0.779539,-0.032157,-0.006694,0.164751,-31.918209,126.565483,24.285450,,,,,,
1466441573.59,2.521047,-0.066161,-1.729317,-0.119633,5.420339,-0.110620,0.580207,0.066112,0.811781,0.010629,-0.004177,0.163164,-31.918209,126.565483,24.285450,,,,,,
1466441573.60,2.576370,-0.065837,-1.727722,-0.113103,5.526528,-0.115537,0.534443,0.065789,0.842640,0.062938,0.002662,0.169979,-34.545776,126.443642,21.118032,,,,,,
1466441573.61,2.631363,-0.065618,-1.726146,-0.098230,5.477715,-0.129054,0.487327,0.065570,0.870754,0.119149,-0.049320,0.125477,-34.545776,126.443642,21.118032,,,,,,
1466441573.62,2.686264,-0.065232,-1.724657,-0.101420,5.503162,-0.115379,0.438823,0.065186,0.896206,0.155828,-0.003388,0.112232,-34.545776,126.443642,21.118032,,,,,,
1466441573.64,2.801043,-0.064073,-1.721538,-0.119215,5.739965,-0.121140,0.333319,0.064029,0.940637,0.258126,0.056866,0.018073,-36.972576,126.316765,17.449350,,,,,,
1466441573.63,2.743219,-0.064791,-1.723092,-0.111749,5.751638,-0.120141,0.387106,0.064746,0.919759,0.234705,0.000135,0.090144,-36.972576,126.316765,17.449350,,,,,,
1466441573.65,2.856424,-0.063403,-1.720155,-0.107876,5.457493,-0.109777,0.280754,0.063361,0.957686,0.300743,0.019082,0.032197,-36.972576,126.316765,17.449350,,,,,,
1466441573.67,2.958515,-0.061682,-1.717637,-0.102374,4.764110,-0.096907,0.181711,0.061643,0.981418,0.386237,0.022479,-0.043857,-40.576183,126.076599,9.254212,,,,,,
1466441573.66,2.909362,-0.062519,-1.718832,-0.119886,5.230256,-0.101977,0.229700,0.062478,0.971254,0.328925,0.047324,-0.021547,-40.576183,126.076599,9.254212,,,,,,
1466441573.68,3.001367,-0.060771,-1.716655,-0.105348,4.114247,-0.077932,0.139509,0.060734,0.988357,0.342364,0.054180,-0.146666,-40.576183,126.076599,9.254212,,,,,,
1466441573.69,3.036182,-0.059970,-1.715869,-0.084103,3.241408,-0.062857,0.105027,0.059934,0.992662,0.365585,0.028414,-0.160783,-40.576183,126.076599,9.254212,,,,,,
1466441573.70,3.061001,-0.059254,-1.715363,-0.072644,2.220957,-0.037286,0.080363,0.059219,0.995005,0.325948,0.033722,-0.259898,-40.576183,126.076599,9.254212,,,,,,
1466441573.71,3.076211,-0.058766,-1.715088,-0.042947,1.301382,-0.017651,0.065222,0.058732,0.996141,0.297312,0.017928,-0.263505,-42.066830,125.905685,2.348330,,,,,,
1466441573.72,3.083856,-0.058485,-1.714965,-0.026789,0.603767,-0.012195,0.057606,0.058452,0.996627,0.307567,-0.021953,-0.218413,-42.066830,125.905685,2.348330,,,,,,
1466441573.73,3.084985,-0.058426,-1.714929,0.003228,-0.067334,0.001624,0.056481,0.058393,0.996695,0.348884,-0.013547,-0.164831,-42.215149,125.875259,0.822638,,,,,,
1466441573.74,3.078157,-0.058611,-1.715102,0.023468,-0.886032,0.020616,0.063284,0.058577,0.996275,0.297662,-0.025817,-0.203444,-42.215149,125.875259,0.822638,,,,,,
1466441573.75,3.064325,-0.058976,-1.715366,0.042897,-1.523127,0.025696,0.077057,0.058942,0.995283,0.286392,-0.007444,-0.207060,-42.215149,125.875259,0.822638,,,,,,
1466441573.76,3.045442,-0.059462,-1.715727,0.055049,-2.009459,0.036209,0.095833,0.059427,0.993622,0.275459,0.007132,-0.150192,-44.207443,120.464790,3.649328,,,,,,
1466441573.77,3.020926,-0.060043,-1.716258,0.065994,-2.606225,0.049543,0.120158,0.060007,0.990940,0.227850,0.002707,-0.151111,-44.207443,120.464790,3.649328,,,,,,
1466441573.78,2.990123,-0.060708,-1.716934,0.077992,-3.218905,0.058719,0.150613,0.060671,0.986729,0.234122,0.017683,-0.159825,-44.207443,120.464790,3.649328,,,,,,
1466441573.79,2.954592,-0.061415,-1.717716,0.083823,-3.653263,0.068903,0.185562,0.061377,0.980714,0.236481,0.016062,-0.118485,-43.916718,120.504417,5.420998,,,,,,
1466441573.80,2.915458,-0.062127,-1.718626,0.090857,-3.979254,0.076277,0.223780,0.062087,0.972660,0.177953,0.026017,-0.084950,-43.916718,120.504417,5.420998,,,,,,
1466441573.81,2.872833,-0.062864,-1.719671,0.094682,-4.319047,0.082670,0.265011,0.062822,0.962197,0.186985,0.011015,-0.034981,-43.319916,120.568710,8.121116,,,,,,
1466441573.82,2.827017,-0.063598,-1.720824,0.107048,-4.636549,0.091060,0.308787,0.063555,0.949005,0.141820,-0.001101,0.027771,-43.319916,120.568710,8.121116,,,,,,
1466441573.83,2.779549,-0.064361,-1.722073,0.114345,-4.758664,0.092898,0.353453,0.064316,0.933239,0.117998,0.001159,0.069416,-43.319916,120.568710,8.121116,,,,,,
1466441573.84,2.732043,-0.065055,-1.723307,0.110131,-4.732102,0.087405,0.397354,0.065009,0.915360,0.101486,0.009164,0.083389,-43.319916,120.568710,8.121116,,,,,,
1466441573.85,2.684596,-0.065709,-1.724594,0.115432,-4.744854,0.090683,0.440303,0.065662,0.895445,0.031789,-0.002918,0.104234,-43.319916,120.568710,8.121116,,,,,,
1466441573.86,2.637642,-0.066299,-1.725897,0.111295,-4.652467,0.086906,0.481828,0.066250,0.873758,-0.008714,0.009479,0.126166,-39.077820,120.866913,18.533554,,,,,,
1466441573.87,2.593611,-0.066801,-1.727153,0.104299,-4.293565,0.081455,0.519804,0.066751,0.851674,-0.018858,0.006689,0.159877,-39.077820,120.866913,18.533554,,,,,,
1466441573.88,2.552824,-0.067169,-1.728315,0.091880,-4.010055,0.078600,0.554085,0.067118,0.829750,-0.068566,0.011465,0.145119,-37.041199,120.976181,21.727711,,,,,,
1466441573.89,2.514621,-0.067480,-1.729437,0.086915,-3.733966,0.070477,0.585360,0.067429,0.807965,-0.102541,0.011459,0.149509,-37.041199,120.976181,21.727711,,,,,,
1466441573.90,2.480701,-0.067665,-1.730426,0.070488,-3.251893,0.065308,0.612416,0.067614,0.787639,-0.135915,0.017424,0.167470,-37.041199,120.976181,21.727711,,,,,,
1466441573.91,2.452284,-0.067824,-1.731285,0.063689,-2.735843,0.058872,0.634542,0.067772,0.769911,-0.171804,0.011619,0.166246,-35.039764,121.073196,24.349026,,,,,,
1466441573.92,2.428960,-0.067854,-1.732000,0.045227,-2.183682,0.050068,0.652323,0.067802,0.754902,-0.183512,0.003365,0.175045,-35.039764,121.073196,24.349026,,,,,,
1466441573.93,2.411473,-0.067825,-1.732549,0.031062,-1.600731,0.041076,0.665425,0.067773,0.743382,-0.188252,0.004645,0.158306,-35.039764,121.073196,24.349026,,,,,,
1466441573.94,2.399660,-0.067773,-1.732921,0.015817,-1.036879,0.027944,0.674163,0.067721,0.735471,-0.197143,0.004575,0.140475,-32.099907,121.204788,27.538635,,,,,,
1466441573.95,2.396344,-0.067704,-1.732911,0.001665,-0.447537,0.016783,0.676601,0.067652,0.733236,-0.200313,0.001562,0.154826,-32.099907,121.204788,27.538635,,,,,,
1466441573.96,2.396088,-0.067598,-1.732941,-0.009334,0.110994,0.006882,0.676794,0.067546,0.733067,-0.193365,-0.002529,0.153468,-32.099907,121.204788,27.538635,,,,,,
1466441573.97,2.401344,-0.067461,-1.732793,-0.023532,0.664221,-0.004053,0.672937,0.067410,0.736622,-0.186533,-0.002102,0.137371,-31.638161,121.220139,28.001511,,,,,,
1466441573.98,2.412376,-0.067284,-1.732455,-0.038761,1.241873,-0.016207,0.664778,0.067234,0.744009,-0.156004,-0.006183,0.140650,-31.638161,121.220139,28.001511,,,,,,
1466441573.99,2.428805,-0.067087,-1.731963,-0.044573,1.693159,-0.024365,0.652474,0.067037,0.754840,-0.129433,-0.009832,0.120587,-31.638161,121.220139,28.001511,,,,,,
1466441574.00,2.448632,-0.066922,-1.731374,-0.053655,2.075442,-0.037416,0.637388,0.066872,0.767636,-0.114012,-0.010964,0.119587,-31.638161,121.220139,28.001511,,,,,,
1466441574.01,2.472651,-0.066718,-1.730651,-0.063758,2.504425,-0.043310,0.618776,0.066668,0.782733,-0.107363,0.003522,0.122357,-32.566498,121.180634,27.093523,,,,,,
1466441574.02,2.500835,-0.066435,-1.729828,-0.074954,2.908989,-0.050116,0.596484,0.066386,0.799875,-0.070773,0.019551,0.089530,-32.566498,121.180634,27.093523,,,,,,
1466441574.03,2.532569,-0.066185,-1.728906,-0.086286,3.211610,-0.052026,0.570814,0.066137,0.818411,-0.056837,0.043833,0.057169,-33.817116,121.125389,25.776423,,,,,,
1466441574.04,2.566779,-0.065676,-1.727939,-0.097667,3.476004,-0.053695,0.542507,0.065629,0.837484,-0.002208,0.017639,0.076105,-33.817116,121.125389,25.776423,,,,,,
1466441574.05,2.602726,-0.065098,-1.726949,-0.104951,3.614037,-0.052439,0.512077,0.065052,0.856473,0.018029,0.022106,0.043704,-33.817116,121.125389,25.776423,,,,,,
1466441574.06,2.639661,-0.064417,-1.725928,-0.112280,3.709608,-0.055175,0.480122,0.064373,0.874837,0.063473,0.035816,0.014125,-37.152836,120.968544,21.579138,,,,,,
1466441574.07,2.677335,-0.063578,-1.724907,-0.130323,3.775414,-0.042832,0.446855,0.063535,0.892348,0.043090,0.051775,0.023927,-37.152836,120.968544,21.579138,,,,,,
1466441574.08,2.715425,-0.062594,-1.723917,-0.133485,3.794540,-0.047213,0.412575,0.062553,0.908773,0.107261,0.054558,-0.019247,-38.793564,120.881416,19.029488,,,,,,
1466441574.09,2.752298,-0.061419,-1.722994,-0.141154,3.634191,-0.038764,0.378820,0.061381,0.923433,0.165964,-0.013896,0.018050,-38.793564,120.881416,19.029488,,,,,,
1466441574.10,2.786875,-0.060429,-1.722111,-0.122288,3.386796,-0.042516,0.346692,0.060392,0.936033,0.176990,-0.029890,-0.016996,-38.793564,120.881416,19.029488,,,,,,
1466441574.11,2.818392,-0.059454,-1.721296,-0.115177,3.096948,-0.051335,0.317042,0.059419,0.946548,0.191198,-0.021425,-0.030014,-40.222229,120.799217,16.404339,,,,,,
1466441574.12,2.848082,-0.058620,-1.720582,-0.096223,2.935533,-0.046046,0.288817,0.058587,0.955590,0.230882,-0.030206,-0.015969,-40.222229,120.799217,16.404339,,,,,,
1466441574.13,2.876934,-0.057865,-1.719856,-0.092045,2.865461,-0.048796,0.261142,0.057833,0.963566,0.258740,-0.034502,-0.018300,-40.222229,120.799217,16.404339,,,,,,
1466441574.15,2.931987,-0.056658,-1.718451,-0.067798,2.662660,-0.053887,0.207741,0.056628,0.976543,0.336418,-0.014605,-0.071560,-42.200115,120.662094,11.797914,,,,,,
1466441574.14,2.905189,-0.057228,-1.719147,-0.075083,2.801753,-0.051573,0.233825,0.057196,0.970595,0.300233,-0.031058,-0.028090,-42.200115,120.662094,11.797914,,,,,,
1466441574.16,2.956294,-0.056190,-1.717778,-0.056471,2.345193,-0.058271,0.183950,0.056160,0.981330,0.337611,0.009895,-0.110496,-42.200115,120.662094,11.797914,,,,,,
1466441574.17,2.977999,-0.055730,-1.717181,-0.055678,2.128585,-0.056912,0.162612,0.055701,0.985117,0.340043,0.010736,-0.094446,-42.200115,120.662094,11.797914,,,,,,
1466441574.18,2.998675,-0.055285,-1.716577,-0.053681,2.035125,-0.048872,0.142214,0.055257,0.988292,0.317228,0.021113,-0.097866,-43.449844,120.543594,7.793149,,,,,,
1466441574.19,3.017082,-0.054809,-1.715994,-0.052971,1.748443,-0.049203,0.124003,0.054781,0.990769,0.343053,0.018156,-0.135376,-43.449844,120.543594,7.793149,,,,,,
1466441574.20,3.030523,-0.054413,-1.715514,-0.041977,1.184606,-0.040333,0.110677,0.054386,0.992367,0.325022,0.020474,-0.199078,-43.449844,120.543594,7.793149,,,,,,
1466441574.21,3.036941,-0.054114,-1.715190,-0.030147,0.446617,-0.025049,0.104308,0.054088,0.993073,0.284135,0.007374,-0.230790,-43.848686,120.490585,6.220220,,,,,,
1466441574.22,3.034925,-0.054009,-1.715065,-0.006776,-0.426229,-0.007842,0.106310,0.053983,0.992867,0.247541,0.002719,-0.246941,-43.848686,120.490585,6.220220,,,,,,
1466441574.23,3.024057,-0.054100,-1.715145,0.014468,-1.293770,0.011458,0.117094,0.054073,0.991648,0.196490,-0.000698,-0.223566,-43.848686,120.490585,6.220220,,,,,,
1466441574.24,3.005782,-0.054356,-1.715403,0.032736,-1.992475,0.026503,0.135194,0.054330,0.989329,0.191970,-0.003152,-0.172968,-43.848686,120.490585,6.220220,,,,,,
1466441574.25,2.980699,-0.054749,-1.715849,0.048878,-2.685873,0.042576,0.159961,0.054721,0.985605,0.217786,0.001279,-0.166605,-43.982105,120.452477,6.013051,,,,,,
1466441574.26,2.947581,-0.055291,-1.716484,0.070167,-3.524734,0.057439,0.192502,0.055263,0.979739,0.158160,0.001210,-0.151843,-43.982105,120.452477,6.013051,,,,,,
1466441574.27,2.905063,-0.056034,-1.717425,0.100856,-4.496346,0.080594,0.233963,0.056005,0.970631,0.089402,-0.016546,-0.104588,-43.609413,120.484131,7.821411,,,,,,
1466441574.29,2.791709,-0.058212,-1.720411,0.158602,-5.971260,0.104804,0.342208,0.058179,0.937821,0.218400,0.001101,0.064559,-43.609413,120.484131,7.821411,,,,,,
1466441574.28,2.851567,-0.057032,-1.718840,0.145147,-5.620932,0.129205,0.285512,0.057001,0.956678,0.067469,-0.028650,-0.037275,-43.609413,120.484131,7.821411,,,,,,
1466441574.30,2.736460,-0.058997,-1.721700,0.110433,-5.350040,0.085958,0.393455,0.058963,0.917451,0.115044,0.040494,0.172194,-40.994755,120.686455,15.283644,,,,,,
1466441574.31,2.683235,-0.059711,-1.723223,0.139080,-5.379873,0.118107,0.441687,0.059675,0.895182,0.006891,0.019686,0.165471,-40.994755,120.686455,15.283644,,,,,,
1466441574.32,2.627806,-0.060338,-1.724739,0.113392,-5.515721,0.100837,0.490584,0.060302,0.869305,0.037156,0.020585,0.085682,-40.994755,120.686455,15.283644,,,,,,
1466441574.33,2.576219,-0.060685,-1.726099,0.104439,-5.015604,0.096627,0.534745,0.060648,0.842834,-0.031968,0.020743,0.233078,-38.878532,120.809097,19.313293,,,,,,
1466441574.34,2.528264,-0.061023,-1.727556,0.106903,-4.735313,0.103388,0.574522,0.060985,0.816214,-0.086484,0.017933,0.211007,-38.878532,120.809097,19.313293,,,,,,
1466441574.35,2.484154,-0.061142,-1.728759,0.070244,-4.268072,0.089776,0.609949,0.061104,0.790081,-0.118311,0.020607,0.158695,-38.878532,120.809097,19.313293,,,,,,
1466441574.36,2.446102,-0.061202,-1.729869,0.078476,-3.659642,0.078517,0.639563,0.061164,0.766302,-0.140402,-0.015158,0.259119,-33.876656,121.047180,26.064018,,,,,,
1466441574.37,2.413034,-0.061190,-1.730840,0.055674,-3.168007,0.072218,0.664549,0.061152,0.744738,-0.203978,0.003301,0.201993,-33.876656,121.047180,26.064018,,,,,,
1466441574.38,2.386924,-0.061164,-1.731619,0.048152,-2.396034,0.053531,0.683767,0.061126,0.727136,-0.207601,-0.000213,0.200278,-33.876656,121.047180,26.064018,,,,,,
1466441574.39,2.368975,-0.061068,-1.732135,0.023615,-1.600706,0.038939,0.696711,0.061030,0.714751,-0.216318,-0.004572,0.178330,-31.758764,121.135689,28.229530,,,,,,
1466441574.40,2.357921,-0.060969,-1.732459,0.013800,-0.950854,0.026338,0.704573,0.060932,0.707010,-0.215453,-0.016132,0.183065,-31.758764,121.135689,28.229530,,,,,,
1466441574.41,2.351590,-0.060916,-1.732653,0.008993,-0.549472,0.017429,0.709037,0.060879,0.702538,-0.202964,-0.018078,0.217063,-31.758764,121.135689,28.229530,,,,,,
1466441574.42,2.348661,-0.060922,-1.732809,0.009470,-0.181006,0.007667,0.711092,0.060885,0.700458,-0.209826,-0.003374,0.135953,-29.790760,121.212418,29.990654,,,,,,
1466441574.43,2.352258,-0.060829,-1.732692,-0.021515,0.563365,-0.008741,0.708572,0.060792,0.703015,-0.206176,0.009200,0.125995,-29.790760,121.212418,29.990654,,,,,,
1466441574.44,2.363238,-0.060680,-1.732379,-0.033445,1.238678,-0.012988,0.700817,0.060643,0.710759,-0.185299,0.012660,0.171275,-29.790760,121.212418,29.990654,,,,,,
1466441574.45,2.378381,-0.060529,-1.731975,-0.042568,1.598646,-0.019513,0.689980,0.060492,0.721296,-0.169609,0.006082,0.113115,-29.800068,121.214050,29.974852,,,,,,
1466441574.46,2.398229,-0.060262,-1.731394,-0.064254,2.128508,-0.027115,0.675539,0.060226,0.734860,-0.149142,0.011567,0.105472,-29.800068,121.214050,29.974852,,,,,,
1466441574.47,2.423642,-0.059924,-1.730647,-0.078496,2.649875,-0.035722,0.656662,0.059888,0.751803,-0.123291,0.018497,0.136869,-29.800068,121.214050,29.974852,,,,,,
1466441574.48,2.453304,-0.059562,-1.729808,-0.085495,3.011955,-0.038000,0.634090,0.059527,0.770965,-0.122020,0.018232,0.119126,-31.972668,121.127533,28.022308,,,,,,
1466441574.49,2.487810,-0.058867,-1.729088,-0.106095,3.654204,0.013303,0.607140,0.058833,0.792414,-0.021615,0.017339,0.104528,-31.972668,121.127533,28.022308,,,,,,
1466441574.50,2.516174,-0.058442,-1.728326,-0.069635,2.046815,-0.048962,0.584437,0.058409,0.809334,1.200552,-0.000425,-0.558129,-31.972668,121.127533,28.022308,,,,,,
1466441574.51,2.502450,-0.058189,-1.728525,0.016656,-2.055164,0.042846,0.595498,0.058156,0.801249,0.485511,0.022548,-0.907023,-31.972668,121.127533,28.022308,,,,,,
1466441574.52,2.481980,-0.058256,-1.729241,0.026656,-1.709044,0.049201,0.611771,0.058223,0.788889,0.015395,0.000660,0.047094,-34.156982,121.036858,25.744104,,,,,,
1466441574.53,2.476378,-0.057857,-1.729414,-0.021551,-0.260695,0.030489,0.616195,0.057824,0.785468,-0.104431,0.000541,0.337472,-34.156982,121.036858,25.744104,,,,,,
1466441574.54,2.477200,-0.057518,-1.729434,-0.033814,0.138567,0.021586,0.615562,0.057487,0.785989,-0.141166,0.011605,0.042624,-33.366253,121.074669,26.589432,,,,,,
1466441574.55,2.496448,-0.056812,-1.728407,-0.033551,0.347833,0.018143,0.600344,0.056781,0.797724,-0.122530,-0.003482,0.073446,-33.366253,121.074669,26.589432,,,,,,
1466441574.56,2.516007,-0.056279,-1.727573,-0.035222,0.707866,0.011624,0.584645,0.056249,0.809337,-0.090383,-0.000005,0.107259,-33.366253,121.074669,26.589432,,,,,,
1466441574.57,2.526690,-0.055821,-1.727249,-0.061216,1.188905,-0.002063,0.575981,0.055792,0.815557,-0.068107,-0.001303,0.046305,-33.912773,121.031334,26.090616,,,,,,
1466441574.58,2.541236,-0.055413,-1.726861,-0.053343,1.513831,-0.010480,0.564069,0.055385,0.823868,-0.043470,-0.013148,0.081329,-33.912773,121.031334,26.090616,,,,,,
1466441574.59,2.557493,-0.055009,-1.726479,-0.055288,1.668840,-0.006132,0.550615,0.054981,0.832947,-0.036439,-0.016254,0.054214,-33.912773,121.031334,26.090616,,,,,,
1466441574.60,2.575701,-0.054644,-1.726037,-0.052993,1.765525,-0.029089,0.535368,0.054617,0.842851,0.326219,-0.015585,-0.067277,-35.512711,120.947731,24.287321,,,,,,
1466441574.61,2.579763,-0.054346,-1.725955,-0.024991,0.352181,-0.001037,0.531949,0.054320,0.845032,0.344241,-0.012694,-0.350327,-35.512711,120.947731,24.287321,,,,,,
1466441574.62,2.577176,-0.054381,-1.726017,0.008213,-0.340132,0.003338,0.534133,0.054354,0.843652,0.198854,-0.013064,-0.204171,-35.512711,120.947731,24.287321,,,,,,
1466441574.63,2.574887,-0.054401,-1.726042,0.004178,-0.168106,-0.002002,0.536061,0.054374,0.842426,0.095103,-0.015983,0.005413,-36.054958,120.924721,23.593042,,,,,,
1466441574.64,2.574768,-0.054610,-1.726086,0.000215,0.073974,0.000733,0.536156,0.054583,0.842352,0.013054,0.003049,0.013589,-36.054958,120.924721,23.593042,,,,,,
1466441574.65,2.575794,-0.054643,-1.726089,0.005548,0.083525,0.001743,0.535290,0.054616,0.842901,0.077030,-0.008245,0.003657,-36.054958,120.924721,23.593042,,,,,,
1466441574.66,2.560903,-0.053794,-1.726879,0.010552,-0.181983,-0.002971,0.547807,0.053768,0.834875,0.137251,-0.010860,-0.086355,-36.054958,120.924721,23.593042,,,,,,
1466441574.67,2.556092,-0.053937,-1.726992,0.020700,-0.576985,0.001646,0.551813,0.053911,0.832223,0.154654,0.000777,-0.131753,-35.966858,120.930679,23.696730,,,,,,
1466441574.68,2.536893,-0.054947,-1.727818,0.027803,-0.846765,0.010797,0.567657,0.054920,0.821431,0.108750,0.010480,-0.083669,-35.966858,120.930679,23.696730,,,,,,
1466441574.69,2.527705,-0.055152,-1.728046,0.030901,-0.931696,0.006010,0.575174,0.055124,0.816172,0.088263,-0.014093,-0.037134,-35.356056,120.968956,24.409880,,,,,,
