timestamp,attitude_roll,attitude_pitch,attitude_yaw,rotation_rate_x,rotation_rate_y,rotation_rate_z,gravity_x,gravity_y,gravity_z,user_acc_x,user_acc_y,user_acc_z,magnetic_field_x,magnetic_field_y,magnetic_field_z,latitude(degree),longitude(degree),altitude(meter),speed(m/s),course(degree),timestamp
1466451342.66,0.046230,-0.017905,0.442315,0.004461,-0.038830,-0.000889,0.046206,0.017904,-0.998771,0.021650,0.003748,-0.014702,-4.884199,-6.920330,38.429726,,,,,,
1466451342.65,0.046102,-0.017885,0.442314,0.003419,-0.020781,-0.001003,0.046078,0.017884,-0.998778,0.007175,0.002486,-0.010866,-4.884199,-6.920330,38.429726,,,,,,
1466451342.67,0.045653,-0.017883,0.442324,0.011807,-0.120596,0.001760,0.045630,0.017882,-0.998798,0.022744,0.004304,-0.025143,-4.886675,-6.922216,38.429073,,,,,,
1466451342.68,0.044708,-0.017792,0.442350,0.011748,-0.169432,0.001002,0.044686,0.017791,-0.998843,0.034614,0.002107,-0.022535,-4.886675,-6.922216,38.429073,,,,,,
1466451342.69,0.042869,-0.017695,0.442366,0.016951,-0.264994,0.001607,0.042849,0.017694,-0.998925,0.028699,0.003897,-0.031776,-4.886675,-6.922216,38.429073,,,,,,
,,,,,,,,,,,,,,,,29.719995,-95.399073,9.868956,-1.000000,-1.000000,1466451333.49
1466451342.70,0.039400,-0.017571,0.442419,0.021064,-0.374373,0.006554,0.039384,0.017570,-0.999070,0.007720,0.004189,-0.028976,-4.828428,-6.917724,38.437241,,,,,,
1466451342.71,0.036087,-0.017351,0.442462,0.022173,-0.342513,0.004227,0.036074,0.017350,-0.999198,0.012587,0.000945,-0.006585,-4.828428,-6.917724,38.437241,,,,,,
1466451342.72,0.032389,-0.017098,0.442502,0.022093,-0.408341,0.003575,0.032378,0.017097,-0.999329,0.010758,-0.001945,-0.024520,-4.828428,-6.917724,38.437241,,,,,,
1466451342.73,0.026639,-0.016718,0.442525,0.024053,-0.541076,0.006538,0.026632,0.016718,-0.999506,-0.038335,-0.007272,-0.040717,-4.355673,-6.890450,38.498573,,,,,,
1466451342.74,0.021488,-0.016493,0.442557,0.026259,-0.484793,0.002994,0.021483,0.016492,-0.999633,-0.074050,0.011020,0.019912,-4.355673,-6.890450,38.498573,,,,,,
1466451342.75,0.017701,-0.016265,0.442581,0.015782,-0.348877,0.002131,0.017698,0.016265,-0.999711,-0.104993,-0.016509,0.015504,-4.355673,-6.890450,38.498573,,,,,,
1466451342.76,0.015173,-0.016116,0.442631,0.017021,-0.206602,0.003369,0.015171,0.016115,-0.999755,-0.100605,-0.010393,0.029220,-3.936181,-6.866902,38.547924,,,,,,
1466451342.77,0.015013,-0.016039,0.442631,0.001376,0.046127,-0.002489,0.015011,0.016039,-0.999759,-0.054760,-0.022295,0.036288,-3.936181,-6.866902,38.547924,,,,,,
1466451342.78,0.015793,-0.016057,0.442615,0.002455,0.060985,-0.000452,0.015790,0.016057,-0.999746,-0.033964,-0.008610,-0.005655,-3.936181,-6.866902,38.547924,,,,,,
1466451342.79,0.016361,-0.016054,0.442616,-0.003918,0.073730,-0.000539,0.016358,0.016053,-0.999737,-0.021759,-0.006196,-0.010059,-3.717014,-6.849915,38.572693,,,,,,
1466451342.80,0.017634,-0.016050,0.442596,0.001483,0.133191,-0.001971,0.017631,0.016050,-0.999716,-0.011878,-0.004972,-0.001185,-3.717014,-6.849915,38.572693,,,,,,
1466451342.81,0.018706,-0.016084,0.442579,-0.002816,0.099219,-0.002826,0.018702,0.016083,-0.999696,-0.007960,-0.006547,-0.017272,-3.717014,-6.849915,38.572693,,,,,,
1466451342.82,0.019841,-0.016129,0.442556,-0.005981,0.122580,-0.002976,0.019837,0.016128,-0.999673,-0.010423,-0.006362,-0.006659,-3.787905,-6.849703,38.565834,,,,,,
1466451342.83,0.021231,-0.016141,0.442530,-0.000636,0.141687,-0.002026,0.021227,0.016140,-0.999644,-0.015352,-0.000973,-0.006276,-3.787905,-6.849703,38.565834,,,,,,
1466451342.84,0.022728,-0.016185,0.442505,-0.004881,0.152307,-0.002097,0.022723,0.016184,-0.999611,-0.007663,-0.000864,-0.009819,-3.787905,-6.849703,38.565834,,,,,,
1466451342.85,0.024118,-0.016187,0.442469,0.000421,0.132136,-0.004094,0.024112,0.016186,-0.999578,0.002835,0.002918,-0.010050,-3.983713,-6.855180,38.545124,,,,,,
1466451342.86,0.025110,-0.016221,0.442452,-0.003898,0.087537,-0.001690,0.025104,0.016220,-0.999553,0.009961,-0.005112,-0.025242,-3.983713,-6.855180,38.545124,,,,,,
1466451342.87,0.025635,-0.016223,0.442427,0.000309,0.044004,-0.002477,0.025629,0.016223,-0.999540,0.009436,-0.002261,-0.020449,-3.983713,-6.855180,38.545124,,,,,,
,,,,,,,,,,,,,,,,29.719999,-95.399082,9.868956,-1.000000,-1.000000,1466451342.80
1466451342.88,0.025878,-0.016242,0.442425,-0.000795,0.016391,-0.000176,0.025872,0.016241,-0.999533,0.005637,-0.009451,-0.020166,-4.075186,-6.856727,38.535286,,,,,,
,,,,,,,,,,,,,,,,29.720003,-95.399091,9.868956,-1.000000,-1.000000,1466451342.86
1466451342.89,0.025862,-0.016240,0.442414,-0.000824,-0.006968,-0.000030,0.025855,0.016239,-0.999534,0.004128,-0.005802,-0.016457,-4.075186,-6.856727,38.535286,,,,,,
,,,,,,,,,,,,,,,,29.720007,-95.399100,9.868956,-1.000000,-1.000000,1466451342.88
1466451342.90,0.025634,-0.016069,0.442426,0.001276,-0.029270,0.001177,0.025628,0.016068,-0.999542,0.001334,-0.006989,-0.018020,-4.075186,-6.856727,38.535286,,,,,,
1466451342.91,0.025325,-0.016088,0.442428,-0.002986,-0.033512,0.000135,0.025319,0.016087,-0.999550,-0.000631,-0.005132,-0.013283,-4.095238,-6.850948,38.534187,,,,,,
1466451342.92,0.024900,-0.016076,0.442424,0.002324,-0.046253,-0.000844,0.024894,0.016075,-0.999561,-0.002509,-0.001228,-0.011487,-4.095238,-6.850948,38.534187,,,,,,
1466451342.93,0.024427,-0.016105,0.442432,-0.001943,-0.049443,0.001300,0.024421,0.016105,-0.999572,-0.001884,-0.004752,-0.013154,-4.095238,-6.850948,38.534187,,,,,,
1466451342.94,0.023795,-0.016080,0.442439,0.000180,-0.054753,0.001336,0.023790,0.016079,-0.999588,-0.002931,-0.000821,-0.008072,-4.095238,-6.850948,38.534187,,,,,,
1466451342.95,0.023258,-0.016105,0.442458,-0.001950,-0.053693,0.002391,0.023253,0.016104,-0.999600,-0.004439,-0.004110,-0.014270,-4.024444,-6.851342,38.541576,,,,,,
1466451342.96,0.022534,-0.016032,0.442459,0.000177,-0.058998,0.000298,0.022529,0.016031,-0.999618,-0.004722,-0.002542,-0.008531,-4.024444,-6.851342,38.541576,,,,,,
1466451342.97,0.021758,-0.016007,0.442467,0.000191,-0.046261,0.001282,0.021754,0.016007,-0.999635,-0.010340,-0.001038,-0.007231,-3.975970,-6.849417,38.546951,,,,,,
1466451342.98,0.021195,-0.015988,0.442465,-0.002978,-0.028207,0.000102,0.021191,0.015987,-0.999648,-0.009792,-0.001308,-0.006944,-3.975970,-6.849417,38.546951,,,,,,
1466451342.99,0.020814,-0.016014,0.442467,0.002364,-0.013346,0.000014,0.020810,0.016013,-0.999655,-0.008664,0.001260,-0.003625,-3.975970,-6.849417,38.546951,,,,,,
1466451343.00,0.020613,-0.015654,0.442439,0.000252,-0.011204,-0.006388,0.020609,0.015653,-0.999665,-0.003580,-0.015028,-0.004699,-3.924394,-6.847694,38.552540,,,,,,
1466451343.01,0.017340,-0.015865,0.442367,-0.005640,-0.484730,-0.016198,0.017337,0.015864,-0.999724,-0.158924,-0.029795,-0.095583,-3.924394,-6.847694,38.552540,,,,,,
1466451343.02,0.014138,-0.015961,0.442808,-0.048541,0.145949,-0.001036,0.014136,0.015961,-0.999773,-0.404944,-0.187332,-0.078734,-3.924394,-6.847694,38.552540,,,,,,
1466451343.03,0.027952,-0.016331,0.442663,-0.002413,1.347753,0.040437,0.027945,0.016330,-0.999476,0.071695,0.104290,0.267207,-3.654387,-6.845602,38.579441,,,,,,
1466451343.04,0.032495,-0.016605,0.442477,-0.017538,0.256344,0.004689,0.032484,0.016604,-0.999334,0.285448,0.090451,-0.169916,-3.654387,-6.845602,38.579441,,,,,,
1466451343.05,0.032830,-0.016488,0.442193,0.009611,-0.169453,0.007387,0.032819,0.016488,-0.999325,0.354983,0.048194,-0.086414,-4.359704,-6.871499,38.501503,,,,,,
1466451343.06,0.024038,-0.016210,0.442379,0.040531,-0.967973,0.023070,0.024033,0.016209,-0.999580,-0.015640,-0.021443,-0.196190,-4.359704,-6.871499,38.501503,,,,,,
,,,,,,,,,,,,,,,,29.720009,-95.398981,10.428038,-1.000000,-1.000000,1466451343.11
1466451343.07,0.020438,-0.015976,0.442422,0.013932,-0.118462,-0.001448,0.020434,0.015976,-0.999664,-0.050768,0.014984,0.138763,-4.033415,-6.856529,38.539715,,,,,,
1466451343.08,0.020527,-0.016064,0.442439,-0.009395,-0.036700,0.001209,0.020523,0.016063,-0.999660,-0.085694,-0.056881,-0.001057,-4.033415,-6.856529,38.539715,,,,,,
1466451343.09,0.019200,-0.015898,0.442475,0.018170,-0.120614,0.008150,0.019196,0.015897,-0.999689,-0.052948,0.032763,-0.002554,-4.033415,-6.856529,38.539715,,,,,,
1466451343.10,0.020043,-0.015884,0.442447,0.002546,0.142745,-0.002033,0.020039,0.015883,-0.999673,-0.011540,-0.007171,0.037133,-3.898487,-6.850724,38.554630,,,,,,
1466451343.11,0.020848,-0.015855,0.442377,0.002404,0.020652,-0.006590,0.020844,0.015855,-0.999657,0.039626,-0.004441,-0.022117,-3.898487,-6.850724,38.554630,,,,,,
1466451343.12,0.018936,-0.015834,0.442393,0.004199,-0.237382,0.000352,0.018933,0.015833,-0.999695,0.017658,-0.017329,-0.084670,-3.898487,-6.850724,38.554630,,,,,,
1466451343.13,0.016594,-0.015733,0.442395,0.010611,-0.218272,0.000239,0.016591,0.015733,-0.999739,-0.051656,0.012160,-0.003313,-3.898487,-6.850724,38.554630,,,,,,
1466451343.14,0.015707,-0.015609,0.442425,0.011918,-0.018666,0.003246,0.015704,0.015608,-0.999755,-0.146014,0.019380,0.035750,-3.836881,-6.841971,38.562363,,,,,,
1466451343.15,0.018376,-0.015535,0.442358,0.007057,0.338123,-0.006448,0.018373,0.015535,-0.999711,-0.089280,0.030669,0.087037,-3.836881,-6.841971,38.562363,,,,,,
1466451343.16,0.021709,-0.015456,0.442281,0.007038,0.320078,-0.008463,0.021705,0.015455,-0.999645,-0.047080,0.012377,0.003750,-3.836881,-6.841971,38.562363,,,,,,
1466451343.17,0.024797,-0.015430,0.442176,-0.001502,0.302032,-0.008359,0.024792,0.015430,-0.999574,0.017139,-0.019031,-0.014968,-3.943147,-6.827702,38.554176,,,,,,
1466451343.18,0.027212,-0.015469,0.442118,-0.000542,0.225570,-0.003620,0.027205,0.015468,-0.999510,-0.003447,-0.028499,-0.031770,-3.943147,-6.827702,38.554176,,,,,,
1466451343.19,0.029866,-0.015523,0.442070,-0.011106,0.290348,-0.005102,0.029858,0.015522,-0.999434,-0.020000,-0.036427,-0.014727,-3.943147,-6.827702,38.554176,,,,,,
1466451343.20,0.033215,-0.015640,0.442025,-0.008909,0.342378,-0.006490,0.033205,0.015640,-0.999326,-0.020372,-0.016113,-0.001574,-4.154229,-6.828725,38.531818,,,,,,
1466451343.21,0.036591,-0.015689,0.441973,-0.009978,0.340252,-0.005414,0.036578,0.015688,-0.999208,-0.015613,0.002897,-0.002669,-4.154229,-6.828725,38.531818,,,,,,
1466451343.22,0.039961,-0.015775,0.441928,-0.002534,0.332816,-0.005359,0.039946,0.015774,-0.999077,0.002382,-0.002224,-0.014717,-4.154229,-6.828725,38.531818,,,,,,
1466451343.23,0.045533,-0.015961,0.441713,-0.045607,0.726886,-0.051516,0.045512,0.015960,-0.998836,0.077855,-0.060745,0.015148,-4.643871,-6.841124,38.473675,,,,,,
1466451343.24,0.048447,-0.016275,0.441592,0.012813,-0.140797,0.012528,0.048421,0.016274,-0.998694,0.190135,0.047126,-0.040460,-4.643871,-6.841124,38.473675,,,,,,
1466451343.25,0.041643,-0.016271,0.441932,-0.022678,-0.447599,-0.000485,0.041625,0.016270,-0.999001,-0.159790,-0.097432,-0.320015,-4.967897,-6.861487,38.429546,,,,,,
1466451343.26,0.047900,-0.016431,0.441691,-0.018001,0.721467,-0.016328,0.047875,0.016430,-0.998718,0.126808,0.077091,0.341156,-4.967897,-6.861487,38.429546,,,,,,
1466451343.27,0.045750,-0.016708,0.441812,-0.008930,-0.498614,0.014751,0.045728,0.016708,-0.998814,-0.066358,-0.045791,-0.247951,-4.967897,-6.861487,38.429546,,,,,,
1466451343.29,0.046210,-0.016721,0.441761,-0.009128,0.153401,-0.013821,0.046187,0.016721,-0.998793,0.096864,-0.009442,0.067991,-4.947443,-6.867217,38.431164,,,,,,
1466451343.28,0.043881,-0.016513,0.441884,0.002398,0.034423,0.005032,0.043861,0.016513,-0.998901,0.018608,0.058622,0.037536,-4.947443,-6.867217,38.431164,,,,,,
1466451343.30,0.041787,-0.016562,0.441818,0.017563,-0.603737,0.012243,0.041769,0.016561,-0.998990,0.055811,0.018702,-0.140033,-4.947443,-6.867217,38.431164,,,,,,
1466451343.31,0.037014,-0.016493,0.441919,0.006153,-0.365881,0.008611,0.037000,0.016492,-0.999179,0.002001,-0.020490,-0.040738,-4.713188,-6.871887,38.459759,,,,,,
1466451343.32,0.035038,-0.016444,0.441950,-0.002138,-0.191730,0.003253,0.035026,0.016443,-0.999251,-0.010429,-0.002619,0.059417,-4.713188,-6.871887,38.459759,,,,,,
1466451343.33,0.031852,-0.016454,0.442002,0.004037,-0.358442,0.006433,0.031843,0.016454,-0.999357,-0.006498,-0.015675,-0.038622,-4.713188,-6.871887,38.459759,,,,,,
1466451343.34,0.028587,-0.016423,0.442058,0.004122,-0.294728,0.003905,0.028579,0.016422,-0.999457,-0.005920,-0.004077,-0.017175,-4.454385,-6.866904,38.491486,,,,,,
1466451343.35,0.026351,-0.016470,0.442083,-0.010685,-0.217206,0.002340,0.026344,0.016470,-0.999517,0.003914,-0.013235,0.005407,-4.454385,-6.866904,38.491486,,,,,,
1466451343.36,0.023388,-0.016497,0.442118,0.003016,-0.327643,0.004110,0.023382,0.016497,-0.999590,0.013941,-0.003954,-0.020612,-4.454385,-6.866904,38.491486,,,,,,
1466451343.38,0.017022,-0.016339,0.442219,0.002046,-0.254377,0.002585,0.017019,0.016338,-0.999722,-0.004690,0.006229,0.014126,-4.006680,-6.868456,38.540382,,,,,,
1466451343.37,0.019704,-0.016339,0.442182,-0.006566,-0.324460,0.006210,0.019700,0.016338,-0.999672,-0.005357,-0.005123,-0.023674,-4.006680,-6.868456,38.540382,,,,,,
1466451343.39,0.014367,-0.016361,0.442267,-0.004367,-0.269248,0.005866,0.014364,0.016360,-0.999763,-0.007986,-0.004321,-0.011895,-4.006680,-6.868456,38.540382,,,,,,
1466451343.40,0.011712,-0.016345,0.442299,0.004162,-0.264996,0.002654,0.011710,0.016344,-0.999798,0.000833,0.001020,-0.005817,-3.761911,-6.862023,38.566189,,,,,,
1466451343.41,0.008951,-0.015987,0.442332,-0.007535,-0.253314,0.003634,0.008950,0.015987,-0.999832,-0.004083,-0.012950,-0.018982,-3.557557,-6.862013,38.585575,,,,,,
1466451343.42,0.006498,-0.015988,0.442347,-0.001132,-0.243758,0.002516,0.006497,0.015987,-0.999851,0.006275,0.000752,-0.003704,-3.557557,-6.862013,38.585575,,,,,,
1466451343.43,0.004028,-0.016063,0.442378,-0.005398,-0.249065,0.002545,0.004028,0.016062,-0.999863,0.003663,-0.007136,-0.014984,-3.557557,-6.862013,38.585575,,,,,,
1466451343.44,0.001713,-0.016080,0.442408,-0.004311,-0.229956,0.003490,0.001713,0.016079,-0.999869,-0.006168,0.006367,-0.000512,-3.356645,-6.848069,38.606049,,,,,,
1466451343.45,-0.000830,-0.016265,0.442415,0.002146,-0.177929,0.001042,-0.000830,0.016265,-0.999867,-0.015451,0.004838,0.002843,-3.356645,-6.848069,38.606049,,,,,,
1466451343.46,-0.002159,-0.016286,0.442428,-0.004178,-0.124838,0.001767,-0.002158,0.016285,-0.999865,-0.017953,0.002025,0.005435,-3.356645,-6.848069,38.606049,,,,,,
1466451343.47,-0.003136,-0.016301,0.442433,0.000130,-0.087674,0.000474,-0.003136,0.016300,-0.999862,-0.018913,0.004116,0.002533,-3.022848,-6.859323,38.631622,,,,,,
1466451343.48,-0.003700,-0.016368,0.442436,-0.008339,-0.050504,-0.000832,-0.003699,0.016368,-0.999859,-0.010034,-0.004008,-0.004795,-3.022848,-6.859323,38.631622,,,,,,
1466451343.49,-0.004121,-0.016395,0.442430,-0.000893,-0.055816,-0.000792,-0.004120,0.016394,-0.999857,0.003998,0.000619,-0.005651,-3.022848,-6.859323,38.631622,,,,,,
1466451343.50,-0.004754,-0.016452,0.442427,-0.004103,-0.068556,-0.000715,-0.004753,0.016451,-0.999853,0.000191,-0.008105,-0.016901,-2.963354,-6.862479,38.635674,,,,,,
1466451343.51,-0.005310,-0.016387,0.442417,-0.006193,-0.037763,-0.000910,-0.005309,0.016386,-0.999852,-0.002411,-0.003202,-0.004085,-2.963354,-6.862479,38.635674,,,,,,
1466451343.52,-0.005596,-0.016388,0.442404,-0.001937,-0.042009,-0.001944,-0.005595,0.016387,-0.999850,0.003215,-0.001296,-0.009076,-2.963354,-6.862479,38.635674,,,,,,
1466451343.54,-0.006792,-0.016480,0.442421,0.005467,-0.077057,0.000412,-0.006791,0.016479,-0.999841,0.006944,0.003845,-0.010169,-2.889885,-6.863337,38.641083,,,,,,
1466451343.53,-0.006201,-0.016397,0.442408,-0.003047,-0.072809,0.001442,-0.006200,0.016396,-0.999846,0.002339,-0.000313,-0.013841,-2.889885,-6.863337,38.641083,,,,,,
1466451343.55,-0.007372,-0.016374,0.442434,0.005414,-0.121647,-0.000373,-0.007371,0.016373,-0.999839,0.016129,-0.001831,-0.015252,-2.889885,-6.863337,38.641083,,,,,,
1466451343.57,-0.009786,-0.016196,0.442484,0.004271,-0.181108,0.002128,-0.009785,0.016195,-0.999821,0.015324,-0.007452,-0.019542,-2.843777,-6.866852,38.643879,,,,,,
1466451343.56,-0.008429,-0.016443,0.442457,0.005358,-0.161999,0.002009,-0.008427,0.016443,-0.999829,0.018285,0.004447,-0.019610,-2.843777,-6.866852,38.643879,,,,,,
1466451343.58,-0.011587,-0.016061,0.442499,0.004257,-0.195967,0.000092,-0.011585,0.016060,-0.999804,0.007526,-0.001747,-0.008039,-2.843777,-6.866852,38.643879,,,,,,
1466451343.59,-0.013688,-0.015759,0.442524,0.003199,-0.188541,0.002174,-0.013686,0.015758,-0.999782,-0.004579,-0.010173,-0.015797,-2.843777,-6.866852,38.643879,,,,,,
1466451343.60,-0.015520,-0.015740,0.442537,0.000039,-0.160933,0.001997,-0.015518,0.015740,-0.999756,-0.004074,0.000496,0.002258,-2.843777,-6.866852,38.643879,,,,,,
1466451343.61,-0.017126,-0.015627,0.442549,0.003210,-0.183226,0.000012,-0.017124,0.015626,-0.999731,0.006244,-0.003847,-0.013346,-2.507020,-6.837914,38.672314,,,,,,
1466451343.62,-0.018910,-0.015586,0.442573,-0.001101,-0.223573,0.001325,-0.018907,0.015586,-0.999700,0.015092,-0.001044,-0.021800,-2.507020,-6.837914,38.672314,,,,,,
1466451343.63,-0.020954,-0.015582,0.442588,0.005266,-0.240563,0.001438,-0.020950,0.015582,-0.999659,0.015807,0.001127,-0.015798,-2.507020,-6.837914,38.672314,,,,,,
1466451343.64,-0.023363,-0.015399,0.442599,-0.001097,-0.221448,0.001312,-0.023358,0.015398,-0.999609,-0.002735,-0.007296,-0.013590,-2.376113,-6.831849,38.681652,,,,,,
1466451343.65,-0.025610,-0.015442,0.442603,-0.003158,-0.166236,0.000963,-0.025604,0.015441,-0.999553,-0.015320,0.001618,0.005733,-2.203998,-6.824514,38.693134,,,,,,
1466451343.66,-0.027521,-0.015303,0.442618,-0.001025,-0.164115,0.000952,-0.027514,0.015302,-0.999504,-0.009946,-0.006605,-0.004631,-2.203998,-6.824514,38.693134,,,,,,
1466451343.67,-0.029240,-0.015276,0.442626,0.003204,-0.188538,0.001109,-0.029233,0.015276,-0.999456,0.005139,0.000578,-0.006480,-2.043198,-6.820752,38.702621,,,,,,
1466451343.68,-0.031092,-0.015142,0.442647,0.003177,-0.210835,0.001249,-0.031084,0.015142,-0.999402,0.010210,-0.004873,-0.020465,-2.043198,-6.820752,38.702621,,,,,,
1466451343.69,-0.033039,-0.015102,0.442663,-0.000030,-0.219329,0.002364,-0.033030,0.015102,-0.999340,0.010828,-0.000865,-0.010990,-2.043198,-6.820752,38.702621,,,,,,
1466451343.70,-0.035266,-0.015004,0.442680,0.004199,-0.243752,0.002521,-0.035254,0.015003,-0.999266,0.008460,-0.002873,-0.013979,-1.905096,-6.814472,38.710770,,,,,,
1466451343.71,-0.037764,-0.014869,0.442705,0.001012,-0.238442,0.002485,-0.037751,0.014869,-0.999177,-0.001571,-0.004981,-0.012405,-1.905096,-6.814472,38.710770,,,,,,
1466451343.72,-0.040176,-0.014853,0.442716,0.004240,-0.212959,0.001264,-0.040161,0.014852,-0.999083,-0.007111,0.001185,-0.003084,-1.743710,-6.809017,38.719334,,,,,,
1466451343.73,-0.042357,-0.014720,0.442717,0.000033,-0.173669,-0.000051,-0.042340,0.014720,-0.998995,-0.013400,-0.005946,-0.005919,-1.743710,-6.809017,38.719334,,,,,,
1466451343.75,-0.045558,-0.014594,0.442739,0.000096,-0.120588,0.001745,-0.045537,0.014593,-0.998856,-0.008586,-0.005911,-0.007888,-1.743710,-6.809017,38.719334,,,,,,
1466451343.74,-0.044118,-0.014713,0.442725,-0.003116,-0.134388,0.001828,-0.044099,0.014712,-0.998919,-0.012770,-0.000567,0.002108,-1.743710,-6.809017,38.719334,,,,,,
1466451343.76,-0.046880,-0.014524,0.442745,-0.006282,-0.115273,0.000641,-0.046858,0.014523,-0.998796,-0.007432,-0.005689,-0.009184,-1.401057,-6.797634,38.735249,,,,,,
1466451343.77,-0.048050,-0.014439,0.442750,0.001171,-0.117398,-0.000403,-0.048026,0.014439,-0.998742,-0.001489,-0.004917,-0.008933,-1.401057,-6.797634,38.735249,,,,,,
1466451343.78,-0.049226,-0.014474,0.442754,-0.009492,-0.128013,0.000717,-0.049201,0.014473,-0.998684,0.003531,-0.001976,-0.011478,-1.294131,-6.790272,38.740257,,,,,,
1466451343.79,-0.050567,-0.014462,0.442759,-0.003100,-0.125893,0.000710,-0.050540,0.014461,-0.998617,-0.000577,-0.001644,-0.011270,-1.294131,-6.790272,38.740257,,,,,,
1466451343.80,-0.051899,-0.014452,0.442767,-0.006289,-0.121645,0.000680,-0.051870,0.014452,-0.998549,-0.003962,-0.002809,-0.010286,-1.294131,-6.790272,38.740257,,,,,,
1466451343.81,-0.053204,-0.014537,0.442774,-0.002053,-0.139697,0.000798,-0.053174,0.014537,-0.998479,0.002881,0.003072,-0.005320,-1.099808,-6.787433,38.746758,,,,,,
1466451343.82,-0.054716,-0.014474,0.442796,-0.002105,-0.180048,0.002115,-0.054683,0.014473,-0.998399,0.009487,-0.004128,-0.018340,-1.099808,-6.787433,38.746758,,,,,,
1466451343.83,-0.056301,-0.014561,0.442816,-0.001086,-0.218267,0.001292,-0.056265,0.014560,-0.998310,0.011664,-0.000217,-0.018383,-1.099808,-6.787433,38.746758,,,,,,
1466451343.84,-0.058617,-0.014572,0.442822,0.007411,-0.236319,0.000349,-0.058578,0.014571,-0.998177,0.002715,0.002701,-0.004417,-1.099808,-6.787433,38.746758,,,,,,
1466451343.85,-0.061058,-0.014543,0.442835,-0.001108,-0.235257,0.001398,-0.061013,0.014542,-0.998031,-0.004539,-0.000565,-0.009827,-0.839857,-6.791888,38.752487,,,,,,
1466451343.87,-0.066036,-0.014436,0.442867,0.002103,-0.222518,0.001321,-0.065981,0.014436,-0.997716,-0.008406,-0.002519,-0.005991,-0.839857,-6.791888,38.752487,,,,,,
1466451343.86,-0.063601,-0.014508,0.442850,0.004211,-0.240566,0.000372,-0.063552,0.014508,-0.997873,-0.004731,-0.000348,-0.006506,-0.839857,-6.791888,38.752487,,,,,,
1466451343.88,-0.068447,-0.014358,0.442880,0.002097,-0.227828,0.001355,-0.068386,0.014358,-0.997556,-0.007267,-0.002487,-0.009631,-0.646851,-6.789347,38.756634,,,,,,
1466451343.89,-0.070881,-0.014352,0.442902,-0.000034,-0.228890,0.001359,-0.070814,0.014351,-0.997386,-0.005831,-0.000389,-0.002965,-0.646851,-6.789347,38.756634,,,,,,
1466451343.90,-0.073199,-0.014333,0.442906,-0.001077,-0.211901,0.001252,-0.073126,0.014332,-0.997220,-0.008676,-0.001713,-0.006122,-0.646851,-6.789347,38.756634,,,,,,
1466451343.91,-0.075527,-0.014365,0.442919,0.001066,-0.199165,0.002238,-0.075448,0.014365,-0.997046,-0.013816,0.001611,-0.001504,-5.698312,-4.911217,34.106384,,,,,,
1466451343.92,-0.077545,-0.014382,0.442934,-0.005290,-0.171560,0.003123,-0.077459,0.014382,-0.996892,-0.011942,-0.000771,-0.003978,-5.698312,-4.911217,34.106384,,,,,,
1466451343.93,-0.079390,-0.014368,0.442941,-0.001032,-0.175804,0.001025,-0.079299,0.014367,-0.996747,-0.005861,-0.001748,-0.007662,-5.550162,-4.912651,34.130596,,,,,,
1466451343.94,-0.081126,-0.014403,0.442954,-0.002097,-0.174744,0.002082,-0.081029,0.014403,-0.996608,0.000523,0.000246,-0.008687,-5.550162,-4.912651,34.130596,,,,,,
1466451343.95,-0.082870,-0.014368,0.442964,0.007466,-0.193855,0.000083,-0.082766,0.014368,-0.996465,0.006075,0.000632,-0.015375,-5.550162,-4.912651,34.130596,,,,,,
1466451343.96,-0.084912,-0.014414,0.442981,0.001051,-0.212967,0.001260,-0.084802,0.014413,-0.996294,0.000649,0.001898,-0.009520,-5.428010,-4.913194,34.150162,,,,,,
1466451343.97,-0.087159,-0.014369,0.442994,0.001054,-0.210844,0.001247,-0.087040,0.014369,-0.996101,-0.005734,-0.001185,-0.007469,-5.428010,-4.913194,34.150162,,,,,,
1466451343.98,-0.089571,-0.014322,0.443002,0.001065,-0.203411,0.000136,-0.089442,0.014322,-0.995889,-0.017385,-0.001642,-0.002005,-5.428010,-4.913194,34.150162,,,,,,
1466451343.99,-0.091997,-0.014324,0.443004,0.000053,-0.159883,0.000927,-0.091858,0.014324,-0.995669,-0.034287,0.000569,0.008502,-5.428010,-4.913194,34.150162,,,,,,
1466451344.00,-0.093214,-0.014319,0.443011,-0.002014,-0.109977,0.000611,-0.093069,0.014318,-0.995557,-0.040354,-0.005544,0.000028,-5.139595,-4.910067,34.195202,,,,,,
1466451344.02,-0.094527,-0.014395,0.443005,-0.001914,-0.032463,-0.000939,-0.094376,0.014394,-0.995432,-0.046355,-0.001608,0.004801,-5.139595,-4.910067,34.195202,,,,,,
1466451344.01,-0.094064,-0.014376,0.443010,-0.005168,-0.078122,0.000409,-0.093916,0.014376,-0.995476,-0.043398,0.000944,0.002816,-5.139595,-4.910067,34.195202,,,,,,
1466451344.03,-0.095281,-0.014405,0.442968,-0.003975,0.020626,-0.002339,-0.095127,0.014404,-0.995361,-0.042233,-0.001129,0.001831,-4.970116,-4.912493,34.219898,,,,,,
1466451344.05,-0.094078,-0.014438,0.442886,-0.002825,0.085402,-0.004873,-0.093930,0.014438,-0.995474,-0.042194,-0.001636,0.003470,-4.970116,-4.912493,34.219898,,,,,,
1466451344.04,-0.094836,-0.014419,0.442930,-0.001802,0.051423,-0.004658,-0.094684,0.014419,-0.995403,-0.043118,-0.000015,-0.000706,-4.970116,-4.912493,34.219898,,,,,,
1466451344.06,-0.093039,-0.014478,0.442837,-0.004921,0.111948,-0.005041,-0.092895,0.014478,-0.995571,-0.047882,-0.004590,-0.000432,-4.959208,-4.913928,34.221275,,,,,,
1466451344.07,-0.092570,-0.014510,0.442778,-0.002763,0.151229,-0.004225,-0.092428,0.014510,-0.995614,-0.045924,-0.000395,0.005776,-4.959208,-4.913928,34.221275,,,,,,
1466451344.08,-0.090739,-0.014544,0.442731,-0.004841,0.192641,-0.004486,-0.090605,0.014544,-0.995781,-0.034822,-0.002245,-0.001564,-5.020322,-4.916658,34.211971,,,,,,
1466451344.09,-0.088797,-0.014582,0.442677,-0.005911,0.188394,-0.004461,-0.088671,0.014582,-0.995954,-0.020094,-0.003870,-0.013430,-5.020322,-4.916658,34.211971,,,,,,
1466451344.10,-0.087285,-0.014649,0.442634,-0.007039,0.139549,-0.003091,-0.087165,0.014649,-0.996086,-0.012490,-0.000626,-0.019218,-5.020322,-4.916658,34.211971,,,,,,
1466451344.11,-0.086515,-0.014599,0.442622,-0.004960,0.103436,0.000331,-0.086398,0.014598,-0.996154,-0.017468,-0.004573,-0.011262,-5.216263,-4.924070,34.181580,,,,,,
1466451344.12,-0.085300,-0.014664,0.442613,-0.005992,0.129981,0.000163,-0.085188,0.014663,-0.996257,0.000593,-0.002212,-0.003300,-5.216263,-4.924070,34.181580,,,,,,
1466451344.13,-0.084070,-0.014733,0.442599,-0.007078,0.110872,-0.000783,-0.083961,0.014733,-0.996360,0.014412,-0.002679,-0.018914,-5.216263,-4.924070,34.181580,,,,,,
1466451344.14,-0.083412,-0.014783,0.442590,-0.003955,0.052474,-0.001478,-0.083306,0.014782,-0.996414,0.018136,0.002750,-0.018219,-5.216263,-4.924070,34.181580,,,,,,
1466451344.15,-0.082691,-0.014754,0.442589,-0.003982,0.032299,-0.000287,-0.082588,0.014753,-0.996475,0.014839,-0.002729,-0.015046,-5.348473,-4.928926,34.160442,,,,,,
1466451344.16,-0.082676,-0.014778,0.442586,-0.001905,-0.009112,-0.000025,-0.082573,0.014777,-0.996476,0.015007,-0.002753,-0.017166,-5.348473,-4.928926,34.160442,,,,,,
1466451344.17,-0.082990,-0.014787,0.442586,-0.000873,-0.035658,0.000143,-0.082886,0.014786,-0.996449,0.017364,-0.002030,-0.016841,-5.348473,-4.928926,34.160442,,,,,,
1466451344.18,-0.083272,-0.014757,0.442579,0.002336,-0.027159,-0.002036,-0.083167,0.014757,-0.996426,0.009788,-0.002855,-0.012820,-5.373609,-4.928789,34.156517,,,,,,
1466451344.20,-0.084799,-0.014761,0.442577,0.000078,-0.128030,-0.000342,-0.084688,0.014760,-0.996298,0.013323,-0.000677,-0.018961,-5.373609,-4.928789,34.156517,,,,,,
1466451344.19,-0.083593,-0.014789,0.442578,0.002254,-0.090868,-0.000573,-0.083486,0.014788,-0.996399,0.017705,0.001798,-0.020385,-5.373609,-4.928789,34.156517,,,,,,
1466451344.21,-0.086371,-0.014723,0.442579,0.005355,-0.165195,-0.000103,-0.086255,0.014723,-0.996164,0.009137,0.000979,-0.015142,-5.301034,-4.928289,34.167927,,,,,,
1466451344.22,-0.088162,-0.014703,0.442596,0.001068,-0.184312,0.002141,-0.088038,0.014703,-0.996009,0.005671,-0.001229,-0.015664,-5.301034,-4.928289,34.167927,,,,,,
1466451344.23,-0.090198,-0.014621,0.442622,0.006370,-0.200245,0.003311,-0.090066,0.014620,-0.995828,-0.001456,-0.001452,-0.008230,-5.186167,-4.926196,34.185852,,,,,,
1466451344.24,-0.092078,-0.014593,0.442663,0.002134,-0.182192,0.003193,-0.091938,0.014592,-0.995658,-0.008861,-0.001500,-0.005197,-5.186167,-4.926196,34.185852,,,,,,
1466451344.25,-0.093858,-0.014590,0.442695,0.001074,-0.180065,0.002115,-0.093710,0.014590,-0.995493,-0.005961,-0.002062,-0.007422,-5.186167,-4.926196,34.185852,,,,,,
1466451344.26,-0.095694,-0.014586,0.442716,0.001076,-0.177941,0.002101,-0.095538,0.014585,-0.995319,-0.001355,0.000292,-0.007306,-5.186167,-4.926196,34.185852,,,,,,
1466451344.27,-0.097472,-0.014520,0.442736,0.000028,-0.165200,0.002020,-0.097308,0.014520,-0.995148,-0.004270,-0.002557,-0.008102,-4.928977,-4.921259,34.224590,,,,,,
1466451344.28,-0.099177,-0.014470,0.442743,0.000038,-0.158827,0.000916,-0.099004,0.014469,-0.994982,-0.004877,-0.002110,-0.007811,-4.928977,-4.921259,34.224590,,,,,,
1466451344.29,-0.100898,-0.014430,0.442766,-0.002099,-0.162017,0.003063,-0.100717,0.014429,-0.994810,-0.004401,-0.002222,-0.009416,-4.928977,-4.921259,34.224590,,,,,,
1466451344.30,-0.102521,-0.014418,0.442787,0.001095,-0.164139,0.002015,-0.102331,0.014417,-0.994646,0.001501,-0.000242,-0.008650,-4.809812,-4.917151,34.242134,,,,,,
1466451344.31,-0.104077,-0.014403,0.442799,0.004287,-0.167323,0.000973,-0.103879,0.014402,-0.994486,0.002881,-0.000090,-0.008413,-4.809812,-4.917151,34.242134,,,,,,
1466451344.32,-0.105694,-0.014404,0.442821,0.000029,-0.165200,0.002020,-0.105487,0.014403,-0.994316,0.001620,0.000825,-0.010002,-4.809812,-4.917151,34.242134,,,,,,
1466451344.34,-0.108694,-0.014336,0.442859,0.000071,-0.130164,0.002865,-0.108469,0.014336,-0.993997,-0.001746,-0.002235,-0.005805,-4.586855,-4.914297,34.273117,,,,,,
1466451344.33,-0.107301,-0.014395,0.442835,0.000047,-0.152456,0.000876,-0.107084,0.014395,-0.994146,-0.001314,-0.000356,-0.007029,-4.586855,-4.914297,34.273117,,,,,,
1466451344.35,-0.109910,-0.014285,0.442881,0.001167,-0.106802,0.001655,-0.109678,0.014285,-0.993865,-0.004092,-0.002093,-0.005876,-4.586855,-4.914297,34.273117,,,,,,
1466451344.36,-0.110970,-0.014233,0.442911,0.000121,-0.088758,0.003670,-0.110731,0.014233,-0.993748,-0.006548,-0.002194,-0.007671,-4.484171,-4.911711,34.287075,,,,,,
1466451344.37,-0.111774,-0.014197,0.442949,0.004447,-0.035671,0.003341,-0.111530,0.014197,-0.993660,-0.012402,-0.001105,0.004814,-4.484171,-4.911711,34.287075,,,,,,
1466451344.38,-0.111934,-0.014179,0.442975,-0.000804,0.021667,0.002976,-0.111690,0.014178,-0.993642,-0.013234,-0.000964,0.002889,-4.484171,-4.911711,34.287075,,,,,,
1466451344.39,-0.111813,-0.014138,0.443001,0.001317,0.015295,0.003018,-0.111569,0.014137,-0.993656,-0.004001,-0.001076,-0.009533,-4.373455,-4.905469,34.302261,,,,,,
1466451344.40,-0.111634,-0.014111,0.443009,-0.001869,0.018488,0.000866,-0.111391,0.014110,-0.993676,-0.000349,-0.001644,-0.006797,-4.373455,-4.905469,34.302261,,,,,,
1466451344.41,-0.111482,-0.014074,0.443018,0.001323,0.014242,-0.000169,-0.111240,0.014073,-0.993694,-0.000500,-0.001592,-0.010106,-4.373455,-4.905469,34.302261,,,,,,
1466451344.43,-0.111368,-0.014002,0.443034,-0.000834,-0.005934,0.001020,-0.111127,0.014001,-0.993708,0.000928,-0.003427,-0.016348,-4.383880,-4.902919,34.301300,,,,,,
1466451344.42,-0.111384,-0.014082,0.443022,-0.000816,0.008931,0.000927,-0.111143,0.014081,-0.993705,-0.001207,0.000613,-0.009439,-4.383880,-4.902919,34.301300,,,,,,
1466451344.44,-0.111415,-0.014053,0.443048,-0.001916,-0.019736,0.001106,-0.111174,0.014052,-0.993702,0.004851,0.001100,-0.010403,-4.383880,-4.902919,34.301300,,,,,,
1466451344.45,-0.111634,-0.014077,0.443048,-0.004062,-0.034597,0.000132,-0.111391,0.014077,-0.993677,0.004351,-0.000161,-0.010550,-4.391510,-4.900642,34.300652,,,,,,
1466451344.47,-0.112146,-0.014087,0.443060,0.000215,-0.020795,0.000050,-0.111900,0.014087,-0.993620,0.000328,-0.000919,-0.005694,-4.391510,-4.900642,34.300652,,,,,,
1466451344.46,-0.111897,-0.014108,0.443053,-0.002999,-0.034599,0.001198,-0.111653,0.014108,-0.993647,0.003727,0.000403,-0.008321,-4.391510,-4.900642,34.300652,,,,,,
1466451344.48,-0.112207,-0.014029,0.443070,0.002369,0.000437,0.000983,-0.111960,0.014028,-0.993614,-0.003823,-0.002035,-0.004418,-4.375044,-4.902474,34.302490,,,,,,
1466451344.49,-0.112290,-0.014089,0.443094,-0.001904,-0.007000,0.003155,-0.112043,0.014089,-0.993603,-0.003405,0.002360,-0.007282,-4.375044,-4.902474,34.302490,,,,,,
1466451344.50,-0.113012,-0.014075,0.443121,-0.004162,-0.109993,0.003798,-0.112760,0.014074,-0.993523,0.003934,-0.003317,-0.025063,-4.375044,-4.902474,34.302490,,,,,,
1466451344.51,-0.113794,-0.014099,0.443151,0.000152,-0.067519,0.002472,-0.113537,0.014099,-0.993434,0.003049,0.000611,-0.002141,-4.337081,-4.900791,34.307552,,,,,,
1466451344.52,-0.114249,-0.014015,0.443176,-0.007255,-0.028236,0.004347,-0.113989,0.014015,-0.993383,-0.006387,-0.007423,-0.004908,-4.337081,-4.900791,34.307552,,,,,,
1466451344.53,-0.114563,-0.014062,0.443201,-0.001940,-0.036729,0.003341,-0.114301,0.014062,-0.993347,0.000867,0.000877,-0.011078,-4.337081,-4.900791,34.307552,,,,,,
1466451344.55,-0.115465,-0.014238,0.443208,-0.000867,-0.034598,0.000135,-0.115197,0.014238,-0.993241,-0.005851,0.004286,-0.002975,-4.294841,-4.898331,34.313217,,,,,,
1466451344.54,-0.114984,-0.014149,0.443209,-0.004069,-0.039908,0.001230,-0.114720,0.014148,-0.993297,-0.001796,0.002453,-0.009465,-4.294841,-4.898331,34.313217,,,,,,
1466451344.56,-0.115622,-0.014107,0.443205,-0.006183,-0.029286,0.000097,-0.115353,0.014107,-0.993224,0.004727,-0.009224,-0.015946,-4.294841,-4.898331,34.313217,,,,,,
1466451344.57,-0.115929,-0.014155,0.443201,-0.000897,-0.060080,0.000295,-0.115658,0.014155,-0.993188,0.009823,0.000890,-0.014655,-4.247907,-4.901192,34.318649,,,,,,
1466451344.58,-0.116364,-0.014198,0.443208,-0.005173,-0.071759,0.001428,-0.116089,0.014197,-0.993137,0.012269,0.000177,-0.014004,-4.247907,-4.901192,34.318649,,,,,,
1466451344.59,-0.117043,-0.014240,0.443226,0.001212,-0.072826,0.002506,-0.116764,0.014239,-0.993058,0.004261,0.002927,-0.008865,-4.247907,-4.901192,34.318649,,,,,,
1466451344.60,-0.117674,-0.014150,0.443250,0.003372,-0.046285,0.003406,-0.117390,0.014150,-0.992985,-0.001674,-0.001928,-0.002361,-4.222518,-4.904199,34.321354,,,,,,
1466451344.61,-0.118028,-0.014097,0.443277,0.000202,-0.029292,0.002232,-0.117743,0.014097,-0.992944,-0.004129,-0.002836,-0.005210,-4.222518,-4.904199,34.321354,,,,,,
1466451344.62,-0.118339,-0.014088,0.443285,-0.004092,-0.059017,0.001349,-0.118051,0.014088,-0.992908,0.006815,-0.003467,-0.015332,-4.222518,-4.904199,34.321354,,,,,,
1466451344.64,-0.119934,-0.014050,0.443322,-0.002010,-0.097241,0.001591,-0.119635,0.014050,-0.992719,0.001776,-0.002560,-0.011295,-4.154984,-4.899890,34.330208,,,,,,
1466451344.63,-0.119036,-0.014083,0.443303,0.001188,-0.094058,0.001574,-0.118744,0.014082,-0.992825,0.008697,-0.000395,-0.016223,-4.154984,-4.899890,34.330208,,,,,,
1466451344.65,-0.121025,-0.014087,0.443346,0.002224,-0.117418,0.001722,-0.120718,0.014087,-0.992587,0.001257,0.002377,-0.010694,-4.154984,-4.899890,34.330208,,,,,,
1466451344.66,-0.122163,-0.014081,0.443358,-0.000971,-0.119536,0.000668,-0.121848,0.014080,-0.992449,0.002432,-0.000271,-0.008299,-4.100356,-4.898316,34.337002,,,,,,
1466451344.67,-0.123423,-0.014145,0.443375,0.005410,-0.123790,0.001765,-0.123097,0.014144,-0.992294,-0.000407,0.005555,-0.003480,-4.100356,-4.898316,34.337002,,,,,,
1466451344.68,-0.124578,-0.013925,0.443388,-0.004143,-0.102546,0.000558,-0.124244,0.013924,-0.992154,-0.005181,-0.013253,-0.013827,-4.023974,-4.899049,34.345936,,,,,,
1466451344.69,-0.125641,-0.013971,0.443395,0.002282,-0.071762,0.001436,-0.125298,0.013971,-0.992021,-0.013801,0.002875,0.001588,-4.023974,-4.899049,34.345936,,,,,,
1466451344.70,-0.126208,-0.014032,0.443394,-0.006144,0.001505,0.000968,-0.125860,0.014032,-0.991949,-0.020075,0.000388,0.006765,-4.023974,-4.899049,34.345936,,,,,,
1466451344.71,-0.126084,-0.014053,0.443371,-0.002870,0.062029,-0.001538,-0.125738,0.014053,-0.991964,-0.020212,-0.000091,0.006216,-3.885168,-4.897124,34.362186,,,,,,
1466451344.72,-0.125457,-0.014081,0.443326,-0.006008,0.103446,-0.003929,-0.125116,0.014081,-0.992042,-0.016516,-0.001828,0.001075,-3.885168,-4.897124,34.362186,,,,,,
1466451344.73,-0.124184,-0.014054,0.443276,-0.008048,0.175645,-0.003320,-0.123853,0.014054,-0.992201,-0.015933,-0.005143,0.004667,-3.885168,-4.897124,34.362186,,,,,,
1466451344.74,-0.122213,-0.014091,0.443211,-0.010074,0.256343,-0.004892,-0.121897,0.014091,-0.992443,-0.021566,-0.003303,0.008953,-3.910694,-4.899329,34.358978,,,,,,
1466451344.75,-0.119473,-0.014212,0.443115,-0.013147,0.349786,-0.007610,-0.119177,0.014211,-0.992771,-0.030923,-0.000051,0.014988,-3.910694,-4.899329,34.358978,,,,,,
1466451344.76,-0.116066,-0.014378,0.443008,-0.015160,0.442160,-0.008192,-0.115794,0.014378,-0.993169,-0.045675,0.002025,0.015890,-3.910694,-4.899329,34.358978,,,,,,
1466451344.77,-0.111732,-0.014488,0.442871,-0.018186,0.572763,-0.011143,-0.111487,0.014488,-0.993660,-0.062325,-0.002937,0.022835,-4.231956,-4.911913,34.319092,,,,,,
1466451344.78,-0.104614,-0.014696,0.442717,-0.023269,0.761772,-0.014462,-0.104412,0.014695,-0.994426,-0.081456,-0.006654,0.035441,-4.231956,-4.911913,34.319092,,,,,,
1466451344.79,-0.094927,-0.014981,0.442509,-0.032485,1.048473,-0.019463,-0.094773,0.014980,-0.995386,-0.121993,-0.005779,0.058435,-4.231956,-4.911913,34.319092,,,,,,
1466451344.80,-0.081513,-0.015365,0.442234,-0.042632,1.442415,-0.025137,-0.081413,0.015364,-0.996562,-0.163353,-0.005629,0.086497,-4.623588,-4.924952,34.266651,,,,,,
1466451344.81,-0.063956,-0.015838,0.441895,-0.051685,1.859717,-0.030956,-0.063905,0.015838,-0.997830,-0.172195,-0.001189,0.100507,-4.623588,-4.924952,34.266651,,,,,,
1466451344.82,-0.042600,-0.016422,0.441504,-0.062934,2.221809,-0.037496,-0.042582,0.016421,-0.998958,-0.157446,-0.002383,0.096126,-4.623588,-4.924952,34.266651,,,,,,
1466451344.83,-0.018149,-0.017105,0.441073,-0.072138,2.519128,-0.042564,-0.018146,0.017104,-0.999689,-0.135510,-0.003219,0.086679,-6.733325,-4.992862,33.905308,,,,,,
1466451344.84,0.009094,-0.017854,0.440609,-0.077111,2.795205,-0.046429,0.009092,0.017853,-0.999799,-0.121092,0.003525,0.087461,-6.733325,-4.992862,33.905308,,,,,,
1466451344.85,0.039268,-0.018703,0.440135,-0.085249,3.094643,-0.050444,0.039251,0.018702,-0.999054,-0.127294,0.000799,0.097199,-6.733325,-4.992862,33.905308,,,,,,
1466451344.86,0.072293,-0.019625,0.439642,-0.089161,3.364355,-0.056397,0.072216,0.019624,-0.997196,-0.105572,0.004470,0.097950,-8.472216,-5.048254,33.504818,,,,,,
1466451344.87,0.107303,-0.020599,0.439165,-0.094262,3.543799,-0.056463,0.107075,0.020598,-0.994038,-0.081837,-0.000349,0.082783,-8.472216,-5.048254,33.504818,,,,,,
1466451344.88,0.143587,-0.021603,0.438690,-0.095180,3.655298,-0.060357,0.143061,0.021601,-0.989478,-0.049326,-0.001185,0.066093,-8.472216,-5.048254,33.504818,,,,,,
1466451344.89,0.180361,-0.022636,0.438235,-0.096221,3.674411,-0.060478,0.179338,0.022634,-0.983527,-0.001558,-0.001806,0.047507,-8.472216,-5.048254,33.504818,,,,,,
1466451344.91,0.252650,-0.024769,0.437429,-0.092061,3.591594,-0.062083,0.249894,0.024767,-0.967956,-0.007249,-0.007539,0.025436,-12.877042,-5.189778,32.048153,,,,,,
1466451344.90,0.216741,-0.023707,0.437820,-0.095216,3.623449,-0.062286,0.214988,0.023705,-0.976329,0.006707,-0.001626,0.024989,-12.877042,-5.189778,32.048153,,,,,,
1466451344.92,0.289053,-0.025860,0.437101,-0.097327,3.639374,-0.061323,0.284949,0.025857,-0.958194,0.007851,-0.000558,0.038165,-15.178778,-5.267488,31.011200,,,,,,
1466451344.93,0.323753,-0.026966,0.436836,-0.097621,3.412137,-0.055641,0.318011,0.026963,-0.947703,0.051022,-0.005082,-0.008809,-15.178778,-5.267488,31.011200,,,,,,
1466451344.94,0.357084,-0.027971,0.436624,-0.089217,3.322938,-0.054009,0.349407,0.027968,-0.936553,0.037586,-0.001051,-0.004700,-15.178778,-5.267488,31.011200,,,,,,
1466451344.95,0.389902,-0.029011,0.436476,-0.089306,3.254977,-0.051454,0.379938,0.029007,-0.924557,0.044028,0.006470,0.010617,-19.354401,-5.420235,28.563339,,,,,,
1466451344.96,0.420410,-0.029972,0.436360,-0.081146,2.971469,-0.048603,0.407952,0.029967,-0.912512,0.086891,-0.002395,-0.038920,-19.354401,-5.420235,28.563339,,,,,,
1466451344.97,0.448301,-0.030833,0.436260,-0.070796,2.737861,-0.044999,0.433229,0.030828,-0.900756,0.101210,0.005625,-0.038498,-19.354401,-5.420235,28.563339,,,,,,
1466451344.98,0.473617,-0.031624,0.436182,-0.065837,2.452225,-0.040009,0.455880,0.031618,-0.889479,0.117454,-0.000292,-0.056276,-21.117641,-5.489446,27.271732,,,,,,
1466451345.00,0.511528,-0.032829,0.436097,-0.042465,1.575141,-0.025969,0.489246,0.032823,-0.871528,0.159176,0.003004,-0.102731,-21.117641,-5.489446,27.271732,,,,,,
1466451344.99,0.494855,-0.032295,0.436124,-0.053633,1.998823,-0.035024,0.474657,0.032289,-0.879579,0.165526,0.000105,-0.101073,-21.117641,-5.489446,27.271732,,,,,,
1466451345.01,0.525115,-0.033269,0.436071,-0.036434,1.291633,-0.023121,0.501035,0.033263,-0.864788,0.128131,-0.005080,-0.084157,-21.117641,-5.489446,27.271732,,,,,,
1466451345.03,0.548010,-0.034014,0.436053,-0.031265,1.171641,-0.020234,0.520688,0.034008,-0.853069,-0.012174,-0.003994,-0.010532,-23.502728,-5.587337,25.223793,,,,,,
1466451345.02,0.536578,-0.033653,0.436057,-0.031337,1.114304,-0.019875,0.510909,0.033646,-0.858976,0.064668,-0.001679,-0.058230,-23.502728,-5.587337,25.223793,,,,,,
1466451345.04,0.561763,-0.034444,0.436060,-0.038354,1.460458,-0.023117,0.532363,0.034437,-0.845815,-0.102843,-0.001692,0.046957,-24.124640,-5.615240,24.623302,,,,,,
1466451345.05,0.579546,-0.034986,0.436065,-0.049514,1.891570,-0.031154,0.547309,0.034979,-0.836199,-0.168479,-0.005636,0.081698,-24.124640,-5.615240,24.623302,,,,,,
1466451345.06,0.602443,-0.035684,0.436077,-0.061604,2.430987,-0.039872,0.566297,0.035677,-0.823429,-0.217069,-0.003343,0.112110,-24.124640,-5.615240,24.623302,,,,,,
1466451345.07,0.630716,-0.036542,0.436107,-0.073748,2.942802,-0.048420,0.589329,0.036534,-0.807067,-0.206074,-0.003682,0.124373,-25.686550,-5.683114,22.972584,,,,,,
1466451345.08,0.662860,-0.037534,0.436154,-0.085003,3.295347,-0.058093,0.614940,0.037525,-0.787681,-0.164943,-0.006443,0.096595,-25.686550,-5.683114,22.972584,,,,,,
1466451345.09,0.698865,-0.038623,0.436230,-0.090856,3.716894,-0.063936,0.642870,0.038613,-0.765002,-0.172823,-0.003472,0.110751,-25.686550,-5.683114,22.972584,,,,,,
1466451345.10,0.739680,-0.039876,0.436390,-0.108348,4.193667,-0.072266,0.673516,0.039865,-0.738097,-0.177132,-0.006158,0.131682,-27.020536,-5.744405,21.371210,,,,,,
1466451345.12,0.834359,-0.042760,0.436991,-0.130697,5.033594,-0.088200,0.740189,0.042747,-0.671039,-0.140488,-0.002189,0.138125,-27.020536,-5.744405,21.371210,,,,,,
1466451345.11,0.784875,-0.041257,0.436638,-0.119507,4.627962,-0.079258,0.706135,0.041245,-0.706875,-0.174885,-0.004563,0.135723,-27.020536,-5.744405,21.371210,,,,,,
1466451345.13,0.887130,-0.044319,0.437428,-0.136665,5.369126,-0.090311,0.774501,0.044304,-0.631020,-0.130610,-0.001244,0.143150,-30.251511,-5.912466,16.423307,,,,,,
1466451345.14,0.943745,-0.045989,0.437977,-0.148950,5.749279,-0.100158,0.808905,0.045973,-0.586139,-0.108588,-0.003951,0.148547,-30.251511,-5.912466,16.423307,,,,,,
1466451345.15,1.003901,-0.047736,0.438679,-0.157021,6.095448,-0.108724,0.842611,0.047718,-0.536404,-0.096151,-0.003681,0.163739,-30.251511,-5.912466,16.423307,,,,,,
1466451345.16,1.067275,-0.049511,0.439492,-0.163004,6.415060,-0.112863,0.874816,0.049491,-0.481921,-0.079314,0.001077,0.168521,-30.251511,-5.912466,16.423307,,,,,,
1466451345.18,1.200220,-0.053030,0.441742,-0.172431,6.542475,-0.111543,0.930809,0.053006,-0.361643,0.106087,-0.000134,0.099146,-33.196049,-6.117722,8.968388,,,,,,
1466451345.17,1.134005,-0.051305,0.440580,-0.179655,6.725109,-0.112696,0.904921,0.051283,-0.422478,-0.038070,-0.000441,0.170387,-33.196049,-6.117722,8.968388,,,,,,
1466451345.19,1.262434,-0.054564,0.442911,-0.157049,6.079509,-0.104366,0.951414,0.054537,-0.303047,0.235979,0.012647,0.012459,-34.076187,-6.216891,4.472132,,,,,,
1466451345.20,1.318154,-0.055877,0.444065,-0.138780,5.378687,-0.091437,0.966744,0.055848,-0.249573,0.326499,0.010192,-0.065109,-34.076187,-6.216891,4.472132,,,,,,
1466451345.22,1.402587,-0.057765,0.445952,-0.090138,3.438705,-0.063255,0.984242,0.057733,-0.167138,0.425548,-0.006509,-0.219443,-34.352013,-6.292932,0.417496,,,,,,
1466451345.23,1.433415,-0.058450,0.446641,-0.077894,3.020336,-0.056361,0.988886,0.058417,-0.136716,0.259771,0.006403,-0.138065,-34.352013,-6.292932,0.417496,,,,,,
1466451345.21,1.365621,-0.056926,0.445092,-0.120735,4.502661,-0.075281,0.977439,0.056895,-0.203409,0.397896,0.006490,-0.136847,-34.352013,-6.292932,0.417496,,,,,,
1466451345.24,1.464026,-0.059072,0.447415,-0.085290,3.075536,-0.050328,0.992571,0.059038,-0.106382,0.089292,-0.000658,-0.011446,-34.352013,-6.292932,0.417496,,,,,,
1466451345.25,1.493997,-0.059646,0.448157,-0.076942,2.938562,-0.050525,0.995279,0.059610,-0.076587,0.067816,0.004080,-0.009305,-34.030891,-6.372111,-4.596829,,,,,,
1466451345.26,1.522759,-0.060152,0.448904,-0.077032,2.873781,-0.045861,0.997040,0.060116,-0.047932,0.044006,0.004414,-0.027660,-34.030891,-6.372111,-4.596829,,,,,,
1466451345.27,1.551323,-0.060618,0.449629,-0.072837,2.820692,-0.046589,0.997974,0.060581,-0.019436,0.063702,0.011639,0.005154,-33.696533,-6.395926,-6.593329,,,,,,
1466451345.28,1.578118,-0.061063,0.450406,-0.078384,2.647612,-0.042315,0.998109,0.061025,0.007307,0.065215,-0.008688,-0.053465,-33.696533,-6.395926,-6.593329,,,,,,
1466451345.29,1.605572,-0.061536,0.451120,-0.070745,2.787781,-0.048509,0.997504,0.061497,0.034703,0.011896,0.000957,-0.010365,-33.696533,-6.395926,-6.593329,,,,,,
1466451345.30,1.636347,-0.062014,0.451946,-0.083015,3.187033,-0.054219,0.995934,0.061975,0.065378,-0.100533,0.000876,0.068212,-33.696533,-6.395926,-6.593329,,,,,,
1466451345.31,1.671274,-0.062534,0.452917,-0.094230,3.574612,-0.061983,0.993012,0.062493,0.100113,-0.116821,-0.000329,0.098816,-33.696533,-6.395926,-6.593329,,,,,,
1466451345.32,1.710853,-0.063062,0.454046,-0.108492,4.083231,-0.068380,0.988240,0.063021,0.139321,-0.149449,-0.004396,0.108619,-32.720798,-6.433079,-10.382727,,,,,,
1466451345.33,1.753984,-0.063631,0.455259,-0.112401,4.351887,-0.076456,0.981278,0.063588,0.181797,-0.077302,-0.000737,0.102444,-31.850281,-6.450784,-12.797783,,,,,,
1466451345.34,1.797852,-0.064143,0.456587,-0.121945,4.382684,-0.076658,0.972330,0.064099,0.224647,0.004324,-0.003339,0.045999,-31.850281,-6.450784,-12.797783,,,,,,
1466451345.35,1.842604,-0.064614,0.457956,-0.121797,4.497365,-0.079506,0.961277,0.064569,0.267913,0.028164,0.002799,0.036332,-31.850281,-6.450784,-12.797783,,,,,,
1466451345.36,1.887920,-0.065034,0.459336,-0.119635,4.521788,-0.080722,0.948128,0.064988,0.311176,0.045479,0.006804,0.044293,-31.850281,-6.450784,-12.797783,,,,,,
1466451345.37,1.934362,-0.065360,0.460779,-0.126878,4.690615,-0.080723,0.932639,0.065313,0.354849,0.010888,0.002054,0.053400,-29.081461,-6.472986,-18.226501,,,,,,
1466451345.38,1.982422,-0.065624,0.462289,-0.127799,4.803170,-0.082495,0.914499,0.065577,0.399238,0.036291,0.004430,0.070473,-29.081461,-6.472986,-18.226501,,,,,,
1466451345.39,2.030466,-0.065842,0.463791,-0.125692,4.781939,-0.084488,0.894257,0.065794,0.442691,0.064590,0.006151,0.048886,-29.081461,-6.472986,-18.226501,,,,,,
1466451345.40,2.078389,-0.065981,0.465300,-0.127815,4.795728,-0.079255,0.872015,0.065934,0.485017,0.081216,-0.006546,0.040541,-27.224724,-6.468331,-20.900028,,,,,,
1466451345.41,2.126058,-0.066074,0.466810,-0.124694,4.728848,-0.084154,0.847908,0.066026,0.526015,0.109962,0.003554,0.040940,-27.224724,-6.468331,-20.900028,,,,,,
1466451345.42,2.173439,-0.066053,0.468315,-0.126803,4.752197,-0.080045,0.822044,0.066005,0.565586,0.083168,0.000889,0.023129,-27.224724,-6.468331,-20.900028,,,,,,
1466451345.43,2.220097,-0.066016,0.469798,-0.123797,4.595060,-0.083314,0.794772,0.065968,0.603312,0.140241,0.000622,0.046880,-22.747448,-6.432864,-25.710079,,,,,,
1466451345.44,2.264734,-0.065878,0.471248,-0.118699,4.421972,-0.077966,0.767066,0.065830,0.638182,0.143228,0.006023,-0.017317,-22.747448,-6.432864,-25.710079,,,,,,
1466451345.46,2.350324,-0.065489,0.473917,-0.111613,4.137391,-0.070852,0.709721,0.065443,0.701437,0.142864,0.008975,-0.003622,-20.302973,-6.402744,-27.688091,,,,,,
1466451345.45,2.308366,-0.065743,0.472596,-0.108175,4.323219,-0.077336,0.738506,0.065696,0.671039,0.142796,0.005257,0.017392,-20.302973,-6.402744,-27.688091,,,,,,
1466451345.47,2.391056,-0.065209,0.475188,-0.111717,4.054570,-0.070333,0.680582,0.065163,0.729769,0.136099,0.000603,-0.000017,-20.302973,-6.402744,-27.688091,,,,,,
1466451345.48,2.430569,-0.064903,0.476414,-0.100231,3.870878,-0.071298,0.651235,0.064857,0.756099,0.151102,0.009178,0.009678,-20.302973,-6.402744,-27.688091,,,,,,
1466451345.49,2.467242,-0.064616,0.477495,-0.085669,3.608585,-0.062187,0.623087,0.064572,0.779483,0.156408,0.002445,-0.038836,-15.443333,-6.327425,-30.680668,,,,,,
1466451345.50,2.502193,-0.064240,0.478563,-0.095477,3.430204,-0.060014,0.595483,0.064196,0.800799,0.159339,0.005048,-0.009692,-15.443333,-6.327425,-30.680668,,,,,,
1466451345.52,2.563490,-0.063481,0.480424,-0.082291,2.912029,-0.053558,0.545335,0.063438,0.835814,0.150878,0.007927,-0.060561,-13.204182,-6.287482,-31.716768,,,,,,
1466451345.51,2.534122,-0.063841,0.479533,-0.086319,3.099964,-0.052611,0.569630,0.063798,0.819421,0.179699,0.009902,-0.048776,-13.204182,-6.287482,-31.716768,,,,,,
1466451345.53,2.593667,-0.063064,0.481336,-0.087423,3.063872,-0.055580,0.519882,0.063023,0.851910,0.058640,0.005962,0.016117,-13.204182,-6.287482,-31.716768,,,,,,
1466451345.54,2.626264,-0.062559,0.482325,-0.092423,3.314472,-0.061414,0.491856,0.062518,0.868429,-0.014516,-0.001758,0.067576,-13.204182,-6.287482,-31.716768,,,,,,
1466451345.55,2.662240,-0.062016,0.483334,-0.100454,3.700975,-0.064911,0.460318,0.061976,0.885588,-0.070289,-0.001643,0.095415,-9.170305,-6.200137,-33.125519,,,,,,
1466451345.56,2.701471,-0.061355,0.484465,-0.109709,3.953704,-0.071827,0.425248,0.061316,0.902997,-0.031251,0.007760,0.112963,-9.170305,-6.200137,-33.125519,,,,,,
1466451345.57,2.741231,-0.060737,0.485525,-0.099046,3.966440,-0.071896,0.389033,0.060699,0.919222,0.032262,0.004853,0.071836,-6.651191,-6.142144,-33.732357,,,,,,
1466451345.58,2.781260,-0.059986,0.486587,-0.111771,4.011036,-0.070060,0.351951,0.059950,0.934097,0.073647,0.007052,0.040955,-6.651191,-6.142144,-33.732357,,,,,,
1466451345.59,2.820833,-0.059207,0.487614,-0.106579,3.900615,-0.072555,0.314736,0.059172,0.947333,0.107521,0.002153,0.048761,-6.651191,-6.142144,-33.732357,,,,,,
1466451345.60,2.858741,-0.058417,0.488568,-0.104602,3.791228,-0.064416,0.278619,0.058384,0.958625,0.127997,0.008892,0.000115,-6.651191,-6.142144,-33.732357,,,,,,
1466451345.61,2.896190,-0.057610,0.489467,-0.099418,3.676556,-0.065821,0.242544,0.057578,0.968430,0.131709,0.007791,0.041549,-1.275375,-6.009890,-34.381550,,,,,,
1466451345.62,2.929885,-0.056876,0.490241,-0.087136,3.292159,-0.057011,0.209790,0.056846,0.976093,0.190311,0.009286,-0.029147,-1.275375,-6.009890,-34.381550,,,,,,
1466451345.63,2.961133,-0.056130,0.490936,-0.084187,3.097843,-0.054725,0.179199,0.056101,0.982212,0.172592,-0.000330,-0.033909,1.176334,-5.944475,-34.396450,,,,,,
1466451345.64,2.989066,-0.055497,0.491542,-0.069793,2.696461,-0.047936,0.151702,0.055468,0.986869,0.202592,0.002378,-0.030127,1.176334,-5.944475,-34.396450,,,,,,
1466451345.65,3.012679,-0.054917,0.492033,-0.063905,2.303578,-0.041208,0.128363,0.054889,0.990207,0.206934,0.004544,-0.078296,1.176334,-5.944475,-34.396450,,,,,,
1466451345.66,3.032275,-0.054441,0.492432,-0.049594,1.839544,-0.031897,0.108938,0.054414,0.992558,0.198633,0.010329,-0.106740,1.176334,-5.944475,-34.396450,,,,,,
1466451345.67,3.046997,-0.054100,0.492718,-0.035279,1.376576,-0.023657,0.094317,0.054074,0.994073,0.181959,0.005558,-0.090295,1.176334,-5.944475,-34.396450,,,,,,
1466451345.68,3.058157,-0.053800,0.492942,-0.031455,1.034664,-0.018315,0.083219,0.053774,0.995079,0.168384,0.008619,-0.092430,4.692975,-5.844815,-34.112320,,,,,,
1466451345.69,3.065291,-0.053597,0.493080,-0.018145,0.619478,-0.010376,0.076118,0.053572,0.995659,0.161538,0.001146,-0.095817,4.692975,-5.844815,-34.112320,,,,,,
1466451345.70,3.064882,-0.053855,0.492947,-0.005855,0.236130,-0.004766,0.076524,0.053829,0.995614,0.159133,0.010776,-0.098397,5.575895,-5.819154,-33.983570,,,,,,
1466451345.71,3.057027,-0.054123,0.492548,0.000010,-0.173784,0.003133,0.084341,0.054096,0.994967,0.149271,0.002087,-0.096972,5.575895,-5.819154,-33.983570,,,,,,
1466451345.72,3.052214,-0.054201,0.492447,0.010139,-0.577292,0.012060,0.089128,0.054174,0.994546,0.134993,0.001474,-0.091698,5.804374,-5.820952,-33.944984,,,,,,
1466451345.73,3.043833,-0.054383,0.492260,0.023543,-0.919211,0.018476,0.097459,0.054357,0.993754,0.121931,0.001643,-0.077220,5.804374,-5.820952,-33.944984,,,,,,
1466451345.74,3.032364,-0.054662,0.492020,0.031680,-1.219711,0.022497,0.108849,0.054635,0.992556,0.111534,0.001777,-0.067339,5.804374,-5.820952,-33.944984,,,,,,
1466451345.75,3.017886,-0.055002,0.491717,0.039818,-1.519150,0.026512,0.123205,0.054974,0.990857,0.104014,0.004215,-0.059675,5.804374,-5.820952,-33.944984,,,,,,
1466451345.76,3.000600,-0.055405,0.491345,0.046911,-1.799481,0.032535,0.140311,0.055377,0.988558,0.121622,-0.002459,-0.060121,4.694523,-5.855657,-34.110249,,,,,,
1466451345.77,2.980017,-0.055890,0.490903,0.057128,-2.139269,0.036805,0.160622,0.055861,0.985434,0.116828,-0.006773,-0.053442,4.694523,-5.855657,-34.110249,,,,,,
1466451345.78,2.956584,-0.056442,0.490386,0.066372,-2.402612,0.042724,0.183662,0.056412,0.981369,0.070595,0.015243,-0.035843,3.606810,-5.886121,-34.237125,,,,,,
1466451345.79,2.931336,-0.057012,0.489806,0.067253,-2.545962,0.045753,0.208372,0.056982,0.976388,0.057299,0.000239,0.002600,3.606810,-5.886121,-34.237125,,,,,,
1466451345.80,2.904928,-0.057622,0.489192,0.073491,-2.667008,0.045454,0.234073,0.057590,0.970512,0.031446,0.005383,0.007409,3.606810,-5.886121,-34.237125,,,,,,
1466451345.81,2.877857,-0.058195,0.488546,0.072372,-2.707362,0.047835,0.260247,0.058163,0.963789,0.029975,-0.008923,0.021365,3.606810,-5.886121,-34.237125,,,,,,
1466451345.82,2.849798,-0.058833,0.487854,0.084980,-2.840096,0.049744,0.287174,0.058799,0.956072,0.034191,-0.004905,0.018949,0.314656,-5.978128,-34.409286,,,,,,
1466451345.83,2.820749,-0.059537,0.487138,0.088117,-2.894235,0.044764,0.314809,0.059502,0.947288,-0.016347,0.000023,0.051537,0.314656,-5.978128,-34.409286,,,,,,
1466451345.85,2.767493,-0.060913,0.485767,0.074629,-2.613909,0.041928,0.364757,0.060876,0.929111,-0.031367,0.064200,-0.009540,-1.584764,-6.029726,-34.365200,,,,,,
1466451345.84,2.793521,-0.060180,0.486428,0.086273,-2.659588,0.047549,0.340468,0.060144,0.938330,-0.060393,-0.029062,0.084680,-1.584764,-6.029726,-34.365200,,,,,,
1466451345.86,2.740907,-0.061422,0.485051,0.078884,-2.622397,0.038792,0.389314,0.061383,0.919057,-0.041307,-0.012265,0.098765,-1.584764,-6.029726,-34.365200,,,,,,
1466451345.87,2.716618,-0.061760,0.484394,0.044039,-2.366526,0.052055,0.411512,0.061721,0.909312,-0.099836,0.037568,0.016500,-1.584764,-6.029726,-34.365200,,,,,,
1466451345.88,2.694105,-0.062212,0.483785,0.075158,-2.207213,0.029798,0.431865,0.062172,0.899793,-0.080089,-0.019355,0.111956,-5.313848,-6.139497,-33.969189,,,,,,
1466451345.89,2.674252,-0.062430,0.483249,0.025455,-1.907808,0.045966,0.449636,0.062389,0.891030,-0.125295,0.048176,0.027183,-5.313848,-6.139497,-33.969189,,,,,,
1466451345.91,2.643521,-0.063320,0.482449,0.045392,-1.347093,0.008407,0.476775,0.063278,0.876745,-0.150191,0.018936,0.034571,-6.899542,-6.176387,-33.676174,,,,,,
1466451345.90,2.657770,-0.062871,0.482784,0.075967,-1.582837,0.013110,0.464247,0.062830,0.883474,-0.093474,-0.138238,0.219111,-6.899542,-6.176387,-33.676174,,,,,,
1466451345.92,2.634459,-0.063682,0.482185,0.050398,-0.746123,0.007837,0.484689,0.063639,0.872369,-0.148324,0.004751,0.108924,-6.899542,-6.176387,-33.676174,,,,,,
1466451345.93,2.631516,-0.063917,0.482106,0.009659,-0.130240,-0.002453,0.487247,0.063874,0.870925,-0.152469,0.015594,0.070268,-6.899542,-6.176387,-33.676174,,,,,,
1466451345.94,2.643212,-0.062532,0.482710,0.006450,0.674705,-0.027728,0.477070,0.062491,0.876641,-0.112949,-0.031333,0.107017,-8.895613,-6.238733,-33.193111,,,,,,
1466451345.95,2.656220,-0.062709,0.483114,-0.010584,1.499778,-0.048886,0.465621,0.062668,0.882763,-0.077727,-0.021866,0.092381,-8.895613,-6.238733,-33.193111,,,,,,
1466451345.97,2.707840,-0.062684,0.484798,-0.055195,3.241231,-0.086464,0.419454,0.062643,0.905613,0.024440,0.028650,0.057949,-8.606410,-6.196024,-33.277248,,,,,,
1466451345.96,2.677532,-0.062742,0.483836,-0.032905,2.348223,-0.073390,0.446702,0.062701,0.892483,-0.011720,-0.006320,0.073566,-8.606410,-6.196024,-33.277248,,,,,,
1466451345.98,2.745933,-0.062390,0.486009,-0.081937,3.972858,-0.102788,0.384667,0.062349,0.920947,0.068977,0.023131,0.048215,-8.606410,-6.196024,-33.277248,,,,,,
1466451345.99,2.790471,-0.061951,0.487400,-0.089665,4.582373,-0.119392,0.343291,0.061911,0.937186,0.125245,-0.037894,0.135980,-8.606410,-6.196024,-33.277248,,,,,,
1466451346.00,2.838923,-0.061399,0.488873,-0.107338,4.917920,-0.124707,0.297508,0.061360,0.952745,0.147759,0.008891,-0.007067,-5.137341,-6.163765,-33.991940,,,,,,
1466451346.01,2.890272,-0.060869,0.490421,-0.083640,5.122859,-0.134484,0.248223,0.060831,0.966791,0.168617,-0.048914,0.107000,-5.137341,-6.163765,-33.991940,,,,,,
1466451346.02,2.939746,-0.060244,0.491875,-0.099865,4.923243,-0.131120,0.200115,0.060207,0.977921,0.152118,0.018116,-0.009583,-1.949947,-6.106811,-34.332794,,,,,,
1466451346.03,2.987624,-0.059684,0.493215,-0.069383,4.626952,-0.117522,0.153088,0.059648,0.986411,0.196155,0.002028,-0.002661,-1.949947,-6.106811,-34.332794,,,,,,
1466451346.04,3.026609,-0.059223,0.494344,-0.058862,3.690413,-0.103123,0.114529,0.059188,0.991655,0.163883,0.020417,-0.152101,-1.949947,-6.106811,-34.332794,,,,,,
1466451346.05,3.058103,-0.058936,0.495221,-0.030068,2.912039,-0.076923,0.083248,0.058902,0.994787,0.117359,0.002942,-0.137578,-1.949947,-6.106811,-34.332794,,,,,,
1466451346.06,3.078543,-0.058853,0.495875,-0.005998,1.748258,-0.057891,0.062899,0.058819,0.996285,0.120100,0.005924,-0.221398,4.510389,-5.988439,-34.112038,,,,,,
1466451346.07,3.087138,-0.059014,0.496209,0.019048,0.551527,-0.023753,0.054333,0.058980,0.996779,0.071308,0.033260,-0.284514,4.510389,-5.988439,-34.112038,,,,,,
1466451346.08,3.083120,-0.059467,0.496261,0.051483,-0.730126,-0.000781,0.058336,0.059432,0.996526,0.058454,0.006089,-0.263280,6.280987,-5.963248,-33.835266,,,,,,
1466451346.09,3.065558,-0.060144,0.495918,0.080608,-2.082954,0.035409,0.075824,0.060108,0.995308,0.024640,0.019085,-0.242866,6.280987,-5.963248,-33.835266,,,,,,
1466451346.10,3.037127,-0.061223,0.495169,0.119803,-3.035507,0.076549,0.104080,0.061185,0.992685,0.095413,0.003116,-0.122629,6.280987,-5.963248,-33.835266,,,,,,
1466451346.11,3.006307,-0.062203,0.494524,0.099651,-3.019491,0.047688,0.134612,0.062162,0.988947,0.198563,0.017000,0.029883,6.280987,-5.963248,-33.835266,,,,,,
1466451346.12,2.974770,-0.063191,0.493875,0.116347,-3.284959,0.052563,0.165718,0.063149,0.984149,0.090477,-0.003869,-0.015170,4.873409,-6.048260,-34.051498,,,,,,
1466451346.13,2.938507,-0.064423,0.492994,0.140352,-3.655567,0.064491,0.201274,0.064378,0.977417,0.060811,-0.028596,0.009369,4.873409,-6.048260,-34.051498,,,,,,
1466451346.14,2.902221,-0.065573,0.492190,0.125476,-3.650218,0.052734,0.236583,0.065526,0.969399,0.100560,0.003597,0.032203,4.873409,-6.048260,-34.051498,,,,,,
1466451346.15,2.863269,-0.066769,0.491233,0.145309,-3.954986,0.062116,0.274132,0.066719,0.959375,0.036659,0.000129,0.021048,0.244399,-6.218236,-34.367283,,,,,,
1466451346.17,2.786121,-0.068931,0.489312,0.122193,-3.719236,0.054228,0.347206,0.068877,0.935256,-0.028816,0.035875,0.079988,0.244399,-6.218236,-34.367283,,,,,,
1466451346.16,2.823691,-0.067910,0.490214,0.134729,-3.905070,0.059663,0.311854,0.067858,0.947704,0.028921,0.012510,0.076390,0.244399,-6.218236,-34.367283,,,,,,
1466451346.18,2.748853,-0.069895,0.488332,0.123278,-3.700130,0.056238,0.381787,0.069838,0.921608,-0.112728,0.027620,0.102867,-2.455103,-6.312662,-34.263084,,,,,,
1466451346.19,2.714517,-0.070527,0.487444,0.084338,-3.333795,0.056030,0.413181,0.070468,0.907918,-0.121540,0.059735,0.104350,-2.455103,-6.312662,-34.263084,,,,,,
1466451346.20,2.683486,-0.070967,0.486606,0.075144,-3.017385,0.058295,0.441137,0.070907,0.894634,-0.156774,0.043030,0.099781,-2.455103,-6.312662,-34.263084,,,,,,
1466451346.21,2.655804,-0.071361,0.485829,0.059567,-2.708382,0.053148,0.465718,0.071301,0.882056,-0.139622,0.029575,0.075356,-7.222681,-6.444580,-33.557957,,,,,,
1466451346.23,2.613442,-0.071660,0.484657,0.039424,-1.806872,0.036829,0.502644,0.071598,0.861524,-0.176487,-0.010655,0.122012,-7.222681,-6.444580,-33.557957,,,,,,
1466451346.22,2.632388,-0.071505,0.485214,0.041056,-2.198686,0.042481,0.486237,0.071444,0.870901,-0.143220,-0.002704,0.112314,-7.222681,-6.444580,-33.557957,,,,,,
1466451346.24,2.598479,-0.071745,0.484249,0.028265,-1.377877,0.026676,0.515475,0.071684,0.853901,-0.183108,-0.017515,0.153179,-8.930122,-6.474113,-33.138721,,,,,,
1466451346.25,2.589308,-0.071887,0.484050,0.015002,-0.921280,0.020606,0.523279,0.071825,0.849129,-0.197580,0.014983,0.097801,-8.930122,-6.474113,-33.138721,,,,,,
