timestamp,attitude_roll,attitude_pitch,attitude_yaw,rotation_rate_x,rotation_rate_y,rotation_rate_z,gravity_x,gravity_y,gravity_z,user_acc_x,user_acc_y,user_acc_z,magnetic_field_x,magnetic_field_y,magnetic_field_z,latitude(degree),longitude(degree),altitude(meter),speed(m/s),course(degree),timestamp
1465826721.28,-0.076005,0.004983,-0.034236,0.003753,-0.117112,0.004093,-0.075930,-0.004983,-0.997101,0.001513,-0.000846,0.003616,-46.385475,305.661652,-58.772118,,,,,,
1465826721.30,-0.078332,0.005093,-0.034123,0.007958,-0.156404,0.006472,-0.078251,-0.005093,-0.996921,0.018330,0.002422,0.000552,-46.385475,305.661652,-58.772118,,,,,,
1465826721.29,-0.077116,0.005055,-0.034187,0.005861,-0.131980,0.005252,-0.077038,-0.005055,-0.997015,0.009839,-0.002117,0.000098,-46.385475,305.661652,-58.772118,,,,,,
1465826721.31,-0.079615,0.005129,-0.034043,0.009003,-0.170209,0.007624,-0.079530,-0.005129,-0.996819,0.023531,0.002443,0.006554,-46.496307,305.656342,-58.712261,,,,,,
1465826721.32,-0.081269,0.005172,-0.033947,0.011065,-0.222239,0.009017,-0.081179,-0.005172,-0.996686,0.024706,0.003768,0.008069,-46.496307,305.656342,-58.712261,,,,,,
1465826721.33,-0.083840,0.005300,-0.033847,0.017320,-0.328421,0.009689,-0.083740,-0.005299,-0.996473,0.027451,0.000737,-0.005983,-46.496307,305.656342,-58.712261,,,,,,
,,,,,,,,,,,,,,,,29.719971,-95.399009,10.696703,-1.000000,-1.000000,1465826951.30
,,,,,,,,,,,,,,,,29.719971,-95.399009,10.696703,-1.000000,-1.000000,1465826951.30
1465826721.33,-0.087450,0.005511,-0.033708,0.023576,-0.427181,0.014573,-0.087338,-0.005511,-0.996164,0.029690,0.000353,-0.002097,-46.792648,305.655334,-58.481560,,,,,,
,,,,,,,,,,,,,,,,29.719971,-95.399009,10.696703,-1.000000,-1.000000,1465826951.31
1465826721.35,-0.091730,0.005758,-0.033567,0.024576,-0.484507,0.011740,-0.091600,-0.005758,-0.995779,0.030596,-0.000528,0.001318,-46.792648,305.655334,-58.481560,,,,,,
1465826721.36,-0.096588,0.005989,-0.033414,0.027702,-0.536538,0.013134,-0.096436,-0.005989,-0.995321,0.028184,0.001609,0.005163,-46.792648,305.655334,-58.481560,,,,,,
1465826721.37,-0.102126,0.006287,-0.033252,0.030813,-0.603432,0.013556,-0.101946,-0.006287,-0.994770,0.024462,-0.000320,-0.000790,-47.180023,305.638458,-58.258064,,,,,,
1465826721.38,-0.108521,0.006572,-0.033069,0.034988,-0.668206,0.015031,-0.108306,-0.006572,-0.994096,0.014449,0.002132,-0.000655,-47.180023,305.638458,-58.258064,,,,,,
1465826721.39,-0.115561,0.006922,-0.032882,0.037059,-0.717047,0.014275,-0.115301,-0.006922,-0.993306,0.008184,0.000513,-0.007182,-47.180023,305.638458,-58.258064,,,,,,
,,,,,,,,,,,,,,,,29.719971,-95.399010,10.655134,-1.000000,-1.000000,1465826951.36
,,,,,,,,,,,,,,,,29.719970,-95.399010,10.631566,-1.000000,-1.000000,1465826951.36
1465826721.39,-0.122969,0.007300,-0.032678,0.038106,-0.727672,0.016472,-0.122656,-0.007300,-0.992422,-0.009485,-0.002695,-0.007852,-48.387527,305.594177,-57.494862,,,,,,
1465826721.40,-0.130036,0.007644,-0.032485,0.036019,-0.696873,0.014148,-0.129667,-0.007644,-0.991528,-0.011966,-0.004655,-0.009662,-48.387527,305.594177,-57.494862,,,,,,
1465826721.41,-0.136695,0.007962,-0.032302,0.032876,-0.654402,0.014943,-0.136265,-0.007962,-0.990640,-0.015545,-0.000980,-0.003744,-48.387527,305.594177,-57.494862,,,,,,
1465826721.42,-0.142971,0.008274,-0.032119,0.033988,-0.620419,0.012602,-0.142479,-0.008274,-0.989763,-0.011055,0.000705,-0.001020,-49.123074,305.565216,-57.023102,,,,,,
1465826721.44,-0.149409,0.008584,-0.031945,0.033977,-0.627856,0.013713,-0.148848,-0.008584,-0.988823,-0.010011,0.000069,-0.005608,-49.123074,305.565216,-57.023102,,,,,,
1465826721.45,-0.155844,0.008920,-0.031759,0.036082,-0.646969,0.013835,-0.155208,-0.008920,-0.987842,-0.007558,0.000085,-0.008603,-49.123074,305.565216,-57.023102,,,,,,
1465826721.45,-0.162157,0.009245,-0.031568,0.035050,-0.621485,0.013674,-0.161441,-0.009245,-0.986839,-0.002744,-0.003725,-0.003044,-50.419094,305.514587,-56.156555,,,,,,
1465826721.47,-0.167855,0.009523,-0.031391,0.028753,-0.550339,0.012157,-0.167060,-0.009523,-0.985901,-0.000924,-0.000136,0.007126,-50.419094,305.514587,-56.156555,,,,,,
1465826721.48,-0.172697,0.009757,-0.031238,0.025671,-0.462204,0.010537,-0.171832,-0.009756,-0.985078,0.001299,0.000128,0.010484,-50.419094,305.514587,-56.156555,,,,,,
1465826721.48,-0.176838,0.009955,-0.031093,0.021487,-0.400621,0.011211,-0.175909,-0.009954,-0.984356,0.000952,0.002676,0.010784,-51.009838,305.491516,-55.747326,,,,,,
1465826721.50,-0.180650,0.010143,-0.030957,0.020455,-0.378316,0.008941,-0.179660,-0.010143,-0.983676,0.006808,0.001827,0.008716,-51.009838,305.491516,-55.747326,,,,,,
1465826721.51,-0.184626,0.010338,-0.030829,0.021484,-0.406986,0.009122,-0.183569,-0.010338,-0.982952,0.009085,-0.000404,0.000195,-51.009838,305.491516,-55.747326,,,,,,
1465826721.51,-0.188952,0.010554,-0.030680,0.023550,-0.453711,0.011546,-0.187819,-0.010554,-0.982147,0.008162,-0.000325,-0.005081,-51.814156,305.462616,-55.160698,,,,,,
1465826721.53,-0.193768,0.010769,-0.030524,0.024573,-0.487690,0.011760,-0.192546,-0.010769,-0.981229,0.009548,-0.001591,-0.003879,-51.814156,305.462616,-55.160698,,,,,,
1465826721.54,-0.198775,0.011007,-0.030351,0.026679,-0.504682,0.012933,-0.197457,-0.011007,-0.980250,0.014672,0.000310,0.002802,-51.814156,305.462616,-55.160698,,,,,,
1465826721.54,-0.203984,0.011241,-0.030164,0.026647,-0.528045,0.014144,-0.202560,-0.011241,-0.979205,0.024596,0.004222,0.009113,-52.250015,305.447571,-54.832058,,,,,,
1465826721.56,-0.209236,0.011427,-0.029970,0.029773,-0.582196,0.014487,-0.207699,-0.011427,-0.978126,0.029751,0.003584,0.005973,-52.250015,305.447571,-54.832058,,,,,,
1465826721.57,-0.215726,0.011724,-0.029737,0.034980,-0.672458,0.017187,-0.214042,-0.011724,-0.976754,0.035621,0.002538,0.003137,-52.250015,305.447571,-54.832058,,,,,,
1465826721.58,-0.222853,0.012036,-0.029470,0.040173,-0.778675,0.018922,-0.220997,-0.012035,-0.975200,0.040089,0.002300,0.002361,-53.268600,305.418365,-54.008476,,,,,,
1465826721.59,-0.231291,0.012420,-0.029161,0.047482,-0.890173,0.021758,-0.229216,-0.012420,-0.973296,0.047011,0.001342,0.004211,-53.268600,305.418365,-54.008476,,,,,,
1465826721.60,-0.241037,0.012841,-0.028791,0.051579,-1.012294,0.026785,-0.238690,-0.012841,-0.971011,0.053403,0.003335,0.008029,-53.268600,305.418365,-54.008476,,,,,,
1465826721.61,-0.252147,0.013337,-0.028400,0.060991,-1.150330,0.026596,-0.249461,-0.013336,-0.968293,0.059077,0.003189,0.006211,-53.979652,305.396912,-53.420406,,,,,,
1465826721.63,-0.278313,0.014483,-0.027367,0.072377,-1.391397,0.039828,-0.274705,-0.014483,-0.961419,0.069520,0.003115,0.014779,-53.979652,305.396912,-53.420406,,,,,,
1465826721.62,-0.264659,0.013904,-0.027924,0.067201,-1.284135,0.032764,-0.261555,-0.013904,-0.965088,0.054875,0.004123,0.005143,-53.979652,305.396912,-53.420406,,,,,,
1465826721.64,-0.293235,0.015078,-0.026737,0.077513,-1.535813,0.043932,-0.289018,-0.015078,-0.957205,0.113389,0.004198,0.036169,-56.076294,305.335236,-51.581638,,,,,,
1465826721.65,-0.310748,0.015769,-0.026003,0.092024,-1.842696,0.051194,-0.305733,-0.015768,-0.951987,0.157158,0.009329,0.042837,-56.076294,305.335236,-51.581638,,,,,,
1465826721.66,-0.332969,0.016626,-0.025107,0.117979,-2.359828,0.061914,-0.326805,-0.016625,-0.944945,0.178063,0.012460,0.026321,-56.076294,305.335236,-51.581638,,,,,,
1465826721.67,-0.361095,0.017726,-0.023958,0.151281,-2.959786,0.074226,-0.353243,-0.017725,-0.935364,0.187151,0.010080,0.014450,-57.441971,305.305359,-50.238277,,,,,,
1465826721.69,-0.433995,0.020495,-0.020790,0.211666,-4.016372,0.103266,-0.420411,-0.020493,-0.907102,0.214051,0.012940,0.046430,-57.441971,305.305359,-50.238277,,,,,,
1465826721.68,-0.394979,0.019021,-0.022530,0.180370,-3.521521,0.087358,-0.384719,-0.019020,-0.922838,0.200439,0.010338,0.020189,-57.441971,305.305359,-50.238277,,,,,,
1465826721.70,-0.477640,0.022015,-0.018799,0.225985,-4.478275,0.110435,-0.459573,-0.022013,-0.887867,0.243921,0.010645,0.077076,-62.341267,305.193726,-44.779297,,,,,,
1465826721.71,-0.526969,0.023690,-0.016591,0.264614,-5.088832,0.114302,-0.502775,-0.023688,-0.864093,0.258970,0.020347,0.082934,-62.341267,305.193726,-44.779297,,,,,,
1465826721.72,-0.582263,0.025407,-0.013894,0.292597,-5.654863,0.145556,-0.549738,-0.025404,-0.834951,0.206003,0.006560,0.055349,-62.341267,305.193726,-44.779297,,,,,,
1465826721.73,-0.643106,0.027147,-0.010936,0.321722,-6.210189,0.144810,-0.599463,-0.027143,-0.799942,0.235098,0.028394,0.095276,-65.608955,305.134216,-40.291367,,,,,,
1465826721.74,-0.708283,0.028846,-0.007577,0.347840,-6.588238,0.159980,-0.650260,-0.028842,-0.759164,0.183112,0.010211,0.076425,-65.608955,305.134216,-40.291367,,,,,,
1465826721.75,-0.776426,0.030335,-0.003940,0.358121,-6.860100,0.174469,-0.700412,-0.030330,-0.713094,0.186618,0.021816,0.125203,-65.608955,305.134216,-40.291367,,,,,,
1465826721.76,-0.846536,0.031530,-0.000086,0.365333,-7.051231,0.176739,-0.748617,-0.031525,-0.662252,0.197943,0.010956,0.166967,-72.184311,305.113159,-27.022045,,,,,,
1465826721.77,-0.920023,0.032565,0.003982,0.386130,-7.444115,0.181353,-0.795194,-0.032559,-0.605481,0.234235,0.024289,0.177716,-72.184311,305.113159,-27.022045,,,,,,
1465826721.78,-0.998677,0.033308,0.008407,0.414168,-7.995231,0.194417,-0.840289,-0.033302,-0.541115,0.210650,0.015968,0.183754,-72.184311,305.113159,-27.022045,,,,,,
1465826721.79,-1.084176,0.034010,0.013103,0.449520,-8.736276,0.158651,-0.883407,-0.034003,-0.467371,0.200714,0.021583,0.145761,-72.184311,305.113159,-27.022045,,,,,,
1465826721.80,-1.175620,0.034321,0.018509,0.518056,-9.151683,0.236901,-0.922385,-0.034315,-0.384745,-0.063165,0.018613,-0.011328,-75.534790,305.364410,-9.049347,,,,,,
1465826721.81,-1.262625,0.033849,0.023651,0.443401,-8.448650,0.202612,-0.952344,-0.033842,-0.303143,-0.141711,-0.025957,0.156506,-75.534790,305.364410,-9.049347,,,,,,
1465826721.82,-1.338466,0.033210,0.028072,0.395955,-7.258293,0.175940,-0.972596,-0.033203,-0.230119,-0.078033,0.010254,0.123200,-74.918793,305.646820,1.421041,,,,,,
1465826721.83,-1.403103,0.032215,0.031765,0.326989,-6.208150,0.174607,-0.985461,-0.032210,-0.166822,-0.197462,0.002089,0.280378,-74.918793,305.646820,1.421041,,,,,,
1465826721.84,-1.460367,0.031146,0.034888,0.289493,-5.598559,0.135620,-0.993427,-0.031141,-0.110152,-0.151883,-0.012804,0.113554,-74.918793,305.646820,1.421041,,,,,,
1465826721.85,-1.514384,0.029945,0.037865,0.285534,-5.337392,0.147815,-0.997962,-0.029940,-0.056357,-0.156717,0.006274,0.069831,-73.078270,305.947479,9.515378,,,,,,
1465826721.86,-1.566940,0.028597,0.040589,0.261199,-5.226932,0.139647,-0.999584,-0.028593,-0.003855,-0.098973,-0.016924,0.071741,-73.078270,305.947479,9.515378,,,,,,
1465826721.87,-1.618982,0.027211,0.043290,0.278309,-5.178080,0.132971,-0.998470,-0.027207,0.048149,-0.049931,0.014955,0.005089,-73.078270,305.947479,9.515378,,,,,,
1465826721.88,-1.670379,0.025605,0.045867,0.261333,-5.111210,0.144244,-0.994720,-0.025602,0.099386,-0.056901,-0.007952,0.074717,-67.990860,306.524384,21.327332,,,,,,
1465826721.90,-1.772193,0.022254,0.050748,0.274176,-5.068727,0.137604,-0.979545,-0.022253,0.199989,-0.034035,-0.019419,0.069298,-67.990860,306.524384,21.327332,,,,,,
1465826721.89,-1.721291,0.024019,0.048298,0.264605,-5.081425,0.123836,-0.988412,-0.024016,0.149884,0.003091,0.008407,0.042225,-67.990860,306.524384,21.327332,,,,,,
1465826721.91,-1.822078,0.020471,0.052979,0.250933,-4.966709,0.110329,-0.968392,-0.020470,0.248593,-0.093910,0.019371,0.064014,-64.722939,306.829285,26.486626,,,,,,
1465826721.92,-1.870444,0.018618,0.055176,0.262868,-4.770314,0.120818,-0.955275,-0.018617,0.295132,-0.127870,-0.013152,0.054477,-64.722939,306.829285,26.486626,,,,,,
1465826721.93,-1.915211,0.016753,0.057076,0.229324,-4.355123,0.114988,-0.941141,-0.016752,0.337598,-0.119253,-0.007570,0.093981,-64.722939,306.829285,26.486626,,,,,,
1465826721.94,-1.954611,0.015051,0.058627,0.198107,-3.802926,0.095527,-0.927138,-0.015051,0.374418,-0.117265,0.009878,0.068835,-57.221924,307.447784,35.161606,,,,,,
1465826721.95,-1.989428,0.013601,0.059978,0.174171,-3.382405,0.080092,-0.913562,-0.013601,0.406473,-0.180616,0.000738,0.009512,-57.221924,307.447784,35.161606,,,,,,
1465826721.96,-2.020257,0.012190,0.061100,0.157642,-2.968311,0.083865,-0.900615,-0.012189,0.434447,-0.180898,-0.001574,0.023744,-57.221924,307.447784,35.161606,,,,,,
1465826721.97,-2.046053,0.011034,0.062024,0.127476,-2.441571,0.054985,-0.889121,-0.011033,0.457539,-0.182290,-0.006652,0.016247,-53.935989,307.692108,38.096085,,,,,,
1465826721.98,-2.066041,0.010079,0.062704,0.093090,-1.853297,0.044874,-0.879808,-0.010079,0.475223,-0.171081,-0.001411,0.016217,-53.935989,307.692108,38.096085,,,,,,
1465826721.99,-2.080420,0.009432,0.063204,0.068243,-1.307489,0.030782,-0.872890,-0.009432,0.487827,-0.197820,-0.015684,0.006131,-53.935989,307.692108,38.096085,,,,,,
1465826722.00,-2.089549,0.008947,0.063488,0.041224,-0.780815,0.025323,-0.868404,-0.008947,0.495777,-0.162282,-0.009043,-0.009815,-49.616825,307.999390,41.344372,,,,,,
1465826722.01,-2.093270,0.008738,0.063555,0.009985,-0.239248,0.010186,-0.866554,-0.008738,0.499006,-0.127251,0.000010,0.036211,-49.616825,307.999390,41.344372,,,,,,
1465826722.02,-2.092333,0.008740,0.063455,-0.016083,0.192931,0.003192,-0.867022,-0.008740,0.498194,-0.075300,0.005276,0.004187,-49.616825,307.999390,41.344372,,,,,,
1465826722.03,-2.088239,0.008925,0.063201,-0.033827,0.472203,-0.001770,-0.869052,-0.008925,0.494640,-0.032345,0.001662,0.044469,-48.950333,308.047516,41.778240,,,,,,
1465826722.04,-2.082728,0.009173,0.062917,-0.035831,0.558233,-0.010828,-0.871763,-0.009173,0.489841,0.012678,0.008517,-0.004062,-48.950333,308.047516,41.778240,,,,,,
1465826722.05,-2.077694,0.009435,0.062652,-0.034875,0.473286,-0.009229,-0.874216,-0.009435,0.485446,0.014337,0.001256,0.001325,-48.950333,308.047516,41.778240,,,,,,
1465826722.06,-2.074116,0.009606,0.062486,-0.020163,0.321435,-0.006133,-0.875946,-0.009605,0.482314,0.029541,0.005791,-0.009826,-49.647331,307.992615,41.358528,,,,,,
1465826722.07,-2.071713,0.009749,0.062364,-0.016031,0.217382,-0.007606,-0.877101,-0.009749,0.480207,0.037364,0.005110,0.013186,-49.647331,307.992615,41.358528,,,,,,
1465826722.08,-2.069946,0.009830,0.062279,-0.009717,0.167456,-0.000900,-0.877947,-0.009830,0.478656,0.048373,0.001712,0.021939,-49.647331,307.992615,41.358528,,,,,,
1465826722.09,-2.068483,0.009889,0.062176,-0.012948,0.138789,-0.000723,-0.878646,-0.009889,0.477371,0.067153,0.008622,0.030030,-49.935905,307.969177,41.185238,,,,,,
1465826722.10,-2.067625,0.009915,0.062103,-0.005599,0.060203,0.002971,-0.879055,-0.009915,0.476617,0.073986,0.001370,0.029975,-49.935905,307.969177,41.185238,,,,,,
1465826722.11,-2.068069,0.009868,0.062036,-0.002595,-0.086336,0.007086,-0.878844,-0.009867,0.477007,0.102386,0.016948,0.020369,-49.935905,307.969177,41.185238,,,,,,
1465826722.12,-2.070579,0.009730,0.062062,0.012018,-0.311460,0.013835,-0.877645,-0.009730,0.479212,0.114797,0.008509,0.023382,-50.069500,307.957611,41.109318,,,,,,
1465826722.13,-2.075691,0.009452,0.062135,0.022315,-0.581181,0.021923,-0.875186,-0.009451,0.483694,0.149951,0.015708,0.029459,-50.069500,307.957611,41.109318,,,,,,
1465826722.14,-2.083991,0.009061,0.062309,0.038919,-0.919913,0.027257,-0.871145,-0.009061,0.490943,0.173696,0.013059,0.032251,-50.069500,307.957611,41.109318,,,,,,
1465826722.15,-2.096402,0.008473,0.062619,0.061782,-1.354225,0.038520,-0.864989,-0.008473,0.501719,0.183577,0.010182,0.029775,-49.657288,307.985260,41.401115,,,,,,
1465826722.16,-2.113610,0.007619,0.063061,0.088822,-1.844830,0.055461,-0.856234,-0.007619,0.516532,0.213564,0.011876,0.040704,-49.657288,307.985260,41.401115,,,,,,
1465826722.17,-2.136027,0.006477,0.063612,0.112616,-2.376843,0.072660,-0.844447,-0.006477,0.535600,0.245372,0.015663,0.064101,-49.657288,307.985260,41.401115,,,,,,
1465826722.18,-2.164361,0.005075,0.064308,0.142709,-3.000140,0.077663,-0.828942,-0.005075,0.559312,0.262993,0.024148,0.069884,-46.540977,308.190460,43.444279,,,,,,
1465826722.19,-2.200161,0.003367,0.065261,0.187504,-3.773181,0.092136,-0.808397,-0.003367,0.588628,0.218676,0.016673,0.032497,-46.540977,308.190460,43.444279,,,,,,
1465826722.20,-2.243431,0.001226,0.066326,0.222764,-4.501634,0.110578,-0.782183,-0.001226,0.623048,0.201525,0.016470,0.062743,-46.540977,308.190460,43.444279,,,,,,
1465826722.21,-2.293044,-0.001265,0.067499,0.259271,-5.101579,0.117570,-0.750321,0.001265,0.661072,0.160279,0.013933,0.074951,-43.185501,308.402496,45.362137,,,,,,
1465826722.23,-2.404646,-0.007155,0.069738,0.296735,-5.762092,0.140910,-0.672013,0.007155,0.740505,0.062272,0.006151,0.108509,-43.185501,308.402496,45.362137,,,,,,
1465826722.22,-2.347418,-0.004089,0.068691,0.285327,-5.538014,0.127784,-0.713280,0.004089,0.700868,0.105476,0.010941,0.086654,-43.185501,308.402496,45.362137,,,,,,
1465826722.24,-2.462478,-0.010331,0.070607,0.297784,-5.781194,0.136773,-0.628071,0.010331,0.778088,0.043720,0.012084,0.136921,-31.914249,309.081024,49.852119,,,,,,
1465826722.25,-2.519879,-0.013514,0.071307,0.295723,-5.721741,0.139591,-0.582376,0.013514,0.812807,-0.005774,0.004049,0.122007,-31.914249,309.081024,49.852119,,,,,,
1465826722.26,-2.576596,-0.016703,0.071804,0.289430,-5.655888,0.132785,-0.535338,0.016702,0.844473,-0.058396,0.008139,0.101923,-31.914249,309.081024,49.852119,,,,,,
1465826722.27,-2.632094,-0.019887,0.072094,0.286414,-5.498766,0.141377,-0.487643,0.019886,0.872816,-0.088940,-0.003803,0.083055,-25.218800,309.461029,51.309914,,,,,,
1465826722.29,-2.734484,-0.025762,0.072207,0.256376,-4.863734,0.116075,-0.395825,0.025759,0.917965,-0.143894,-0.004595,0.069294,-25.218800,309.461029,51.309914,,,,,,
1465826722.28,-2.684971,-0.022913,0.072190,0.267636,-5.208852,0.127831,-0.440802,0.022911,0.897312,-0.097787,0.004997,0.100415,-25.218800,309.461029,51.309914,,,,,,
1465826722.30,-2.780045,-0.028374,0.072015,0.227094,-4.440060,0.113389,-0.353580,0.028370,0.934974,-0.158002,-0.002629,0.058892,-12.465963,310.136841,51.909081,,,,,,
1465826722.31,-2.820812,-0.030650,0.071820,0.201128,-3.949444,0.092191,-0.315159,0.030645,0.948544,-0.185695,-0.005666,0.039325,-12.465963,310.136841,51.909081,,,,,,
1465826722.32,-2.856199,-0.032658,0.071475,0.174139,-3.394111,0.089745,-0.281385,0.032653,0.959039,-0.194232,-0.008574,0.033652,-12.465963,310.136841,51.909081,,,,,,
1465826722.33,-2.885844,-0.034324,0.071211,0.147217,-2.819606,0.065891,-0.252821,0.034317,0.966904,-0.216127,-0.009293,0.009231,-7.352198,310.386688,51.389309,,,,,,
1465826722.34,-2.909383,-0.035671,0.070908,0.116066,-2.195239,0.057686,-0.229982,0.035663,0.972541,-0.217009,-0.009754,0.001809,-7.352198,310.386688,51.389309,,,,,,
1465826722.35,-2.926498,-0.036636,0.070725,0.081781,-1.547469,0.034429,-0.213297,0.036628,0.976301,-0.235449,-0.006858,-0.015882,-7.352198,310.386688,51.389309,,,,,,
1465826722.36,-2.936748,-0.037212,0.070556,0.041127,-0.858329,0.026873,-0.203275,0.037204,0.978415,-0.232776,-0.008227,-0.017508,-1.163517,310.676666,50.134491,,,,,,
1465826722.37,-2.939971,-0.037361,0.070510,0.004798,-0.143662,0.002130,-0.200119,0.037352,0.979059,-0.224838,-0.008040,-0.016138,-1.163517,310.676666,50.134491,,,,,,
1465826722.38,-2.936102,-0.037111,0.070514,-0.034764,0.563533,-0.007667,-0.203907,0.037103,0.978287,-0.215603,-0.009408,-0.011490,-1.163517,310.676666,50.134491,,,,,,
1465826722.39,-2.925437,-0.036474,0.070641,-0.069027,1.229354,-0.031037,-0.214333,0.036466,0.976080,-0.197379,-0.008176,-0.010839,-0.377635,310.710236,49.938374,,,,,,
1465826722.41,-2.885900,-0.034177,0.071000,-0.126095,2.392103,-0.055417,-0.252768,0.034170,0.966923,-0.147302,-0.002844,0.008541,-0.377635,310.710236,49.938374,,,,,,
1465826722.40,-2.908516,-0.035486,0.070791,-0.100195,1.839918,-0.039155,-0.230827,0.035479,0.972348,-0.179574,-0.009386,-0.001050,-0.377635,310.710236,49.938374,,,,,,
1465826722.42,-2.858403,-0.032584,0.071225,-0.154240,2.859334,-0.066891,-0.279271,0.032579,0.959659,-0.128016,-0.003938,0.014675,-3.472620,310.557312,50.763535,,,,,,
1465826722.43,-2.826861,-0.030757,0.071443,-0.172904,3.246922,-0.076792,-0.309415,0.030752,0.950430,-0.104022,-0.000951,0.019923,-3.472620,310.557312,50.763535,,,,,,
1465826722.44,-2.791836,-0.028711,0.071606,-0.191638,3.580355,-0.085288,-0.342528,0.028707,0.939069,-0.081392,0.000224,0.040438,-3.472620,310.557312,50.763535,,,,,,
1465826722.45,-2.753877,-0.026529,0.071721,-0.202990,3.862809,-0.090264,-0.377942,0.026526,0.925449,-0.061618,-0.000251,0.052898,-6.920444,310.388641,51.437401,,,,,,
1465826722.46,-2.713398,-0.024142,0.071743,-0.220776,4.099624,-0.100283,-0.415108,0.024140,0.909452,-0.030509,0.003921,0.065463,-6.920444,310.388641,51.437401,,,,,,
1465826722.47,-2.670940,-0.021670,0.071681,-0.226929,4.290746,-0.099359,-0.453362,0.021668,0.891063,-0.011711,-0.000413,0.077458,-6.920444,310.388641,51.437401,,,,,,
1465826722.48,-2.627004,-0.019095,0.071445,-0.240605,4.419236,-0.102307,-0.492088,0.019094,0.870336,0.031913,0.007029,0.100992,-16.167507,309.914185,52.217216,,,,,,
1465826722.49,-2.582606,-0.016524,0.071145,-0.235255,4.435170,-0.105595,-0.530255,0.016523,0.847677,0.062283,0.009417,0.104166,-16.167507,309.914185,52.217216,,,,,,
1465826722.50,-2.539143,-0.014033,0.070766,-0.227960,4.308811,-0.104795,-0.566607,0.014032,0.823869,0.068865,0.007635,0.083236,-16.167507,309.914185,52.217216,,,,,,
1465826722.52,-2.456925,-0.009409,0.069607,-0.211364,3.973247,-0.093094,-0.632388,0.009409,0.774595,0.149538,0.014578,0.114107,-21.416288,309.627808,52.026718,,,,,,
1465826722.51,-2.497195,-0.011666,0.070215,-0.223917,4.160116,-0.088956,-0.600676,0.011665,0.799408,0.100203,0.006416,0.091278,-21.416288,309.627808,52.026718,,,,,,
1465826722.53,-2.419420,-0.007339,0.068998,-0.193662,3.667418,-0.083707,-0.660999,0.007339,0.750351,0.157535,0.015473,0.086807,-21.416288,309.627808,52.026718,,,,,,
1465826722.54,-2.385584,-0.005487,0.068346,-0.176056,3.283019,-0.074892,-0.686013,0.005487,0.727569,0.178276,0.016104,0.083420,-30.965281,309.084351,50.426449,,,,,,
1465826722.55,-2.356042,-0.003888,0.067749,-0.147879,2.834913,-0.067796,-0.707209,0.003888,0.706994,0.191935,0.013903,0.071128,-30.965281,309.084351,50.426449,,,,,,
1465826722.56,-2.331200,-0.002601,0.067223,-0.125060,2.376161,-0.049994,-0.724556,0.002601,0.689211,0.198082,0.013787,0.057767,-30.965281,309.084351,50.426449,,,,,,
1465826722.57,-2.310865,-0.001511,0.066748,-0.104345,1.915326,-0.046019,-0.738422,0.001511,0.674338,0.227451,0.013335,0.071542,-34.578575,308.868500,49.390373,,,,,,
1465826722.58,-2.295542,-0.000717,0.066389,-0.073070,1.400306,-0.032113,-0.748668,0.000717,0.662945,0.231044,0.017991,0.052143,-34.578575,308.868500,49.390373,,,,,,
1465826722.59,-2.285732,-0.000209,0.066152,-0.043973,0.839590,-0.018988,-0.755135,0.000209,0.655569,0.229470,0.018818,0.040766,-34.578575,308.868500,49.390373,,,,,,
1465826722.61,-2.282983,-0.000047,0.066084,0.014216,-0.279624,0.004057,-0.756935,0.000047,0.653491,0.222038,0.015807,0.026929,-38.497593,308.630798,47.956013,,,,,,
1465826722.60,-2.281572,-0.000001,0.066047,-0.013822,0.275731,-0.005841,-0.757856,0.000001,0.652422,0.227186,0.016372,0.029661,-38.497593,308.630798,47.956013,,,,,,
1465826722.62,-2.289667,-0.000375,0.066256,0.041233,-0.795700,0.016900,-0.752550,0.000375,0.658535,0.213228,0.014457,0.031070,-38.497593,308.630798,47.956013,,,,,,
1465826722.63,-2.301338,-0.000960,0.066539,0.067219,-1.288410,0.027467,-0.744813,0.000960,0.667273,0.203401,0.016511,0.028467,-38.653435,308.620239,47.898605,,,,,,
1465826722.64,-2.317718,-0.001794,0.066927,0.090046,-1.752450,0.037851,-0.733783,0.001794,0.679382,0.183337,0.011969,0.024964,-38.653435,308.620239,47.898605,,,,,,
1465826722.65,-2.338437,-0.002853,0.067358,0.107601,-2.171897,0.050080,-0.719548,0.002853,0.694436,0.166448,0.013505,0.024939,-38.653435,308.620239,47.898605,,,,,,
1465826722.66,-2.363089,-0.004104,0.067884,0.131604,-2.561588,0.051483,-0.702209,0.004104,0.711959,0.145904,0.011964,0.028992,-35.588947,308.802673,49.083031,,,,,,
1465826722.67,-2.391082,-0.005611,0.068440,0.151423,-2.865314,0.068310,-0.682002,0.005611,0.731329,0.111201,0.010457,0.015680,-35.588947,308.802673,49.083031,,,,,,
1465826722.68,-2.421404,-0.007203,0.068974,0.155418,-3.082974,0.065421,-0.659509,0.007203,0.751662,0.104089,0.009475,0.048127,-35.588947,308.802673,49.083031,,,,,,
1465826722.69,-2.453553,-0.008948,0.069524,0.173286,-3.259257,0.071867,-0.634999,0.008948,0.772461,0.081364,0.008660,0.036743,-32.620033,308.977448,50.036873,,,,,,
1465826722.70,-2.487172,-0.010773,0.069993,0.170979,-3.390937,0.079077,-0.608664,0.010773,0.793355,0.057822,0.008300,0.038646,-29.035793,309.183075,50.966423,,,,,,
1465826722.71,-2.521886,-0.012669,0.070412,0.179366,-3.497119,0.078687,-0.580750,0.012669,0.813983,0.039582,0.006512,0.039258,-29.035793,309.183075,50.966423,,,,,,
1465826722.72,-2.557506,-0.014618,0.070836,0.185659,-3.582052,0.073904,-0.551379,0.014617,0.834127,0.002566,0.006867,0.026515,-29.035793,309.183075,50.966423,,,,,,
1465826722.73,-2.593170,-0.016650,0.071140,0.186746,-3.543862,0.086439,-0.521270,0.016649,0.853229,-0.041566,-0.003405,0.011471,-29.035793,309.183075,50.966423,,,,,,
1465826722.74,-2.627214,-0.018562,0.071326,0.169975,-3.346335,0.076668,-0.491909,0.018561,0.870449,-0.035709,0.000314,0.041661,-29.035793,309.183075,50.966423,,,,,,
1465826722.75,-2.658929,-0.020361,0.071493,0.164953,-3.110604,0.071991,-0.464044,0.020359,0.885578,-0.058111,0.001842,0.042141,-20.843863,309.634766,52.217449,,,,,,
1465826722.76,-2.688277,-0.022026,0.071553,0.147152,-2.876989,0.067314,-0.437843,0.022025,0.898782,-0.076134,0.001993,0.022956,-20.843863,309.634766,52.217449,,,,,,
1465826722.77,-2.715288,-0.023552,0.071598,0.137880,-2.641244,0.058376,-0.413394,0.023550,0.910248,-0.102612,-0.001180,0.009095,-20.843863,309.634766,52.217449,,,,,,
1465826722.78,-2.739373,-0.024958,0.071579,0.122300,-2.325886,0.058511,-0.391340,0.024956,0.919908,-0.126788,-0.002998,-0.010270,-13.572205,310.014221,52.362106,,,,,,
1465826722.79,-2.759589,-0.026100,0.071542,0.098349,-1.918107,0.043156,-0.372653,0.026097,0.927604,-0.115735,-0.003209,0.013299,-13.572205,310.014221,52.362106,,,,,,
1465826722.80,-2.775562,-0.027030,0.071511,0.078670,-1.486990,0.035111,-0.357781,0.027027,0.933414,-0.130851,-0.003833,0.001324,-13.572205,310.014221,52.362106,,,,,,
1465826722.81,-2.787176,-0.027659,0.071452,0.050483,-1.051616,0.024901,-0.346911,0.027655,0.937490,-0.133574,-0.005622,-0.003271,-10.929546,310.148468,52.185135,,,,,,
1465826722.82,-2.794406,-0.028058,0.071415,0.032928,-0.626868,0.015833,-0.340120,0.028054,0.939964,-0.133666,-0.005563,-0.006355,-10.929546,310.148468,52.185135,,,,,,
1465826722.83,-2.797554,-0.028238,0.071395,0.008974,-0.210612,0.006812,-0.337157,0.028234,0.941025,-0.132172,-0.002279,-0.013687,-9.291935,310.229126,52.022930,,,,,,
1465826722.84,-2.796528,-0.028163,0.071379,-0.012848,0.205646,-0.003272,-0.338124,0.028159,0.940680,-0.124721,-0.001700,-0.010917,-9.291935,310.229126,52.022930,,,,,,
1465826722.85,-2.791417,-0.027874,0.071386,-0.031492,0.611282,-0.012221,-0.342929,0.027871,0.938948,-0.117917,-0.001595,-0.008299,-9.291935,310.229126,52.022930,,,,,,
1465826722.86,-2.778486,-0.027173,0.071492,-0.056531,1.011631,-0.021144,-0.355049,0.027170,0.934453,-0.102775,-0.003107,0.000957,-9.291935,310.229126,52.022930,,,,,,
1465826722.87,-2.765537,-0.026422,0.071493,-0.075216,1.386471,-0.028836,-0.367127,0.026419,0.929796,-0.083847,-0.000143,0.005766,-9.029203,310.239716,52.006008,,,,,,
1465826722.88,-2.749285,-0.025493,0.071508,-0.089714,1.699731,-0.038266,-0.382198,0.025490,0.923729,-0.064381,-0.000099,0.014305,-9.029203,310.239716,52.006008,,,,,,
1465826722.89,-2.730304,-0.024396,0.071489,-0.105353,1.960948,-0.042049,-0.399672,0.024393,0.916333,-0.054765,0.001135,0.012164,-9.029203,310.239716,52.006008,,,,,,
1465826722.90,-2.709087,-0.023154,0.071479,-0.116783,2.169096,-0.054010,-0.419035,0.023152,0.907675,-0.033174,0.000270,0.022715,-12.649000,310.058075,52.333714,,,,,,
1465826722.91,-2.686128,-0.021843,0.071457,-0.120833,2.338981,-0.052951,-0.439775,0.021842,0.897842,-0.038283,0.003137,0.013153,-12.649000,310.058075,52.333714,,,,,,
1465826722.92,-2.661265,-0.020402,0.071338,-0.137621,2.533305,-0.056315,-0.461974,0.020401,0.886659,-0.009111,0.002457,0.034514,-12.649000,310.058075,52.333714,,,,,,
1465826722.93,-2.634729,-0.018889,0.071215,-0.141676,2.690463,-0.060498,-0.485351,0.018888,0.874115,0.015090,0.007098,0.054885,-15.287035,309.921417,52.438934,,,,,,
1465826722.94,-2.607286,-0.017316,0.071014,-0.147985,2.754174,-0.060904,-0.509168,0.017316,0.860493,0.035443,0.006763,0.052288,-15.287035,309.921417,52.438934,,,,,,
1465826722.95,-2.579912,-0.015757,0.070770,-0.145878,2.736122,-0.060789,-0.532543,0.015756,0.846256,0.054378,0.005530,0.050838,-15.287035,309.921417,52.438934,,,,,,
1465826722.96,-2.553255,-0.014269,0.070537,-0.135351,2.638434,-0.061230,-0.554922,0.014269,0.831780,0.062094,0.006132,0.047081,-21.584877,309.581635,52.231556,,,,,,
1465826722.97,-2.527740,-0.012854,0.070290,-0.129113,2.521627,-0.058362,-0.575974,0.012854,0.817367,0.062729,0.004068,0.041352,-21.584877,309.581635,52.231556,,,,,,
1465826722.98,-2.502932,-0.011538,0.069950,-0.127065,2.471694,-0.048467,-0.596081,0.011538,0.802841,0.079495,0.003599,0.048782,-24.675817,309.414001,51.854561,,,,,,
1465826722.99,-2.479579,-0.010189,0.069602,-0.120775,2.389934,-0.050077,-0.614674,0.010188,0.788715,0.121403,-0.007015,0.086575,-24.675817,309.414001,51.854561,,,,,,
1465826723.00,-2.457219,-0.009088,0.069230,-0.105099,2.173286,-0.036994,-0.632162,0.009088,0.774783,0.128530,-0.015954,0.078046,-24.675817,309.414001,51.854561,,,,,,
1465826723.01,-2.437847,-0.008165,0.068932,-0.082078,1.850490,-0.036011,-0.647056,0.008165,0.762399,0.138603,0.016203,0.057349,-27.483089,309.255310,51.387333,,,,,,
1465826723.02,-2.422166,-0.007407,0.068687,-0.072974,1.475657,-0.029393,-0.658936,0.007407,0.752163,0.144699,0.035852,0.014805,-27.483089,309.255310,51.387333,,,,,,
1465826723.03,-2.409813,-0.006669,0.068455,-0.069096,1.159258,-0.034856,-0.668180,0.006669,0.743970,0.165479,0.078201,0.003009,-27.483089,309.255310,51.387333,,,,,,
1465826723.04,-2.400407,-0.005887,0.068277,-0.070515,0.868340,-0.038355,-0.675151,0.005887,0.737656,0.189235,0.074115,-0.009522,-27.483089,309.255310,51.387333,,,,,,
1465826723.05,-2.393847,-0.005265,0.068135,-0.046397,0.584806,-0.029102,-0.679978,0.005265,0.733213,0.157761,0.018036,0.037752,-31.462088,309.039703,50.392788,,,,,,
1465826723.06,-2.390149,-0.004995,0.068044,-0.021248,0.295924,-0.005976,-0.682686,0.004995,0.730695,0.135048,-0.056478,0.068438,-31.462088,309.039703,50.392788,,,,,,
1465826723.07,-2.389537,-0.005020,0.068013,0.007086,-0.017351,0.006662,-0.683133,0.005020,0.730277,0.141370,-0.040756,0.062494,-31.462088,309.039703,50.392788,,,,,,
1465826723.08,-2.392222,-0.005224,0.068097,0.022640,-0.352883,0.006653,-0.681169,0.005224,0.732108,0.151567,0.005061,0.026010,-32.725674,308.938263,50.209755,,,,,,
1465826723.10,-2.407908,-0.006008,0.068431,0.051575,-1.047325,0.014230,-0.669599,0.006008,0.742699,0.128980,0.050266,-0.009590,-32.725674,308.938263,50.209755,,,,,,
1465826723.09,-2.398326,-0.005539,0.068218,0.034971,-0.694813,0.017325,-0.676686,0.005539,0.736251,0.138844,0.023315,0.017488,-32.725674,308.938263,50.209755,,,,,,
1465826723.11,-2.420677,-0.006562,0.068580,0.054369,-1.346790,0.028884,-0.660059,0.006562,0.751185,0.113153,0.010650,-0.006068,-32.221260,308.970947,50.334591,,,,,,
1465826723.12,-2.435908,-0.007355,0.068890,0.088156,-1.575092,0.029285,-0.648537,0.007355,0.761147,0.105294,0.000732,0.021171,-32.221260,308.970947,50.334591,,,,,,
1465826723.13,-2.452690,-0.008289,0.069204,0.091178,-1.705707,0.034365,-0.635668,0.008289,0.771918,0.089312,-0.001422,0.021020,-30.963367,309.034760,50.730892,,,,,,
1465826723.14,-2.470354,-0.009219,0.069469,0.090004,-1.786415,0.039128,-0.621930,0.009219,0.783019,0.080670,0.002454,0.031267,-30.963367,309.034760,50.730892,,,,,,
1465826723.15,-2.488814,-0.010184,0.069720,0.090965,-1.867116,0.040700,-0.607365,0.010184,0.794358,0.076664,0.021783,0.018112,-30.963367,309.034760,50.730892,,,,,,
1465826723.16,-2.508319,-0.011126,0.069997,0.095099,-1.983887,0.030792,-0.591750,0.011126,0.806045,0.064452,0.033339,0.028001,-30.963367,309.034760,50.730892,,,,,,
1465826723.17,-2.528982,-0.012075,0.070267,0.092822,-2.094325,0.035740,-0.574963,0.012075,0.818090,0.045132,0.032313,-0.005102,-27.037125,309.256226,51.617973,,,,,,
1465826723.18,-2.550770,-0.013134,0.070580,0.108662,-2.200510,0.035357,-0.556996,0.013134,0.830411,0.009648,0.006184,0.000064,-27.037125,309.256226,51.617973,,,,,,
1465826723.19,-2.572628,-0.014292,0.070796,0.106549,-2.168687,0.046864,-0.538705,0.014291,0.842373,-0.032706,-0.019952,-0.008419,-27.037125,309.256226,51.617973,,,,,,
1465826723.20,-2.593222,-0.015416,0.070990,0.114201,-2.012603,0.044829,-0.521235,0.015415,0.853274,-0.023015,-0.030079,0.020078,-22.215902,309.499908,52.450615,,,,,,
1465826723.21,-2.611789,-0.016793,0.071153,0.126142,-1.799239,0.062662,-0.505293,0.016792,0.862785,-0.026980,-0.109917,0.051583,-22.215902,309.499908,52.450615,,,,,,
1465826723.22,-2.628550,-0.017898,0.071308,0.094461,-1.647289,0.026551,-0.490752,0.017897,0.871115,-0.043534,0.018983,0.100335,-22.215902,309.499908,52.450615,,,,,,
1465826723.23,-2.644596,-0.018502,0.071288,0.041261,-1.594213,0.041067,-0.476706,0.018501,0.878868,-0.010217,0.159981,-0.123558,-19.849236,309.642853,52.556145,,,,,,
1465826723.24,-2.660052,-0.019089,0.071282,0.060561,-1.518779,0.020389,-0.463060,0.019087,0.886121,-0.029493,0.033830,-0.059980,-19.849236,309.642853,52.556145,,,,,,
1465826723.25,-2.673718,-0.020137,0.071386,0.108694,-1.306507,0.042524,-0.450899,0.020135,0.892348,-0.109175,-0.122934,0.142930,-19.849236,309.642853,52.556145,,,,,,
1465826723.26,-2.684775,-0.020975,0.071540,0.063291,-1.039907,0.017388,-0.440998,0.020973,0.897263,-0.052182,0.010261,-0.020631,-16.155567,309.828491,52.727051,,,,,,
1465826723.27,-2.693256,-0.021314,0.071442,0.022074,-0.779772,0.025296,-0.433369,0.021313,0.900965,-0.059978,0.038731,0.000769,-16.155567,309.828491,52.727051,,,,,,
1465826723.28,-2.698781,-0.021613,0.071497,0.029948,-0.476044,0.003174,-0.428382,0.021611,0.903339,-0.053842,0.038188,-0.049793,-16.155567,309.828491,52.727051,,,,,,
1465826723.29,-2.701348,-0.021592,0.071515,-0.013328,-0.181891,-0.002971,-0.426061,0.021590,0.904437,-0.092967,-0.056594,0.027158,-14.979855,309.892761,52.696327,,,,,,
1465826723.30,-2.700780,-0.021516,0.071458,-0.001233,0.138741,0.004610,-0.426576,0.021514,0.904196,-0.099257,-0.071624,0.052225,-14.979855,309.892761,52.696327,,,,,,
1465826723.31,-2.696927,-0.021624,0.071493,0.008769,0.467903,-0.000638,-0.430055,0.021623,0.902544,-0.065199,-0.003648,0.020476,-14.979855,309.892761,52.696327,,,,,,
1465826723.32,-2.689985,-0.021344,0.071499,-0.037677,0.763152,-0.018503,-0.436314,0.021342,0.899542,-0.020886,0.125295,-0.081716,-14.759020,309.909943,52.657536,,,,,,
1465826723.33,-2.680633,-0.020580,0.071408,-0.081034,0.988296,-0.027409,-0.444714,0.020578,0.895436,-0.035846,0.002554,0.017512,-14.759020,309.909943,52.657536,,,,,,
1465826723.34,-2.669528,-0.019776,0.071324,-0.070191,1.142255,-0.029428,-0.454637,0.019774,0.890457,-0.030562,-0.007552,0.003860,-15.735523,309.852722,52.711628,,,,,,
1465826723.35,-2.657500,-0.019083,0.071241,-0.064781,1.222929,-0.022478,-0.465321,0.019082,0.884936,-0.012554,-0.058541,0.030164,-15.735523,309.852722,52.711628,,,,,,
1465826723.36,-2.644674,-0.018417,0.071193,-0.057222,1.302569,-0.026163,-0.476638,0.018416,0.878907,-0.021699,-0.023482,0.055694,-15.735523,309.852722,52.711628,,,,,,
1465826723.37,-2.631010,-0.017863,0.071112,-0.053925,1.384326,-0.026673,-0.488608,0.017862,0.872321,0.016714,0.000936,-0.002463,-15.735523,309.852722,52.711628,,,,,,
1465826723.38,-2.616953,-0.017163,0.071059,-0.065606,1.407695,-0.027895,-0.500828,0.017162,0.865377,-0.002941,0.004139,0.024974,-18.662430,309.701538,52.644981,,,,,,
1465826723.39,-2.602701,-0.016462,0.070872,-0.069838,1.432113,-0.025924,-0.513116,0.016461,0.858162,0.045785,0.019153,-0.007698,-18.662430,309.701538,52.644981,,,,,,
1465826723.40,-2.588155,-0.015693,0.070773,-0.069804,1.459720,-0.026097,-0.525550,0.015693,0.850618,0.035056,0.006570,0.033415,-18.662430,309.701538,52.644981,,,,,,
1465826723.41,-2.573573,-0.014980,0.070645,-0.067670,1.456545,-0.030333,-0.537903,0.014980,0.842873,0.041687,0.001988,0.030769,-48.380894,301.285217,-19.293972,,,,,,
1465826723.42,-2.559176,-0.014276,0.070536,-0.063453,1.431045,-0.024846,-0.549987,0.014275,0.835051,0.047973,0.033744,-0.003569,-48.380894,301.285217,-19.293972,,,,,,
1465826723.43,-2.545130,-0.013518,0.070422,-0.073055,1.394983,-0.037403,-0.561668,0.013517,0.827252,0.048210,0.018786,0.011020,-48.380894,301.285217,-19.293972,,,,,,
1465826723.44,-2.531477,-0.012693,0.070274,-0.074178,1.355685,-0.032900,-0.572916,0.012693,0.819515,0.044642,0.034289,-0.003399,-47.576511,301.282684,-21.236084,,,,,,
1465826723.45,-2.517867,-0.011873,0.070057,-0.082688,1.365240,-0.030839,-0.584022,0.011872,0.811651,0.081398,0.003997,0.047877,-47.576511,301.282684,-21.236084,,,,,,
1465826723.46,-2.504305,-0.010999,0.069814,-0.081648,1.341886,-0.032821,-0.594982,0.010999,0.803664,0.097820,0.004214,0.049104,-47.576511,301.282684,-21.236084,,,,,,
1465826723.47,-2.492000,-0.010263,0.069636,-0.065885,1.182596,-0.027548,-0.604830,0.010263,0.796288,0.093233,0.000296,0.026313,-47.179901,301.285950,-22.058664,,,,,,
1465826723.48,-2.481968,-0.009691,0.069470,-0.050231,0.938359,-0.020679,-0.612791,0.009691,0.790185,0.107481,0.004622,0.015616,-47.179901,301.285950,-22.058664,,,,,,
1465826723.49,-2.474586,-0.009285,0.069352,-0.034609,0.670759,-0.012598,-0.618610,0.009285,0.785643,0.109150,0.006264,0.018510,-47.179901,301.285950,-22.058664,,,,,,
1465826723.50,-2.469864,-0.009033,0.069297,-0.018968,0.407424,-0.010931,-0.622315,0.009033,0.782715,0.109131,-0.002517,0.019348,-46.496624,301.295959,-23.335709,,,,,,
1465826723.51,-2.467595,-0.008965,0.069253,-0.005448,0.169541,0.002283,-0.624090,0.008965,0.781301,0.111242,0.003669,0.023478,-46.496624,301.295959,-23.335709,,,,,,
1465826723.52,-2.467466,-0.009009,0.069253,0.004948,-0.034325,0.001443,-0.624190,0.009009,0.781220,0.116042,0.014108,0.017150,-46.496624,301.295959,-23.335709,,,,,,
1465826723.53,-2.476507,-0.009557,0.069227,0.016395,-0.235068,0.010166,-0.617098,0.009557,0.786828,0.098574,0.004772,0.022727,-46.369080,301.297668,-23.566456,,,,,,
1465826723.54,-2.480318,-0.009784,0.069277,0.023610,-0.430435,0.008205,-0.614094,0.009784,0.789172,0.100269,0.013852,0.008160,-46.369080,301.297668,-23.566456,,,,,,
1465826723.55,-2.486130,-0.010131,0.069376,0.036121,-0.630081,0.016921,-0.609494,0.010131,0.792726,0.087201,0.010499,0.012771,-46.369080,301.297668,-23.566456,,,,,,
1465826723.56,-2.493801,-0.010565,0.069497,0.044418,-0.809524,0.015925,-0.603393,0.010565,0.797374,0.083709,0.015268,0.005727,-46.613304,301.303406,-23.004072,,,,,,
1465826723.57,-2.503277,-0.011120,0.069640,0.049537,-0.967744,0.020116,-0.595807,0.011120,0.803051,0.068448,0.019184,-0.000530,-46.613304,301.303406,-23.004072,,,,,,
1465826723.58,-2.513810,-0.011659,0.069786,0.053660,-1.076050,0.020800,-0.587312,0.011659,0.809277,0.057725,0.011077,0.007389,-46.613304,301.303406,-23.004072,,,,,,
1465826723.60,-2.536602,-0.012821,0.070083,0.057810,-1.173783,0.019288,-0.568708,0.012821,0.822440,0.028532,0.000134,0.014688,-46.887222,301.299927,-22.487835,,,,,,
1465826723.59,-2.524986,-0.012240,0.069923,0.054663,-1.129197,0.023263,-0.578227,0.012239,0.815784,0.053828,0.007902,0.017102,-46.887222,301.299927,-22.487835,,,,,,
1465826723.61,-2.548718,-0.013494,0.070267,0.067326,-1.220519,0.023848,-0.558697,0.013494,0.829262,-0.000706,0.001597,-0.011361,-46.887222,301.299927,-22.487835,,,,,,
1465826723.62,-2.560616,-0.014155,0.070404,0.060997,-1.169555,0.025651,-0.548786,0.014155,0.835843,-0.006787,-0.000651,0.006869,-47.617554,301.290436,-21.033350,,,,,,
1465826723.63,-2.571277,-0.014750,0.070492,0.052657,-1.027269,0.024750,-0.539839,0.014750,0.841639,0.002760,0.001363,0.023184,-47.617554,301.290436,-21.033350,,,,,,
1465826723.64,-2.580451,-0.015242,0.070563,0.043263,-0.883909,0.019584,-0.532091,0.015242,0.846550,0.000811,0.002443,0.013588,-47.617554,301.290436,-21.033350,,,,,,
1465826723.65,-2.588620,-0.015708,0.070608,0.039115,-0.792598,0.021136,-0.525154,0.015707,0.850862,-0.004966,0.002283,0.010283,-47.932575,301.290161,-20.308868,,,,,,
1465826723.67,-2.603295,-0.016481,0.070692,0.031780,-0.708694,0.014216,-0.512606,0.016480,0.858466,-0.003858,0.003600,-0.002097,-47.932575,301.290161,-20.308868,,,,,,
1465826723.66,-2.596132,-0.016120,0.070653,0.037062,-0.739492,0.015479,-0.518744,0.016120,0.854778,-0.000100,0.011316,-0.007091,-47.932575,301.290161,-20.308868,,,,,,
1465826723.68,-2.610090,-0.016855,0.070737,0.037149,-0.670475,0.015046,-0.506757,0.016854,0.861924,-0.005969,0.004203,0.000579,-48.342545,301.294678,-19.242332,,,,,,
1465826723.69,-2.615846,-0.017272,0.070802,0.030842,-0.611000,0.011474,-0.501784,0.017272,0.864820,-0.008668,0.001222,-0.009153,-48.342545,301.294678,-19.242332,,,,,,
1465826723.70,-2.621283,-0.017574,0.070824,0.026695,-0.518627,0.013019,-0.497072,0.017573,0.867531,-0.011503,0.007192,-0.003136,-48.489513,301.295410,-18.857002,,,,,,
1465826723.71,-2.625678,-0.017784,0.070867,0.016194,-0.410303,0.007007,-0.493253,0.017783,0.869704,-0.019824,0.004357,-0.000136,-48.489513,301.295410,-18.857002,,,,,,
1465826723.72,-2.628704,-0.017911,0.070866,0.011058,-0.263766,0.003954,-0.490618,0.017910,0.871191,-0.014356,0.018009,-0.002447,-48.489513,301.295410,-18.857002,,,,,,
1465826723.73,-2.629149,-0.018707,0.070916,-0.001526,-0.117214,-0.001234,-0.490223,0.018706,0.871396,-0.019024,0.011629,0.000323,-48.489513,301.295410,-18.857002,,,,,,
1465826723.74,-2.629281,-0.018594,0.070892,-0.013060,0.020832,-0.004240,-0.490109,0.018593,0.871463,-0.022327,-0.002510,0.010648,-48.553951,301.300781,-18.603554,,,,,,
1465826723.75,-2.628234,-0.018477,0.070869,-0.011859,0.131256,-0.003867,-0.491022,0.018476,0.870951,-0.017431,-0.008084,-0.000651,-48.553951,301.300781,-18.603554,,,,,,
1465826723.76,-2.626210,-0.018272,0.070840,-0.019188,0.223649,-0.008711,-0.492786,0.018271,0.869959,-0.016019,-0.006507,0.008306,-48.553951,301.300781,-18.603554,,,,,,
1465826723.77,-2.622684,-0.018162,0.070805,-0.019071,0.323449,-0.005079,-0.495851,0.018161,0.868218,-0.007247,0.001340,-0.000984,-48.558624,301.301453,-18.580723,,,,,,
1465826723.79,-2.614351,-0.017884,0.070679,-0.031597,0.519892,-0.008452,-0.503071,0.017883,0.864060,0.009312,0.005326,0.007385,-48.558624,301.301453,-18.580723,,,,,,
1465826723.78,-2.618800,-0.017901,0.070768,-0.027452,0.425398,-0.009985,-0.499222,0.017900,0.866289,0.000412,0.000228,0.006971,-48.558624,301.301453,-18.580723,,,,,,
1465826723.80,-2.609523,-0.017949,0.070587,-0.036827,0.586795,-0.013134,-0.507237,0.017948,0.861620,0.015705,0.008724,0.012755,-48.336304,301.306641,-19.070131,,,,,,
1465826723.81,-2.603980,-0.017366,0.070519,-0.035756,0.595281,-0.011057,-0.512010,0.017365,0.858804,0.018983,-0.006150,-0.004144,-48.336304,301.306641,-19.070131,,,,,,
1465826723.82,-2.599371,-0.017565,0.070419,-0.034698,0.585724,-0.013124,-0.515960,0.017564,0.856432,0.024032,0.011931,0.015302,-48.336304,301.306641,-19.070131,,,,,,
1465826723.83,-2.594414,-0.017227,0.070351,-0.027292,0.554913,-0.008666,-0.520203,0.017226,0.853869,0.026474,-0.001494,-0.001605,-48.336304,301.306641,-19.070131,,,,,,
1465826723.84,-2.590205,-0.016834,0.070323,-0.029434,0.526272,-0.020197,-0.523796,0.016833,0.851678,0.027107,-0.000888,0.009269,-48.336304,301.306641,-19.070131,,,,,,
1465826723.85,-2.585933,-0.017020,0.070236,-0.024149,0.519850,-0.004184,-0.527427,0.017019,0.849430,0.025901,0.010462,0.004635,-48.336304,301.306641,-19.070131,,,,,,
1465826723.87,-2.576832,-0.017451,0.070163,-0.035831,0.532608,-0.010660,-0.535133,0.017450,0.844588,0.034049,0.028601,-0.018111,-47.798702,301.322479,-20.144653,,,,,,
1465826723.86,-2.581672,-0.016968,0.070255,-0.031548,0.530523,-0.024482,-0.531043,0.016967,0.847175,0.031790,0.007676,0.003029,-47.798702,301.322479,-20.144653,,,,,,
1465826723.88,-2.572540,-0.016308,0.070119,-0.037945,0.530507,-0.020230,-0.538763,0.016307,0.842300,0.018224,-0.022289,0.036606,-47.525307,301.329651,-20.676899,,,,,,
1465826723.89,-2.567900,-0.016212,0.070073,-0.023054,0.529414,-0.012757,-0.542666,0.016212,0.839792,0.034899,0.005608,-0.008966,-47.525307,301.329651,-20.676899,,,,,,
1465826723.90,-2.563526,-0.015506,0.070028,-0.029456,0.520916,-0.011646,-0.546340,0.015506,0.837420,0.017195,-0.010806,0.025525,-47.525307,301.329651,-20.676899,,,,,,
1465826723.91,-2.559116,-0.015453,0.069985,-0.027334,0.506061,-0.016873,-0.550029,0.015452,0.835003,0.025660,0.007161,0.001530,-47.518620,301.324158,-20.772429,,,,,,
1465826723.93,-2.549669,-0.015302,0.069874,-0.030584,0.468884,-0.011319,-0.557893,0.015301,0.829772,0.015367,0.001590,0.006242,-47.518620,301.324158,-20.772429,,,,,,
1465826723.92,-2.554389,-0.015639,0.069949,-0.028429,0.482698,-0.015662,-0.553967,0.015638,0.832391,0.023129,0.016955,-0.020212,-47.518620,301.324158,-20.772429,,,,,,
1465826723.94,-2.545028,-0.015018,0.069786,-0.029525,0.467816,-0.009183,-0.561740,0.015017,0.827177,0.025486,-0.019015,0.020098,-47.235050,301.326660,-21.374191,,,,,,
1465826723.96,-2.537584,-0.014456,0.069621,-0.025315,0.435939,-0.004721,-0.567887,0.014456,0.822980,0.058945,-0.004186,0.014789,-47.235050,301.326660,-21.374191,,,,,,
1465826723.95,-2.540276,-0.014809,0.069729,-0.016747,0.474171,-0.006017,-0.565667,0.014808,0.824501,0.036004,-0.012580,0.035744,-47.235050,301.326660,-21.374191,,,,,,
1465826723.97,-2.534032,-0.014226,0.069526,-0.022260,0.323389,-0.005077,-0.570808,0.014225,0.820960,0.070427,0.038509,-0.007224,-47.080292,301.329742,-21.669775,,,,,,
1465826723.98,-2.531961,-0.014048,0.069500,-0.010744,0.163057,-0.006189,-0.572509,0.014048,0.819778,0.061721,-0.018122,0.010056,-47.080292,301.329742,-21.669775,,,,,,
1465826723.99,-2.531658,-0.014126,0.069477,0.009237,-0.013250,0.008775,-0.572756,0.014126,0.819604,0.049349,-0.027950,0.023170,-47.080292,301.329742,-21.669775,,,,,,
1465826724.00,-2.534894,-0.013997,0.069491,0.022857,-0.186346,0.012002,-0.570103,0.013997,0.821454,0.053425,-0.009709,-0.000562,-46.947403,301.336517,-21.862804,,,,,,
1465826724.01,-2.537766,-0.014237,0.069535,0.022705,-0.319050,0.005383,-0.567739,0.014236,0.823085,0.069555,0.038712,-0.026058,-46.947403,301.336517,-21.862804,,,,,,
1465826724.02,-2.541721,-0.014502,0.069594,0.026823,-0.417824,0.014522,-0.564477,0.014502,0.825321,0.039758,0.006418,0.007305,-46.947403,301.336517,-21.862804,,,,,,
1465826724.03,-2.546329,-0.014773,0.069683,0.028908,-0.471944,0.003155,-0.560666,0.014772,0.827910,0.041318,0.023192,-0.018111,-47.075455,301.334534,-21.612965,,,,,,
1465826724.04,-2.551787,-0.014923,0.069743,0.027800,-0.487906,0.014962,-0.556137,0.014922,0.830956,0.009415,-0.004317,0.004264,-47.075455,301.334534,-21.612965,,,,,,
1465826724.05,-2.556368,-0.015155,0.069848,0.023628,-0.444326,-0.001282,-0.552323,0.015155,0.833492,0.012086,0.016065,-0.011791,-47.471302,299.858368,-21.605343,,,,,,
1465826724.06,-2.560238,-0.015354,0.069890,0.017317,-0.366837,0.007806,-0.549092,0.015353,0.835621,-0.000255,0.009320,-0.013966,-47.471302,299.858368,-21.605343,,,,,,
1465826724.07,-2.563185,-0.015454,0.069919,0.008928,-0.271259,0.002940,-0.546626,0.015453,0.837234,-0.010457,-0.002239,0.013962,-47.471302,299.858368,-21.605343,,,,,,
1465826724.08,-2.564889,-0.015532,0.069941,0.006900,-0.190559,0.002432,-0.545198,0.015531,0.838163,-0.005888,-0.000577,-0.013609,-47.471302,299.858368,-21.605343,,,,,,
1465826724.09,-2.566264,-0.015607,0.069933,0.006978,-0.121554,0.006257,-0.544044,0.015606,0.838911,-0.018562,-0.021649,0.028169,-47.471302,299.858368,-21.605343,,,,,,
1465826724.10,-2.567049,-0.015686,0.069951,0.005993,-0.066325,0.000588,-0.543385,0.015685,0.839337,-0.001506,0.004991,-0.015759,-47.819427,299.852692,-20.905283,,,,,,
1465826724.12,-2.567031,-0.015424,0.069926,-0.004563,0.012247,0.003277,-0.543403,0.015423,0.839330,-0.006600,-0.006726,-0.006094,-47.819427,299.852692,-20.905283,,,,,,
1465826724.11,-2.567383,-0.015692,0.069944,-0.000345,-0.024914,0.001386,-0.543104,0.015691,0.839519,-0.005648,0.006571,0.001042,-47.819427,299.852692,-20.905283,,,,,,
1465826724.13,-2.566627,-0.015412,0.069900,-0.002379,0.050479,-0.000154,-0.543741,0.015412,0.839111,0.003489,0.007599,-0.009216,-47.831715,299.852844,-20.874969,,,,,,
1465826724.15,-2.564290,-0.015314,0.069889,-0.008621,0.159860,-0.005104,-0.545702,0.015314,0.837839,0.002977,0.011465,-0.007899,-47.831715,299.852844,-20.874969,,,,,,
1465826724.14,-2.565751,-0.015398,0.069889,-0.002318,0.102502,0.001649,-0.544477,0.015397,0.838635,-0.003283,0.000930,0.007969,-47.831715,299.852844,-20.874969,,,,,,
1465826724.16,-2.562312,-0.015730,0.069864,-0.016019,0.203398,-0.005383,-0.547354,0.015729,0.836753,0.003073,0.014697,-0.004096,-47.814713,299.852509,-20.918835,,,,,,
1465826724.17,-2.560034,-0.015523,0.069839,-0.019164,0.235265,-0.009844,-0.549261,0.015523,0.835507,0.006048,0.009899,-0.001309,-47.814713,299.852509,-20.918835,,,,,,
1465826724.18,-2.557629,-0.015261,0.069779,-0.018088,0.253300,-0.004634,-0.551271,0.015260,0.834187,0.008912,-0.001863,-0.004032,-47.814713,299.852509,-20.918835,,,,,,
1465826724.19,-2.555371,-0.014225,0.069722,-0.013824,0.263905,-0.001505,-0.553162,0.014224,0.832952,0.002960,-0.025119,0.018442,-47.678417,299.856842,-21.166336,,,,,,
1465826724.20,-2.553269,-0.013621,0.069680,-0.003174,0.270262,0.000593,-0.554915,0.013620,0.831795,0.015197,-0.016153,0.012351,-47.678417,299.856842,-21.166336,,,,,,
1465826724.21,-2.551375,-0.013415,0.069628,-0.007431,0.271322,0.000582,-0.556491,0.013415,0.830745,0.022190,-0.004549,0.015935,-47.678417,299.856842,-21.166336,,,,,,
1465826724.22,-2.549507,-0.013967,0.069581,-0.007467,0.240530,-0.000288,-0.558038,0.013966,0.829698,0.032174,0.018062,-0.009355,-47.792606,299.849091,-21.018129,,,,,,
1465826724.23,-2.548425,-0.014664,0.069520,-0.013927,0.176829,-0.003086,-0.558931,0.014663,0.829085,0.041764,0.024048,-0.011626,-47.792606,299.849091,-21.018129,,,,,,
1465826724.24,-2.548133,-0.015188,0.069469,-0.011897,0.094006,-0.003628,-0.559168,0.015188,0.828915,0.042200,0.019495,-0.012661,-47.494228,299.865784,-21.451515,,,,,,
1465826724.25,-2.548824,-0.015233,0.069437,-0.003493,0.004803,-0.001995,-0.558595,0.015232,0.829301,0.038240,0.002910,-0.002015,-47.494228,299.865784,-21.451515,,,,,,
1465826724.26,-2.550254,-0.015105,0.069435,0.003845,-0.080161,0.002803,-0.557409,0.015105,0.830101,0.030371,-0.005141,0.000969,-47.386581,299.875000,-21.560169,,,,,,
1465826724.27,-2.552386,-0.015189,0.069444,0.008027,-0.144931,0.001084,-0.555637,0.015189,0.831286,0.035069,0.000116,-0.005709,-47.386581,299.875000,-21.560169,,,,,,
1465826724.28,-2.554788,-0.015313,0.069470,0.011158,-0.190602,0.004567,-0.553638,0.015312,0.832617,0.024753,0.000313,-0.004781,-47.386581,299.875000,-21.560169,,,,,,
1465826724.29,-2.557283,-0.015534,0.069497,0.010060,-0.220328,0.002624,-0.551557,0.015533,0.833993,0.018171,0.003571,-0.008751,-47.472301,299.874237,-21.381687,,,,,,
1465826724.30,-2.559768,-0.015803,0.069526,0.010036,-0.238382,0.003802,-0.549481,0.015802,0.835357,0.011090,0.005255,-0.012572,-47.472301,299.874237,-21.381687,,,,,,
1465826724.31,-2.562154,-0.015807,0.069564,0.013239,-0.230951,0.003758,-0.547486,0.015807,0.836666,-0.000961,-0.004469,-0.000209,-47.472301,299.874237,-21.381687,,,,,,
1465826724.32,-2.564169,-0.015980,0.069625,0.014345,-0.200156,0.002502,-0.545797,0.015979,0.837765,-0.002207,0.001034,-0.005917,-47.472301,299.874237,-21.381687,,,,,,
1465826724.33,-2.565624,-0.015977,0.069649,0.010151,-0.144946,0.004280,-0.544578,0.015976,0.838558,-0.007668,-0.004365,-0.000622,-47.607437,299.873383,-21.091511,,,,,,
1465826724.34,-2.566378,-0.016253,0.069673,0.004914,-0.079104,0.001733,-0.543943,0.016253,0.838965,-0.003389,0.007231,-0.010473,-47.607437,299.873383,-21.091511,,,,,,
1465826724.35,-2.566525,-0.016531,0.069686,-0.002452,-0.017504,-0.002918,-0.543817,0.016530,0.839041,-0.003439,0.011088,-0.006903,-47.607437,299.873383,-21.091511,,,,,,
1465826724.36,-2.566040,-0.016504,0.069683,-0.005575,0.040895,-0.002222,-0.544225,0.016503,0.838777,-0.006618,0.000907,-0.004274,-47.611912,299.873108,-21.085144,,,,,,
1465826724.37,-2.565189,-0.016400,0.069662,-0.005534,0.075933,-0.001378,-0.544939,0.016399,0.838316,-0.006758,-0.002026,-0.001997,-47.611912,299.873108,-21.085144,,,,,,
1465826724.38,-2.564017,-0.016110,0.069629,-0.006563,0.107782,0.000550,-0.545924,0.016109,0.837680,-0.007345,-0.009304,0.000165,-47.611912,299.873108,-21.085144,,,,,,
1465826724.39,-2.562626,-0.016001,0.069629,-0.004389,0.136462,-0.003886,-0.547089,0.016000,0.836921,-0.000946,-0.002298,-0.002434,-47.599068,299.873260,-21.112000,,,,,,
1465826724.40,-2.561089,-0.016022,0.069606,-0.005434,0.157690,-0.000827,-0.548375,0.016021,0.836079,0.004918,0.002839,-0.004948,-47.599068,299.873260,-21.112000,,,,,,
1465826724.41,-2.559485,-0.016144,0.069569,-0.012853,0.178938,-0.004160,-0.549714,0.016143,0.835197,0.013764,0.009767,-0.005790,-47.599068,299.873260,-21.112000,,,,,,
1465826724.42,-2.557911,-0.016176,0.069525,-0.012854,0.177875,-0.004153,-0.551027,0.016175,0.834330,0.016848,0.006515,-0.005977,-47.496803,299.875916,-21.303612,,,,,,
1465826724.43,-2.556575,-0.016018,0.069480,-0.010752,0.157695,-0.002960,-0.552143,0.016018,0.833595,0.015751,-0.001720,0.002907,-47.496803,299.875916,-21.303612,,,,,,
1465826724.44,-2.555641,-0.015894,0.069442,-0.007611,0.118399,-0.000582,-0.552922,0.015893,0.833081,0.019994,-0.002389,0.000537,-47.496803,299.875916,-21.303612,,,,,,
1465826724.45,-2.555273,-0.015840,0.069421,-0.002360,0.058936,-0.001268,-0.553230,0.015839,0.832878,0.021507,-0.000824,-0.001091,-47.433048,299.879456,-21.395775,,,,,,
1465826724.46,-2.555480,-0.015993,0.069431,0.001826,0.000533,-0.000897,-0.553056,0.015992,0.832991,0.024857,0.006011,-0.008909,-47.433048,299.879456,-21.395775,,,,,,
1465826724.48,-2.557439,-0.016196,0.069415,0.001703,-0.095038,0.001832,-0.551421,0.016195,0.834070,0.020690,0.001398,-0.006296,-47.420090,299.880981,-21.403160,,,,,,
1465826724.47,-2.556247,-0.016141,0.069424,-0.000374,-0.054684,0.000512,-0.552415,0.016141,0.833413,0.025148,0.006198,-0.011803,-47.420090,299.880981,-21.403160,,,,,,
1465826724.49,-2.558932,-0.016293,0.069429,0.006987,-0.126897,0.002037,-0.550174,0.016292,0.834891,0.017810,0.001164,-0.005377,-47.420090,299.880981,-21.403160,,,,,,
1465826724.50,-2.560496,-0.016298,0.069456,0.008037,-0.136457,0.003162,-0.548868,0.016297,0.835750,0.010523,-0.003663,-0.002056,-47.420090,299.880981,-21.403160,,,,,,
1465826724.51,-2.561984,-0.016442,0.069473,0.008037,-0.138578,0.002111,-0.547623,0.016442,0.836564,0.008926,0.002784,-0.007188,-47.425377,299.884308,-21.344246,,,,,,
1465826724.52,-2.563292,-0.016647,0.069504,0.006985,-0.130080,0.000992,-0.546526,0.016646,0.837277,0.004763,0.005540,-0.011715,-47.425377,299.884308,-21.344246,,,,,,
1465826724.53,-2.564413,-0.016832,0.069523,0.003815,-0.113087,-0.000181,-0.545586,0.016832,0.837886,0.002815,0.006698,-0.012233,-47.476677,299.883331,-21.244125,,,,,,
1465826724.54,-2.565211,-0.016809,0.069535,0.004917,-0.080177,0.001742,-0.544917,0.016808,0.838322,-0.004797,-0.002969,-0.003285,-47.476677,299.883331,-21.244125,,,,,,
1465826724.55,-2.565593,-0.016708,0.069549,0.002835,-0.041950,0.001500,-0.544597,0.016707,0.838531,-0.003666,-0.006087,-0.007843,-47.476677,299.883331,-21.244125,,,,,,
1465826724.56,-2.565555,-0.016591,0.069552,0.000766,0.006894,0.001191,-0.544630,0.016591,0.838512,-0.007295,-0.006779,0.002568,-47.476677,299.883331,-21.244125,,,,,,
1465826724.57,-2.565129,-0.016563,0.069550,-0.002374,0.046189,-0.001187,-0.544988,0.016562,0.838280,0.000509,-0.001105,-0.005395,-47.528713,299.881592,-21.151800,,,,,,
1465826724.58,-2.564345,-0.016630,0.069535,-0.004459,0.073745,-0.001362,-0.545644,0.016629,0.837852,-0.001322,0.005542,-0.005958,-47.528713,299.881592,-21.151800,,,,,,
1465826724.59,-2.563394,-0.016703,0.069514,-0.008695,0.089677,-0.002531,-0.546440,0.016703,0.837332,0.002281,0.006826,-0.009069,-47.542866,299.880402,-21.137482,,,,,,
1465826724.60,-2.562354,-0.016650,0.069498,-0.007617,0.100295,-0.002596,-0.547311,0.016650,0.836764,0.001916,0.001905,-0.006335,-47.542866,299.880402,-21.137482,,,,,,
1465826724.61,-2.561370,-0.016505,0.069485,-0.005484,0.104538,-0.001556,-0.548136,0.016505,0.836227,0.004648,-0.004298,-0.001174,-47.542866,299.880402,-21.137482,,,,,,
1465826724.62,-2.560424,-0.016347,0.069474,-0.004421,0.103475,-0.001549,-0.548928,0.016346,0.835710,0.007867,-0.005222,-0.001161,-47.542866,299.880402,-21.137482,,,,,,
1465826724.63,-2.559606,-0.016255,0.069454,-0.004428,0.098165,-0.001516,-0.549612,0.016254,0.835262,0.012716,-0.002491,0.000233,-47.456284,299.883209,-21.291040,,,,,,
1465826724.64,-2.558905,-0.016285,0.069429,-0.006582,0.080112,-0.000340,-0.550197,0.016284,0.834876,0.014980,0.003812,-0.008384,-47.456284,299.883209,-21.291040,,,,,,
1465826724.65,-2.558800,-0.016401,0.069401,-0.004498,0.041887,-0.001162,-0.550284,0.016400,0.834816,0.018500,0.002048,-0.008660,-47.452320,299.882721,-21.306938,,,,,,
1465826724.66,-2.558890,-0.016360,0.069379,-0.002424,-0.000590,0.000171,-0.550209,0.016360,0.834867,0.014809,-0.000399,-0.004331,-47.452320,299.882721,-21.306938,,,,,,
1465826724.67,-2.559385,-0.016328,0.069386,0.001788,-0.039877,-0.000643,-0.549796,0.016327,0.835140,0.014059,-0.001953,-0.004299,-47.452320,299.882721,-21.306938,,,,,,
1465826724.68,-2.560149,-0.016389,0.069403,0.004948,-0.065365,0.000584,-0.549158,0.016388,0.835558,0.012796,0.000900,-0.004305,-47.452320,299.882721,-21.306938,,,,,,
1465826724.69,-2.561048,-0.016502,0.069414,0.005995,-0.080232,0.000679,-0.548405,0.016501,0.836050,0.012974,0.002969,-0.008368,-47.418438,299.886810,-21.324413,,,,,,
1465826724.70,-2.561915,-0.016589,0.069416,0.001731,-0.082356,0.001752,-0.547679,0.016588,0.836524,0.007350,0.002363,-0.008338,-47.418438,299.886810,-21.324413,,,,,,
1465826724.72,-2.563490,-0.016565,0.069432,0.004931,-0.078111,0.001729,-0.546361,0.016564,0.837386,0.000722,-0.003106,-0.005752,-47.432030,299.886871,-21.293831,,,,,,
1465826724.71,-2.562734,-0.016580,0.069425,0.001738,-0.080227,-0.000390,-0.546994,0.016579,0.836972,0.003339,-0.001397,-0.006314,-47.432030,299.886871,-21.293831,,,,,,
1465826724.73,-2.564166,-0.016556,0.069448,0.003881,-0.066430,0.001654,-0.545795,0.016555,0.837755,-0.000699,-0.002410,-0.001986,-47.432030,299.886871,-21.293831,,,,,,
1465826724.74,-2.564615,-0.016624,0.069452,0.003903,-0.048379,0.001541,-0.545418,0.016623,0.837999,0.000267,0.001764,-0.007860,-47.432030,299.886871,-21.293831,,,,,,
1465826724.75,-2.564794,-0.016734,0.069464,0.000745,-0.021829,0.000307,-0.545267,0.016734,0.838095,-0.000372,0.004522,-0.010153,-47.498241,299.885559,-21.164925,,,,,,
1465826724.76,-2.564817,-0.016770,0.069461,-0.002414,0.004721,-0.000927,-0.545248,0.016769,0.838107,0.003225,0.002899,-0.004794,-47.498241,299.885559,-21.164925,,,,,,
1465826724.77,-2.564522,-0.016704,0.069463,-0.003444,0.030208,-0.002152,-0.545495,0.016703,0.837948,-0.000816,-0.001628,-0.003948,-47.498241,299.885559,-21.164925,,,,,,
1465826724.78,-2.563957,-0.016582,0.069461,-0.003415,0.055688,-0.001248,-0.545970,0.016581,0.837641,-0.001637,-0.004542,-0.004145,-47.485249,299.885986,-21.187748,,,,,,
1465826724.79,-2.563293,-0.016533,0.069450,-0.002338,0.067365,-0.000256,-0.546526,0.016533,0.837279,0.002779,-0.001549,-0.004774,-47.485249,299.885986,-21.187748,,,,,,
1465826724.80,-2.562589,-0.016520,0.069438,-0.003393,0.072677,-0.001354,-0.547115,0.016519,0.836894,0.005504,0.000937,-0.005977,-47.485249,299.885986,-21.187748,,,,,,
1465826724.81,-2.561875,-0.016593,0.069425,-0.004463,0.068430,-0.001328,-0.547712,0.016592,0.836502,0.007353,0.006082,-0.011994,-47.483749,299.885254,-21.201069,,,,,,
1465826724.82,-2.561331,-0.016589,0.069409,-0.005536,0.059939,-0.002341,-0.548167,0.016588,0.836204,0.010203,0.002653,-0.007454,-47.483749,299.885254,-21.201069,,,,,,
1465826724.83,-2.560958,-0.016546,0.069392,-0.004489,0.047193,-0.001195,-0.548480,0.016545,0.836000,0.012011,-0.000096,-0.005067,-47.483749,299.885254,-21.201069,,,,,,
