timestamp,attitude_roll,attitude_pitch,attitude_yaw,rotation_rate_x,rotation_rate_y,rotation_rate_z,gravity_x,gravity_y,gravity_z,user_acc_x,user_acc_y,user_acc_z,magnetic_field_x,magnetic_field_y,magnetic_field_z,latitude(degree),longitude(degree),altitude(meter),speed(m/s),course(degree),timestamp
1465828089.95,0.500109,-0.146652,0.348971,0.006502,-0.047395,0.000692,0.474374,0.146127,-0.868111,-0.387124,-0.138955,-0.132439,-247.647400,171.339600,3.991295,,,,,,
1465828089.96,0.492710,-0.144473,0.347940,0.003340,-0.037885,-0.000435,0.468087,0.143971,-0.871875,-0.399835,-0.141026,-0.124112,-247.401382,171.522552,8.659538,,,,,,
1465828089.97,0.485644,-0.142399,0.346945,0.005514,-0.012460,0.001537,0.462053,0.141918,-0.875423,-0.394686,-0.134288,-0.118824,-247.401382,171.522552,8.659538,,,,,,
1465828089.98,0.479015,-0.140257,0.345973,0.007690,0.007670,-0.000715,0.456379,0.139798,-0.878735,-0.382419,-0.135815,-0.120960,-247.217224,171.630508,11.359070,,,,,,
1465828089.99,0.472507,-0.138153,0.345040,0.007696,0.002306,0.001448,0.450784,0.137714,-0.881946,-0.375100,-0.132495,-0.117398,-247.217224,171.630508,11.359070,,,,,,
1465828090.00,0.466147,-0.136040,0.344132,0.006650,0.002262,0.000383,0.445295,0.135621,-0.885053,-0.365186,-0.132264,-0.116244,-247.217224,171.630508,11.359070,,,,,,
,,,,,,,,,,,,,,,,29.719984,-95.399043,10.305928,-1.000000,-1.000000,1465828960.58
,,,,,,,,,,,,,,,,29.719995,-95.399018,10.953343,-1.000000,-1.000000,1465829633.97
1465828090.01,0.459791,-0.134002,0.343272,0.004512,-0.017957,0.000508,0.439783,0.133602,-0.888111,-0.356973,-0.127727,-0.114757,-247.007050,171.758728,13.743301,,,,,,
1465828090.02,0.453312,-0.132027,0.342434,0.005578,-0.029684,0.000583,0.434134,0.131643,-0.891178,-0.354773,-0.123877,-0.109875,-247.007050,171.758728,13.743301,,,,,,
,,,,,,,,,,,,,,,,29.719984,-95.399043,10.305928,-1.000000,-1.000000,1465828960.58
1465828090.03,0.446817,-0.130075,0.341610,0.006647,-0.037166,0.001696,0.428447,0.129708,-0.894209,-0.352519,-0.122384,-0.104418,-247.007050,171.758728,13.743301,,,,,,
1465828090.04,0.440360,-0.128163,0.340817,0.004527,-0.041458,0.001721,0.422769,0.127813,-0.897179,-0.347467,-0.119817,-0.102714,-246.508255,172.032272,18.465897,,,,,,
1465828090.05,0.433955,-0.126219,0.340034,0.005608,-0.042562,0.000665,0.417118,0.125884,-0.900092,-0.343723,-0.120879,-0.098061,-246.508255,172.032272,18.465897,,,,,,
1465828090.06,0.427658,-0.124327,0.339278,0.007757,-0.039422,0.000648,0.411540,0.124006,-0.902916,-0.339289,-0.116972,-0.093849,-246.508255,172.032272,18.465897,,,,,,
1465828090.07,0.421544,-0.122442,0.338548,0.006720,-0.028847,0.000582,0.406107,0.122136,-0.905627,-0.333399,-0.116109,-0.093366,-246.219666,172.170654,20.870163,,,,,,
1465828090.08,0.415598,-0.120548,0.337843,0.005668,-0.031013,0.000595,0.400807,0.120256,-0.908236,-0.325261,-0.116060,-0.092176,-246.219666,172.170654,20.870163,,,,,,
1465828090.09,0.409700,-0.118778,0.337164,0.005673,-0.038487,0.000642,0.395527,0.118499,-0.910778,-0.318135,-0.109633,-0.085682,-246.219666,172.170654,20.870163,,,,,,
1465828090.10,0.403851,-0.116970,0.336511,0.004613,-0.045960,0.000688,0.390277,0.116704,-0.913271,-0.311206,-0.111028,-0.087599,-246.219666,172.170654,20.870163,,,,,,
,,,,,,,,,,,,,,,,29.719985,-95.399046,10.305928,-1.000000,-1.000000,1465829635.58
1465828090.11,0.397965,-0.115214,0.335882,0.005673,-0.060866,0.000783,0.384974,0.114959,-0.915740,-0.305842,-0.107497,-0.083024,-245.589813,172.464569,25.377739,,,,,,
1465828090.12,0.392015,-0.113435,0.335271,0.005669,-0.075771,0.000877,0.379596,0.113192,-0.918202,-0.301273,-0.107897,-0.083767,-245.589813,172.464569,25.377739,,,,,,
1465828090.13,0.386053,-0.111733,0.334680,0.005676,-0.081120,0.000911,0.374187,0.111500,-0.920626,-0.297465,-0.103780,-0.076628,-245.243439,172.621033,27.569107,,,,,,
1465828090.14,0.380052,-0.109956,0.334120,0.004607,-0.093903,0.002055,0.368729,0.109735,-0.923037,-0.293427,-0.106622,-0.078962,-245.243439,172.621033,27.569107,,,,,,
1465828090.15,0.374061,-0.108302,0.333568,0.005680,-0.099248,0.001026,0.363258,0.108091,-0.925397,-0.288948,-0.100080,-0.072253,-245.243439,172.621033,27.569107,,,,,,
1465828090.16,0.368098,-0.106635,0.333037,0.004616,-0.107782,0.002143,0.357797,0.106433,-0.927714,-0.283472,-0.100497,-0.072133,-244.456406,172.953430,32.102951,,,,,,
1465828090.17,0.362145,-0.104995,0.332535,0.002487,-0.117374,0.002201,0.352330,0.104802,-0.929989,-0.277257,-0.098973,-0.073001,-244.456406,172.953430,32.102951,,,,,,
1465828090.18,0.356122,-0.103376,0.332047,0.005667,-0.138648,0.002338,0.346781,0.103192,-0.932252,-0.270426,-0.096249,-0.071196,-244.456406,172.953430,32.102951,,,,,,
1465828090.19,0.349955,-0.101769,0.331587,0.005650,-0.160984,0.003543,0.341082,0.101594,-0.934528,-0.266131,-0.095017,-0.066449,-244.023651,173.125076,34.388668,,,,,,
1465828090.20,0.343723,-0.100234,0.331154,0.005643,-0.175884,0.003637,0.335303,0.100066,-0.936781,-0.260383,-0.091307,-0.065752,-244.023651,173.125076,34.388668,,,,,,
1465828090.21,0.337353,-0.098665,0.330730,0.003493,-0.202462,0.003802,0.329381,0.098505,-0.939045,-0.255314,-0.093088,-0.064846,-244.023651,173.125076,34.388668,,,,,,
1465828090.22,0.330824,-0.097158,0.330334,0.003477,-0.224794,0.003942,0.323291,0.097006,-0.941314,-0.251483,-0.090475,-0.060135,-243.034134,173.483963,39.244583,,,,,,
,,,,,,,,,,,,,,,,29.720055,-95.399154,10.305928,-1.000000,-1.000000,1465829635.59
1465828090.24,0.317250,-0.094166,0.329616,0.001305,-0.275827,0.005325,0.310573,0.094027,-0.945888,-0.243571,-0.087237,-0.056249,-243.034134,173.483963,39.244583,,,,,,
1465828090.23,0.324149,-0.095609,0.329967,0.002390,-0.250312,0.005166,0.317047,0.095463,-0.943593,-0.245255,-0.092137,-0.059611,-243.034134,173.483963,39.244583,,,,,,
1465828090.25,0.310140,-0.092728,0.329270,0.003420,-0.298156,0.004404,0.303881,0.092595,-0.948200,-0.242587,-0.086110,-0.054166,-242.453979,173.677704,41.887325,,,,,,
1465828090.26,0.302988,-0.091301,0.328952,0.001286,-0.307749,0.006591,0.297130,0.091174,-0.950474,-0.237926,-0.085544,-0.050792,-242.453979,173.677704,41.887325,,,,,,
1465828090.27,0.295828,-0.089914,0.328654,0.000218,-0.319459,0.006664,0.290354,0.089792,-0.952697,-0.232005,-0.083643,-0.048920,-242.453979,173.677704,41.887325,,,,,,
1465828090.28,0.288594,-0.088572,0.328369,0.002327,-0.343912,0.006819,0.283489,0.088456,-0.954887,-0.224514,-0.080049,-0.047783,-241.105209,174.057587,47.693253,,,,,,
,,,,,,,,,,,,,,,,29.719956,-95.399085,10.149178,-1.000000,-1.000000,1465829635.77
1465828090.29,0.281127,-0.087218,0.328101,0.001231,-0.378977,0.005974,0.276384,0.087107,-0.957092,-0.220461,-0.081034,-0.046983,-241.105209,174.057587,47.693253,,,,,,
1465828090.30,0.273470,-0.085855,0.327849,0.001208,-0.404492,0.007199,0.269079,0.085749,-0.959293,-0.215872,-0.081401,-0.044110,-241.105209,174.057587,47.693253,,,,,,
1465828090.31,0.265590,-0.084550,0.327608,0.000117,-0.435309,0.006327,0.261541,0.084450,-0.961491,-0.213033,-0.079414,-0.042446,-240.342331,174.250168,50.743088,,,,,,
1465828090.32,0.257570,-0.083297,0.327403,-0.002032,-0.454457,0.009638,0.253848,0.083201,-0.963659,-0.208880,-0.076792,-0.040034,-240.342331,174.250168,50.743088,,,,,,
1465828090.33,0.249330,-0.082069,0.327206,-0.001004,-0.494827,0.007764,0.245924,0.081977,-0.965816,-0.205199,-0.076789,-0.039479,-240.342331,174.250168,50.743088,,,,,,
1465828090.34,0.240680,-0.080851,0.326983,0.000076,-0.488489,0.008790,0.237584,0.080763,-0.968004,-0.218175,-0.073988,-0.030898,-238.541321,174.648468,57.431435,,,,,,
1465828090.35,0.232367,-0.079713,0.326771,0.002256,-0.457723,0.007535,0.229550,0.079628,-0.970034,-0.221936,-0.071434,-0.024732,-238.541321,174.648468,57.431435,,,,,,
1465828090.36,0.224454,-0.078554,0.326556,-0.000873,-0.413155,0.007253,0.221888,0.078473,-0.971909,-0.221659,-0.072324,-0.023742,-238.541321,174.648468,57.431435,,,,,,
1465828090.37,0.220445,-0.078523,0.326634,0.001278,-0.396168,0.007149,0.217990,0.078442,-0.972794,-0.216937,-0.070584,-0.022537,-237.513687,174.823990,61.042862,,,,,,
1465828090.38,0.216674,-0.078499,0.326706,0.000242,-0.371749,0.008059,0.214320,0.078418,-0.973610,-0.219936,-0.071171,-0.023033,-237.513687,174.823990,61.042862,,,,,,
1465828090.40,0.206136,-0.077216,0.326546,0.000298,-0.336735,0.006775,0.204070,0.077139,-0.975912,-0.203322,-0.071356,-0.022058,-236.747742,174.929749,63.659344,,,,,,
1465828090.39,0.213136,-0.078477,0.326772,0.001340,-0.346263,0.006836,0.210875,0.078396,-0.974364,-0.216750,-0.068997,-0.019868,-236.747742,174.929749,63.659344,,,,,,
1465828090.41,0.202677,-0.077196,0.326601,0.001348,-0.348415,0.006849,0.200693,0.077120,-0.976614,-0.202829,-0.067964,-0.025568,-236.747742,174.929749,63.659344,,,,,,
1465828090.42,0.199165,-0.077176,0.326662,0.000278,-0.352662,0.006875,0.197262,0.077099,-0.977314,-0.198742,-0.071392,-0.021617,-236.747742,174.929749,63.659344,,,,,,
1465828090.43,0.195495,-0.077158,0.326735,0.000251,-0.373898,0.007008,0.193674,0.077082,-0.978033,-0.195642,-0.070170,-0.025873,-235.538330,175.073639,67.626419,,,,,,
1465828090.44,0.187924,-0.075923,0.326512,0.001316,-0.383481,0.006005,0.186281,0.075850,-0.979564,-0.199282,-0.067686,-0.019215,-235.538330,175.073639,67.626419,,,,,,
1465828090.46,0.180847,-0.075890,0.326658,0.000306,-0.336767,0.007840,0.179346,0.075817,-0.980860,-0.206689,-0.065975,-0.013967,-235.021606,175.106918,69.316841,,,,,,
1465828090.45,0.184269,-0.075911,0.326587,-0.001849,-0.356941,0.007964,0.182700,0.075838,-0.980239,-0.209266,-0.066744,-0.015427,-235.021606,175.106918,69.316841,,,,,,
1465828090.47,0.177394,-0.075879,0.326731,-0.002903,-0.348446,0.007910,0.175958,0.075806,-0.981475,-0.195474,-0.070435,-0.021165,-235.021606,175.106918,69.316841,,,,,,
1465828090.48,0.169980,-0.074618,0.326510,0.000302,-0.348478,0.007913,0.168692,0.074549,-0.982846,-0.199713,-0.066400,-0.014927,-235.021606,175.106918,69.316841,,,,,,
1465828090.49,0.166659,-0.074604,0.326571,0.000331,-0.328298,0.005658,0.165427,0.074535,-0.983402,-0.200568,-0.068233,-0.014279,-233.689713,175.251282,73.338379,,,,,,
1465828090.50,0.163369,-0.074564,0.326633,0.002452,-0.333611,0.006758,0.162191,0.074494,-0.983943,-0.193258,-0.064576,-0.012715,-233.689713,175.251282,73.338379,,,,,,
1465828090.51,0.156149,-0.073250,0.326412,0.002424,-0.367612,0.004842,0.155099,0.073184,-0.985184,-0.181801,-0.065585,-0.017181,-232.880310,175.361145,75.615128,,,,,,
1465828090.52,0.148861,-0.072026,0.326229,0.002397,-0.392070,0.008189,0.147928,0.071964,-0.986377,-0.173105,-0.061847,-0.014295,-232.880310,175.361145,75.615128,,,,,,
1465828090.53,0.141369,-0.070782,0.326072,0.001279,-0.444120,0.007450,0.140545,0.070723,-0.987545,-0.164120,-0.063688,-0.019230,-232.880310,175.361145,75.615128,,,,,,
1465828090.54,0.133490,-0.069593,0.325936,-0.000901,-0.490866,0.008806,0.132771,0.069537,-0.988704,-0.162053,-0.063113,-0.016453,-232.880310,175.361145,75.615128,,,,,,
1465828090.55,0.125269,-0.068464,0.325810,-0.001994,-0.522741,0.007940,0.124649,0.068410,-0.989840,-0.161011,-0.060872,-0.012861,-230.888672,175.684402,80.794952,,,,,,
1465828090.56,0.116768,-0.067366,0.325708,-0.000970,-0.558873,0.010297,0.116238,0.067315,-0.990938,-0.156918,-0.058603,-0.009398,-230.888672,175.684402,80.794952,,,,,,
1465828090.57,0.107881,-0.066329,0.325609,-0.005263,-0.592873,0.010506,0.107435,0.066280,-0.992000,-0.155531,-0.057689,-0.007618,-229.554214,175.888092,84.087212,,,,,,
1465828090.58,0.099326,-0.065665,0.325465,0.002244,-0.566333,0.002896,0.098949,0.065617,-0.992927,-0.184749,-0.049016,0.007224,-229.554214,175.888092,84.087212,,,,,,
1465828090.59,0.096382,-0.065650,0.325572,0.000576,-0.183048,0.010070,0.096025,0.065603,-0.993215,-0.331560,-0.060689,0.046880,-229.554214,175.888092,84.087212,,,,,,
1465828090.60,0.096223,-0.065551,0.325567,0.010425,0.010228,-0.002841,0.095869,0.065504,-0.993236,-0.214811,-0.053648,0.027630,-229.554214,175.888092,84.087212,,,,,,
1465828090.61,0.095810,-0.065474,0.325561,0.007112,-0.075791,0.003017,0.095459,0.065428,-0.993281,-0.173584,-0.055601,-0.010335,-227.025131,176.151169,90.181854,,,,,,
1465828090.62,0.094921,-0.065438,0.325589,0.000739,-0.067288,0.000829,0.094576,0.065391,-0.993368,-0.173571,-0.059944,-0.012446,-227.025131,176.151169,90.181854,,,,,,
1465828090.64,0.092166,-0.065356,0.325639,0.003721,-0.230815,0.005051,0.091839,0.065310,-0.993630,-0.140301,-0.052370,-0.023979,-226.972473,176.168503,90.280518,,,,,,
1465828090.63,0.094269,-0.065393,0.325588,0.002833,-0.093837,0.002062,0.093929,0.065347,-0.993432,-0.138438,-0.056710,0.002709,-226.972473,176.168503,90.280518,,,,,,
1465828090.65,0.089308,-0.065348,0.325682,-0.001713,-0.318942,0.005598,0.088999,0.065301,-0.993889,-0.102945,-0.065301,-0.017830,-226.972473,176.168503,90.280518,,,,,,
1465828090.66,0.084335,-0.065342,0.325781,-0.002023,-0.561042,0.010309,0.084055,0.065296,-0.994319,-0.087488,-0.051380,-0.031147,-226.972473,176.168503,90.280518,,,,,,
1465828090.67,0.077113,-0.065396,0.325921,-0.007619,-0.773409,0.014829,0.076872,0.065350,-0.994897,-0.069135,-0.062481,-0.031073,-226.356827,176.208786,91.735863,,,,,,
1465828090.68,0.067737,-0.065489,0.326098,-0.011098,-0.998512,0.017302,0.067540,0.065442,-0.995568,-0.069402,-0.057873,-0.028800,-226.356827,176.208786,91.735863,,,,,,
1465828090.69,0.056911,-0.065585,0.326267,-0.011201,-1.082392,0.016763,0.056758,0.065538,-0.996235,-0.137737,-0.048387,-0.002331,-226.356827,176.208786,91.735863,,,,,,
1465828090.70,0.048339,-0.065684,0.326464,-0.008682,-0.763866,0.020090,0.048216,0.065637,-0.996678,-0.269499,-0.058755,0.043187,-223.162567,176.309052,99.075760,,,,,,
1465828090.71,0.041319,-0.065711,0.326604,-0.002238,-0.730933,0.012439,0.041218,0.065663,-0.996990,-0.152317,-0.055364,0.024029,-223.162567,176.309052,99.075760,,,,,,
1465828090.72,0.033025,-0.065782,0.326748,-0.008772,-0.842428,0.016325,0.032947,0.065735,-0.997293,-0.159076,-0.054153,-0.009940,-223.162567,176.309052,99.075760,,,,,,
1465828090.73,0.026121,-0.065843,0.326883,-0.006339,-0.606697,0.010591,0.026061,0.065795,-0.997493,-0.244674,-0.056899,0.035518,-221.530045,176.368057,102.572739,,,,,,
1465828090.74,0.022357,-0.065832,0.326964,0.004661,-0.329566,0.006735,0.022307,0.065785,-0.997584,-0.249861,-0.052128,0.059291,-221.530045,176.368057,102.572739,,,,,,
1465828090.75,0.019356,-0.065784,0.327012,0.001532,-0.280716,0.004297,0.019313,0.065737,-0.997650,-0.226116,-0.047655,0.021423,-221.530045,176.368057,102.572739,,,,,,
1465828090.76,0.017746,-0.065740,0.327052,0.005978,-0.127824,0.005471,0.017707,0.065693,-0.997683,-0.210776,-0.059558,0.028048,-221.530045,176.368057,102.572739,,,,,,
1465828090.77,0.015991,-0.065675,0.327077,0.004824,-0.204265,0.002756,0.015956,0.065628,-0.997717,-0.152232,-0.050827,0.008230,-219.149490,176.448318,107.433212,,,,,,
1465828090.78,0.013166,-0.065664,0.327131,0.000427,-0.309390,0.006604,0.013137,0.065617,-0.997758,-0.122878,-0.059483,-0.005568,-219.149490,176.448318,107.433212,,,,,,
1465828090.79,0.009138,-0.065671,0.327187,-0.001276,-0.428014,0.005197,0.009118,0.065623,-0.997803,-0.117074,-0.056056,-0.008926,-218.774551,176.474579,108.151909,,,,,,
1465828090.80,0.004242,-0.065673,0.327280,-0.000333,-0.518279,0.010022,0.004233,0.065626,-0.997835,-0.120398,-0.055631,0.002871,-218.774551,176.474579,108.151909,,,,,,
1465828090.81,-0.002013,-0.065709,0.327393,-0.005827,-0.655246,0.009811,-0.002008,0.065662,-0.997840,-0.110830,-0.055530,-0.006753,-218.008148,176.498779,109.649658,,,,,,
1465828090.82,-0.009354,-0.065775,0.327528,-0.005975,-0.766747,0.014768,-0.009334,0.065727,-0.997794,-0.103551,-0.056511,0.002173,-218.008148,176.498779,109.649658,,,,,,
1465828090.83,-0.018301,-0.065866,0.327720,-0.010466,-0.945139,0.020140,-0.018260,0.065818,-0.997665,-0.086903,-0.055991,-0.007768,-218.008148,176.498779,109.649658,,,,,,
1465828090.84,-0.029668,-0.066004,0.327925,-0.013985,-1.202097,0.022812,-0.029599,0.065956,-0.997383,-0.053683,-0.055519,-0.013038,-218.008148,176.498779,109.649658,,,,,,
1465828090.85,-0.043359,-0.066198,0.328168,-0.018519,-1.419767,0.025237,-0.043250,0.066150,-0.996872,-0.058968,-0.058596,-0.010559,-214.819199,176.592407,115.629791,,,,,,
1465828090.86,-0.058286,-0.066408,0.328415,-0.020763,-1.510022,0.026866,-0.058125,0.066359,-0.996101,-0.092296,-0.052565,0.013039,-214.819199,176.592407,115.629791,,,,,,
1465828090.88,-0.090769,-0.066881,0.328999,-0.022127,-1.741506,0.032574,-0.090442,0.066831,-0.993657,-0.073819,-0.052244,0.015568,-211.769577,176.652313,121.037308,,,,,,
1465828090.87,-0.073833,-0.066635,0.328700,-0.019791,-1.580108,0.029435,-0.073602,0.066586,-0.995062,-0.115790,-0.058499,0.023734,-211.769577,176.652313,121.037308,,,,,,
1465828090.89,-0.110188,-0.067195,0.329351,-0.029937,-2.019706,0.038569,-0.109717,0.067144,-0.991692,-0.036844,-0.060598,0.002175,-211.769577,176.652313,121.037308,,,,,,
1465828090.90,-0.133050,-0.067574,0.329738,-0.035729,-2.386037,0.045118,-0.132355,0.067523,-0.988900,0.022064,-0.057376,-0.000892,-211.769577,176.652313,121.037308,,,,,,
1465828090.91,-0.160254,-0.067955,0.330214,-0.041655,-2.853251,0.056558,-0.159201,0.067903,-0.984908,0.057364,-0.056428,-0.000657,-202.976791,176.796539,135.077118,,,,,,
1465828090.92,-0.193165,-0.068557,0.330726,-0.053055,-3.446805,0.064527,-0.191515,0.068503,-0.979096,0.132204,-0.055838,-0.009902,-202.976791,176.796539,135.077118,,,,,,
1465828090.94,-0.277424,-0.070215,0.331970,-0.081180,-4.623311,0.087844,-0.273204,0.070158,-0.959394,0.145595,-0.059705,0.028913,-195.782272,176.897736,145.185791,,,,,,
1465828090.93,-0.232404,-0.069272,0.331327,-0.062413,-4.105137,0.076098,-0.229766,0.069217,-0.970782,0.169570,-0.059832,0.000002,-195.782272,176.897736,145.185791,,,,,,
1465828090.95,-0.326499,-0.071225,0.332613,-0.077397,-4.999197,0.092334,-0.319916,0.071164,-0.944770,0.110138,-0.058011,0.079383,-195.782272,176.897736,145.185791,,,,,,
1465828090.96,-0.379163,-0.072356,0.333251,-0.085323,-5.366595,0.101017,-0.369175,0.072293,-0.926544,0.107426,-0.054928,0.108459,-195.782272,176.897736,145.185791,,,,,,
1465828090.97,-0.435837,-0.073616,0.333876,-0.095422,-5.770090,0.108860,-0.421026,0.073550,-0.904062,0.125830,-0.054156,0.118921,-168.441589,177.047791,176.022522,,,,,,
1465828090.98,-0.495810,-0.075027,0.334480,-0.099007,-6.066357,0.120295,-0.474406,0.074957,-0.877109,0.100901,-0.058752,0.147892,-168.441589,177.047791,176.022522,,,,,,
1465828090.99,-0.559068,-0.076420,0.334934,-0.095124,-6.393347,0.105318,-0.528849,0.076346,-0.845275,0.109751,-0.047492,0.162322,-147.829453,177.049622,193.655090,,,,,,
1465828091.00,-0.615775,-0.077948,0.335307,-0.108744,-5.347500,0.111519,-0.575838,0.077869,-0.813847,-0.330107,-0.053821,0.298726,-147.829453,177.049622,193.655090,,,,,,
1465828091.01,-0.666766,-0.079031,0.335633,-0.066883,-5.115983,0.086690,-0.616517,0.078949,-0.783373,-0.157958,-0.023971,0.322680,-147.829453,177.049622,193.655090,,,,,,
1465828091.02,-0.714877,-0.080321,0.335840,-0.084437,-4.660496,0.096590,-0.653411,0.080234,-0.752739,-0.250153,-0.077106,0.198372,-147.829453,177.049622,193.655090,,,,,,
1465828091.03,-0.758806,-0.081387,0.336010,-0.071236,-4.335567,0.086049,-0.685778,0.081298,-0.723256,-0.175992,-0.009322,0.290959,-98.715179,176.812119,222.924225,,,,,,
1465828091.04,-0.801328,-0.082458,0.336126,-0.061535,-4.244251,0.083358,-0.715840,0.082364,-0.693390,-0.096828,-0.083814,0.153931,-98.715179,176.812119,222.924225,,,,,,
1465828091.05,-0.843265,-0.083489,0.336165,-0.073118,-4.146551,0.079540,-0.744217,0.083392,-0.662711,-0.117874,-0.004763,0.235572,-98.715179,176.812119,222.924225,,,,,,
1465828091.06,-0.882105,-0.084502,0.336172,-0.055640,-3.802521,0.072077,-0.769323,0.084401,-0.633260,-0.126383,-0.099096,0.167714,-57.379051,176.415726,237.250000,,,,,,
1465828091.07,-0.920652,-0.085441,0.336185,-0.067489,-3.903401,0.078021,-0.793093,0.085338,-0.603093,-0.064314,-0.005000,0.241445,-57.379051,176.415726,237.250000,,,,,,
1465828091.08,-0.959595,-0.086424,0.336100,-0.053581,-3.864097,0.069272,-0.815902,0.086316,-0.571710,-0.042481,-0.082257,0.127680,-57.379051,176.415726,237.250000,,,,,,
1465828091.09,-0.998612,-0.087408,0.336030,-0.072859,-3.935261,0.081408,-0.837511,0.087296,-0.539402,-0.012129,-0.034760,0.209141,-38.589165,176.195267,241.181488,,,,,,
1465828091.10,-1.039039,-0.088381,0.335915,-0.052786,-4.066923,0.077996,-0.858553,0.088266,-0.505069,0.024752,-0.054376,0.141071,-38.589165,176.195267,241.181488,,,,,,
1465828091.11,-1.082427,-0.089462,0.335709,-0.077779,-4.460854,0.085764,-0.879568,0.089343,-0.467310,0.111196,-0.056705,0.168283,-38.589165,176.195267,241.181488,,,,,,
1465828091.12,-1.128868,-0.090618,0.335451,-0.075914,-4.661553,0.093411,-0.900220,0.090494,-0.425928,0.098310,-0.051675,0.114588,1.337379,175.628342,244.653458,,,,,,
1465828091.13,-1.177876,-0.091800,0.335111,-0.082741,-5.013003,0.094544,-0.919905,0.091671,-0.381275,0.147109,-0.057613,0.191685,1.337379,175.628342,244.653458,,,,,,
1465828091.14,-1.230053,-0.093064,0.334682,-0.084095,-5.228575,0.105475,-0.938428,0.092930,-0.332742,0.115643,-0.045582,0.139291,1.337379,175.628342,244.653458,,,,,,
1465828091.15,-1.283109,-0.094317,0.334220,-0.082151,-5.383588,0.102191,-0.954641,0.094177,-0.282474,0.117025,-0.061645,0.232822,24.973351,175.228409,243.667297,,,,,,
1465828091.16,-1.341530,-0.095687,0.333641,-0.094657,-5.990977,0.121955,-0.969379,0.095541,-0.226224,0.223849,-0.044486,0.145032,24.973351,175.228409,243.667297,,,,,,
1465828091.17,-1.404742,-0.097081,0.332882,-0.104743,-6.395513,0.122353,-0.981601,0.096929,-0.164513,0.238925,-0.050633,0.177071,24.973351,175.228409,243.667297,,,,,,
1465828091.18,-1.471388,-0.098542,0.331948,-0.112646,-6.737439,0.135134,-0.990236,0.098382,-0.098763,0.229692,-0.055368,0.213983,79.937317,174.132751,232.357971,,,,,,
1465828091.19,-1.540017,-0.099996,0.330939,-0.107497,-6.870178,0.140229,-0.994533,0.099829,-0.030620,0.177761,-0.041907,0.213604,79.937317,174.132751,232.357971,,,,,,
1465828091.20,-1.611562,-0.101393,0.329735,-0.119676,-7.237565,0.145715,-0.994038,0.101219,0.040545,0.222309,-0.045479,0.303708,79.937317,174.132751,232.357971,,,,,,
1465828091.21,-1.684120,-0.102731,0.328398,-0.120687,-7.196151,0.144390,-0.988347,0.102550,0.112485,0.075017,-0.039760,0.431063,110.997345,173.372452,219.827194,,,,,,
1465828091.22,-1.754541,-0.103911,0.327055,-0.110826,-6.982719,0.137739,-0.977863,0.103724,0.181727,-0.016903,-0.053233,0.373663,110.997345,173.372452,219.827194,,,,,,
1465828091.23,-1.821887,-0.104949,0.325664,-0.114593,-6.602571,0.127900,-0.963312,0.104757,0.247094,-0.148260,-0.035375,0.423118,110.997345,173.372452,219.827194,,,,,,
1465828091.24,-1.881933,-0.105792,0.324334,-0.100730,-5.749927,0.114050,-0.946664,0.105595,0.304429,-0.224021,-0.056889,0.413619,168.717667,171.650085,181.033173,,,,,,
1465828091.25,-1.933116,-0.106511,0.323164,-0.082641,-4.923830,0.100372,-0.929778,0.106310,0.352436,-0.094483,-0.033449,0.322400,168.717667,171.650085,181.033173,,,,,,
1465828091.26,-1.980161,-0.107086,0.322058,-0.081223,-4.648812,0.094391,-0.912119,0.106882,0.395747,-0.055182,-0.055322,0.280614,168.717667,171.650085,181.033173,,,,,,
1465828091.27,-2.024143,-0.107627,0.321060,-0.071177,-4.293089,0.083654,-0.893785,0.107419,0.435442,0.009233,-0.025067,0.277250,188.128174,170.924149,161.539948,,,,,,
1465828091.28,-2.065318,-0.108040,0.320087,-0.060241,-4.059504,0.084329,-0.875064,0.107830,0.471843,-0.006635,-0.064480,0.213414,188.128174,170.924149,161.539948,,,,,,
1465828091.29,-2.103963,-0.108341,0.319131,-0.071575,-3.780206,0.068728,-0.856152,0.108129,0.505283,0.042462,-0.034399,0.249020,188.128174,170.924149,161.539948,,,,,,
1465828091.30,-2.140466,-0.108692,0.318310,-0.052208,-3.612462,0.071953,-0.837110,0.108478,0.536171,0.054121,-0.050479,0.200051,213.414398,169.832336,127.725037,,,,,,
1465828091.31,-2.175776,-0.108894,0.317416,-0.057354,-3.477599,0.066844,-0.817642,0.108679,0.565376,0.023971,-0.046789,0.197945,213.414398,169.832336,127.725037,,,,,,
1465828091.32,-2.208473,-0.109145,0.316628,-0.051652,-3.179229,0.062850,-0.798700,0.108928,0.591788,0.041346,-0.048381,0.223474,222.249512,169.393738,112.309067,,,,,,
1465828091.33,-2.238877,-0.109353,0.315876,-0.045037,-2.996605,0.062776,-0.780323,0.109136,0.615780,0.089985,-0.059087,0.169208,222.249512,169.393738,112.309067,,,,,,
1465828091.34,-2.268912,-0.109535,0.315151,-0.046100,-3.001902,0.058550,-0.761464,0.109316,0.638923,0.119404,-0.036882,0.165367,222.249512,169.393738,112.309067,,,,,,
1465828091.35,-2.298656,-0.109685,0.314421,-0.044953,-2.929712,0.062356,-0.742113,0.109465,0.661275,0.044512,-0.071959,0.169398,229.094330,169.004028,98.264175,,,,,,
1465828091.36,-2.325928,-0.109839,0.313720,-0.040327,-2.644077,0.056312,-0.723793,0.109618,0.681254,0.089562,-0.038802,0.167196,229.094330,169.004028,98.264175,,,,,,
1465828091.37,-2.351930,-0.109992,0.313068,-0.036043,-2.618605,0.059349,-0.705824,0.109770,0.699830,0.236342,-0.060682,0.120955,229.094330,169.004028,98.264175,,,,,,
1465828091.38,-2.381763,-0.110086,0.312301,-0.049465,-3.133573,0.062566,-0.684628,0.109863,0.720565,0.387646,-0.048798,0.048371,239.103088,168.315903,72.124123,,,,,,
1465828091.39,-2.418312,-0.110159,0.311363,-0.063099,-3.798287,0.078430,-0.657836,0.109936,0.745094,0.432265,-0.059918,0.070839,239.103088,168.315903,72.124123,,,,,,
1465828091.40,-2.461564,-0.110194,0.310261,-0.068259,-4.505465,0.090311,-0.625002,0.109971,0.772838,0.486818,-0.059571,0.056248,239.103088,168.315903,72.124123,,,,,,
1465828091.41,-2.512714,-0.110144,0.308895,-0.093759,-5.289102,0.109038,-0.584674,0.109921,0.803787,0.501666,-0.064908,0.083938,243.582352,167.923599,56.318016,,,,,,
1465828091.42,-2.571398,-0.109979,0.307357,-0.097904,-6.035567,0.121167,-0.536535,0.109758,0.836710,0.483831,-0.060075,0.117849,243.582352,167.923599,56.318016,,,,,,
1465828091.43,-2.636788,-0.109691,0.305668,-0.115760,-6.681149,0.130520,-0.480730,0.109471,0.870009,0.473299,-0.053609,0.156862,243.582352,167.923599,56.318016,,,,,,
1465828091.44,-2.708007,-0.109264,0.303846,-0.121793,-7.230128,0.144601,-0.417622,0.109046,0.902054,0.439808,-0.057121,0.196625,250.788162,166.731796,2.867630,,,,,,
1465828091.45,-2.783888,-0.108667,0.301926,-0.127672,-7.661238,0.154750,-0.348060,0.108453,0.931178,0.401191,-0.056756,0.243764,250.788162,166.731796,2.867630,,,,,,
1465828091.46,-2.863692,-0.107894,0.300001,-0.135622,-8.065764,0.151957,-0.272742,0.107685,0.956042,0.372596,-0.052143,0.261411,250.788162,166.731796,2.867630,,,,,,
1465828091.47,-2.945362,-0.106897,0.298087,-0.136766,-8.115693,0.160785,-0.193860,0.106694,0.975210,0.223600,-0.058812,0.323954,249.033829,166.030411,-33.443604,,,,,,
1465828091.48,-3.025930,-0.105815,0.296236,-0.139833,-8.010579,0.162251,-0.114759,0.105617,0.987763,0.178251,-0.040188,0.286621,249.033829,166.030411,-33.443604,,,,,,
1465828091.49,-3.104475,-0.104572,0.294521,-0.135293,-7.786541,0.160851,-0.036907,0.104381,0.993852,0.165874,-0.053890,0.294920,241.010620,165.392822,-72.536308,,,,,,
1465828091.50,3.101561,-0.103201,0.292972,-0.143623,-7.642122,0.156743,0.039808,0.103018,0.993883,0.069491,-0.047751,0.267577,241.010620,165.392822,-72.536308,,,,,,
1465828091.51,3.029311,-0.101821,0.291587,-0.114146,-7.068749,0.147855,0.111466,0.101645,0.988556,0.006073,-0.047400,0.297897,241.010620,165.392822,-72.536308,,,,,,
1465828091.52,2.962299,-0.100465,0.290424,-0.121967,-6.535682,0.130666,0.177435,0.100296,0.979008,-0.058584,-0.045150,0.241695,208.856308,164.549591,-141.438644,,,,,,
1465828091.53,2.902475,-0.099276,0.289431,-0.086938,-5.781802,0.119586,0.235679,0.099113,0.966764,-0.119438,-0.044593,0.242175,208.856308,164.549591,-141.438644,,,,,,
1465828091.54,2.849972,-0.098081,0.288680,-0.095560,-5.044856,0.096860,0.286123,0.097923,0.953176,-0.119894,-0.050881,0.170130,208.856308,164.549591,-141.438644,,,,,,
1465828091.55,2.805366,-0.097132,0.288033,-0.066891,-4.270795,0.084583,0.328372,0.096980,0.939557,-0.162372,-0.048609,0.158466,208.856308,164.549591,-141.438644,,,,,,
1465828091.56,2.768411,-0.096264,0.287592,-0.061603,-3.470164,0.066793,0.362892,0.096115,0.926861,-0.204079,-0.049118,0.103962,173.098724,164.305847,-183.692245,,,,,,
1465828091.57,2.741404,-0.095663,0.287229,-0.036869,-2.441262,0.050785,0.387810,0.095518,0.916777,-0.246468,-0.048444,0.124666,173.098724,164.305847,-183.692245,,,,,,
1465828091.58,2.723897,-0.095278,0.287016,-0.021836,-1.516395,0.029033,0.403816,0.095134,0.909880,-0.250709,-0.049754,0.068101,173.098724,164.305847,-183.692245,,,,,,
1465828091.59,2.716226,-0.095169,0.286891,0.000732,-0.518283,0.012151,0.410787,0.095025,0.906766,-0.262518,-0.045098,0.080646,161.233826,164.296967,-194.197250,,,,,,
1465828091.60,2.718245,-0.095258,0.286907,0.009427,0.446936,-0.009860,0.408953,0.095114,0.907585,-0.243532,-0.044821,0.039512,161.233826,164.296967,-194.197250,,,,,,
1465828091.61,2.730121,-0.095626,0.286995,0.036223,1.418504,-0.027636,0.398132,0.095481,0.912346,-0.231124,-0.047080,0.077172,161.233826,164.296967,-194.197250,,,,,,
1465828091.62,2.750739,-0.096173,0.287213,0.045839,2.272227,-0.046819,0.379218,0.096024,0.920312,-0.185263,-0.046632,0.049674,159.074051,164.249237,-196.010330,,,,,,
1465828091.63,2.779587,-0.096970,0.287529,0.066032,3.076029,-0.061420,0.352487,0.096818,0.930795,-0.154428,-0.056276,0.075736,159.074051,164.249237,-196.010330,,,,,,
1465828091.64,2.816002,-0.097887,0.287955,0.075497,3.818248,-0.074581,0.318337,0.097731,0.942926,-0.111107,-0.053908,0.080847,159.074051,164.249237,-196.010330,,,,,,
1465828091.65,2.859054,-0.099002,0.288521,0.093335,4.437305,-0.091219,0.277429,0.098840,0.955648,-0.046808,-0.054406,0.096293,168.402023,164.212204,-188.089127,,,,,,
1465828091.66,2.907222,-0.100135,0.289234,0.096102,4.935307,-0.100726,0.231068,0.099968,0.967788,-0.010426,-0.050407,0.105790,168.402023,164.212204,-188.089127,,,,,,
1465828091.67,2.960701,-0.101351,0.290092,0.103170,5.467285,-0.110442,0.178983,0.101178,0.978636,0.023180,-0.047558,0.139177,168.402023,164.212204,-188.089127,,,,,,
1465828091.68,3.018672,-0.102636,0.291081,0.114345,5.876094,-0.120446,0.121966,0.102456,0.987232,0.091397,-0.053460,0.156765,198.946518,164.272095,-155.362106,,,,,,
1465828091.69,3.079509,-0.103949,0.292203,0.123193,6.134116,-0.125249,0.061709,0.103762,0.992686,0.141965,-0.053164,0.168737,198.946518,164.272095,-155.362106,,,,,,
1465828091.70,-3.140896,-0.105227,0.293459,0.125535,6.296582,-0.130523,-0.000693,0.105032,0.994469,0.202170,-0.062674,0.172554,198.946518,164.272095,-155.362106,,,,,,
1465828091.71,-3.077055,-0.106478,0.294791,0.127767,6.383640,-0.127874,-0.064128,0.106277,0.992267,0.262370,-0.057494,0.180768,215.559555,164.436829,-131.137421,,,,,,
1465828091.72,-3.014244,-0.107549,0.296206,0.119026,6.202082,-0.128872,-0.126271,0.107342,0.986171,0.336751,-0.058804,0.150212,215.559555,164.436829,-131.137421,,,,,,
1465828091.73,-2.954061,-0.108487,0.297612,0.114420,5.937675,-0.119768,-0.185338,0.108275,0.976691,0.368978,-0.059431,0.142403,215.559555,164.436829,-131.137421,,,,,,
1465828091.74,-2.896487,-0.109328,0.298992,0.110880,5.666908,-0.114880,-0.241210,0.109110,0.964320,0.407821,-0.057459,0.141652,240.499969,165.099899,-74.861252,,,,,,
1465828091.75,-2.842662,-0.110041,0.300317,0.101830,5.255972,-0.103796,-0.292717,0.109819,0.949872,0.432061,-0.065874,0.115863,240.499969,165.099899,-74.861252,,,,,,
1465828091.76,-2.794026,-0.110613,0.301573,0.093680,4.703833,-0.098212,-0.338529,0.110388,0.934458,0.487470,-0.057180,0.079778,240.499969,165.099899,-74.861252,,,,,,
1465828091.77,-2.751619,-0.111060,0.302682,0.075809,4.058230,-0.081408,-0.377822,0.110831,0.919221,0.509963,-0.067176,0.052489,246.968292,165.512726,-48.110428,,,,,,
1465828091.78,-2.716384,-0.111425,0.303614,0.067431,3.334061,-0.068359,-0.409953,0.111195,0.905304,0.510584,-0.059162,0.018036,246.968292,165.512726,-48.110428,,,,,,
1465828091.79,-2.688327,-0.111683,0.304364,0.052656,2.607763,-0.052110,-0.435175,0.111451,0.893421,0.523630,-0.067124,0.005642,246.968292,165.512726,-48.110428,,,,,,
1465828091.80,-2.668343,-0.111889,0.304915,0.038825,1.782723,-0.037369,-0.452931,0.111655,0.884526,0.542394,-0.064658,-0.032597,250.943497,166.208481,-10.223450,,,,,,
1465828091.81,-2.657118,-0.112000,0.305241,0.020223,0.887683,-0.020083,-0.462825,0.111766,0.879375,0.551265,-0.070292,-0.042263,250.943497,166.208481,-10.223450,,,,,,
1465828091.82,-2.654909,-0.112073,0.305334,0.007376,0.005293,-0.000724,-0.464763,0.111839,0.878344,0.532664,-0.066566,-0.058016,250.943497,166.208481,-10.223450,,,,,,
1465828091.83,-2.660680,-0.112077,0.305206,-0.009573,-0.756043,0.015743,-0.459686,0.111842,0.881011,0.487320,-0.063930,-0.040404,251.036392,166.363358,-2.526535,,,,,,
1465828091.84,-2.673567,-0.112040,0.304887,-0.020067,-1.467472,0.029774,-0.448297,0.111806,0.886865,0.474588,-0.063283,-0.041040,251.036392,166.363358,-2.526535,,,,,,
1465828091.85,-2.693658,-0.111938,0.304393,-0.033750,-2.176774,0.042724,-0.430395,0.111705,0.895702,0.451131,-0.064570,-0.028271,251.036392,166.363358,-2.526535,,,,,,
1465828091.86,-2.720006,-0.111780,0.303737,-0.044085,-2.761848,0.055964,-0.406655,0.111548,0.906746,0.404183,-0.064810,-0.012703,250.899475,166.184464,-11.601952,,,,,,
1465828091.87,-2.751422,-0.111581,0.302972,-0.050044,-3.257725,0.065454,-0.377981,0.111350,0.919093,0.386297,-0.064963,0.016714,250.899475,166.184464,-11.601952,,,,,,
1465828091.88,-2.787765,-0.111309,0.302070,-0.060248,-3.741922,0.075932,-0.344347,0.111079,0.932248,0.357195,-0.063426,0.022555,250.899475,166.184464,-11.601952,,,,,,
1465828091.89,-2.828393,-0.110951,0.301065,-0.068229,-4.152853,0.084888,-0.306209,0.110723,0.945503,0.350155,-0.062872,0.043266,250.009659,165.914474,-25.883919,,,,,,
1465828091.90,-2.872793,-0.110486,0.299998,-0.075065,-4.504315,0.090279,-0.263955,0.110261,0.958212,0.305184,-0.056687,0.054239,250.009659,165.914474,-25.883919,,,,,,
1465828091.91,-2.919642,-0.109951,0.298872,-0.081734,-4.717752,0.097997,-0.218803,0.109730,0.969580,0.263222,-0.061054,0.081797,250.009659,165.914474,-25.883919,,,,,,
1465828091.92,-2.968050,-0.109348,0.297760,-0.079781,-4.860032,0.097827,-0.171642,0.109131,0.979096,0.229289,-0.057312,0.092574,242.775940,165.204712,-66.855560,,,,,,
1465828091.93,-3.017233,-0.108692,0.296641,-0.080906,-4.903574,0.101292,-0.123307,0.108478,0.986422,0.179017,-0.059558,0.108930,242.775940,165.204712,-66.855560,,,,,,
1465828091.94,-3.065924,-0.107999,0.295550,-0.078705,-4.848358,0.099884,-0.075156,0.107789,0.991329,0.166968,-0.056489,0.114674,235.466003,164.860886,-89.883667,,,,,,
1465828091.95,-3.114518,-0.107208,0.294535,-0.082932,-4.829233,0.095502,-0.026916,0.107003,0.993894,0.141403,-0.057396,0.101153,235.466003,164.860886,-89.883667,,,,,,
1465828091.96,3.121553,-0.106394,0.293569,-0.080564,-4.639171,0.094312,0.019925,0.106194,0.994146,0.079395,-0.057884,0.114726,235.466003,164.860886,-89.883667,,,,,,
1465828091.97,3.078030,-0.105599,0.292714,-0.073657,-4.235672,0.085402,0.063166,0.105403,0.992421,0.020666,-0.054850,0.130305,235.466003,164.860886,-89.883667,,,,,,
1465828091.99,3.001804,-0.104196,0.291315,-0.053551,-3.503008,0.070182,0.138579,0.104008,0.984875,-0.026655,-0.051685,0.093891,215.257721,164.356155,-131.732986,,,,,,
1465828091.98,3.038071,-0.104870,0.291962,-0.065791,-3.913938,0.079134,0.102769,0.104677,0.989182,0.015258,-0.055956,0.106582,215.257721,164.356155,-131.732986,,,,,,
1465828092.00,2.970851,-0.103606,0.290763,-0.047525,-2.956159,0.058243,0.169002,0.103421,0.980175,-0.048961,-0.052212,0.098561,215.257721,164.356155,-131.732986,,,,,,
1465828092.02,2.925087,-0.102700,0.290005,-0.029056,-1.835928,0.037398,0.213687,0.102520,0.971508,-0.098132,-0.055264,0.073277,204.880936,164.210449,-147.516602,,,,,,
1465828092.01,2.945019,-0.103086,0.290340,-0.038355,-2.446481,0.048669,0.194274,0.102903,0.975535,-0.075972,-0.051969,0.070394,204.880936,164.210449,-147.516602,,,,,,
1465828092.03,2.911614,-0.102443,0.289793,-0.016501,-1.178652,0.023708,0.226762,0.102264,0.968567,-0.108018,-0.052947,0.060257,204.880936,164.210449,-147.516602,,,,,,
1465828092.04,2.904134,-0.102356,0.289657,-0.002996,-0.611632,0.011650,0.234003,0.102177,0.966852,-0.093500,-0.057469,0.053336,191.095352,164.077682,-165.116608,,,,,,
1465828092.05,2.903770,-0.101589,0.289757,0.008427,-0.008502,-0.000638,0.234373,0.101414,0.966843,-0.084226,-0.053974,0.035965,191.095352,164.077682,-165.116608,,,,,,
1465828092.06,2.908044,-0.101741,0.289805,0.014485,0.567010,-0.010628,0.230235,0.101566,0.967820,-0.077403,-0.053348,0.038924,191.095352,164.077682,-165.116608,,,,,,
1465828092.07,2.918063,-0.102022,0.289948,0.030128,1.142520,-0.021673,0.220520,0.101845,0.970051,-0.060486,-0.053215,0.031399,189.833496,164.169922,-166.474915,,,,,,
1465828092.08,2.933439,-0.102398,0.290185,0.031865,1.664950,-0.033464,0.205572,0.102219,0.973289,-0.051793,-0.054566,0.038018,189.833496,164.169922,-166.474915,,,,,,
1465828092.09,2.954286,-0.102848,0.290529,0.045339,2.207548,-0.045369,0.185230,0.102667,0.977318,-0.025913,-0.054724,0.046410,189.833496,164.169922,-166.474915,,,,,,
1465828092.10,2.979690,-0.103450,0.290944,0.053350,2.643960,-0.053420,0.160335,0.103266,0.981646,0.000203,-0.057917,0.044782,197.822754,164.193939,-156.872299,,,,,,
1465828092.11,3.009219,-0.104138,0.291447,0.062369,3.034714,-0.061184,0.131272,0.103950,0.985881,0.050002,-0.057105,0.054890,197.822754,164.193939,-156.872299,,,,,,
1465828092.12,3.041996,-0.104874,0.292033,0.067046,3.359638,-0.068539,0.098885,0.104682,0.989577,0.064216,-0.055747,0.054353,197.822754,164.193939,-156.872299,,,,,,
1465828092.13,3.077922,-0.105654,0.292685,0.078061,3.649510,-0.072475,0.063273,0.105457,0.992409,0.105626,-0.054645,0.069191,205.947067,164.246658,-145.983765,,,,,,
1465828092.14,3.115683,-0.106439,0.293441,0.075071,3.803488,-0.078766,0.025760,0.106238,0.994007,0.150113,-0.056906,0.060360,205.947067,164.246658,-145.983765,,,,,,
1465828092.15,-3.128030,-0.107233,0.294247,0.077429,3.986116,-0.079909,-0.013484,0.107028,0.994165,0.155955,-0.058322,0.079337,205.947067,164.246658,-145.983765,,,,,,
1465828092.16,-3.087258,-0.108023,0.295089,0.082861,4.071061,-0.081501,-0.053991,0.107814,0.992704,0.216146,-0.058604,0.084399,224.502014,164.503311,-115.064865,,,,,,
1465828092.17,-3.047898,-0.108692,0.295950,0.074119,3.888440,-0.082493,-0.093005,0.108478,0.989739,0.279315,-0.060840,0.054558,224.502014,164.503311,-115.064865,,,,,,
1465828092.18,-3.010048,-0.109328,0.296818,0.073920,3.736591,-0.077283,-0.130383,0.109110,0.985442,0.304211,-0.062251,0.053560,224.502014,164.503311,-115.064865,,,,,,
1465828092.19,-2.974025,-0.109924,0.297675,0.069417,3.543342,-0.075012,-0.165778,0.109703,0.980042,0.309393,-0.059791,0.049499,232.719345,164.708069,-97.032845,,,,,,
1465828092.20,-2.939841,-0.110465,0.298465,0.067045,3.361754,-0.066424,-0.199164,0.110241,0.973746,0.298422,-0.064861,0.053415,232.719345,164.708069,-97.032845,,,,,,
1465828092.21,-2.908458,-0.110937,0.299234,0.060256,3.044276,-0.063375,-0.229608,0.110709,0.966966,0.343912,-0.060523,0.037489,238.986450,164.943497,-79.884544,,,,,,
1465828092.23,-2.856546,-0.111695,0.300519,0.046530,2.307356,-0.045994,-0.279450,0.111463,0.953669,0.367600,-0.063093,0.017447,238.986450,164.943497,-79.884544,,,,,,
1465828092.22,-2.880673,-0.111355,0.299920,0.056588,2.677935,-0.053630,-0.256371,0.111125,0.960169,0.355340,-0.062785,0.025335,238.986450,164.943497,-79.884544,,,,,,
1465828092.24,-2.837289,-0.111972,0.301012,0.037346,1.788119,-0.035295,-0.297752,0.111738,0.948081,0.395073,-0.061979,-0.006233,246.320435,165.360764,-51.812042,,,,,,
1465828092.26,-2.813603,-0.112332,0.301651,0.021156,0.784688,-0.016245,-0.320110,0.112096,0.940725,0.403408,-0.066121,-0.020727,246.320435,165.360764,-51.812042,,,,,,
1465828092.25,-2.822883,-0.112171,0.301392,0.029297,1.319856,-0.028109,-0.311373,0.111936,0.943672,0.390749,-0.064939,-0.012734,246.320435,165.360764,-51.812042,,,,,,
1465828092.27,-2.810060,-0.112417,0.301762,0.009773,0.210238,-0.005202,-0.323438,0.112180,0.939576,0.404905,-0.067685,-0.034684,246.320435,165.360764,-51.812042,,,,,,
1465828092.28,-2.812000,-0.112459,0.301743,0.001638,-0.321742,0.005577,-0.321613,0.112222,0.940197,0.397144,-0.067270,-0.035366,248.302048,165.548660,-40.523544,,,,,,
1465828092.29,-2.818336,-0.112448,0.301597,-0.007407,-0.730552,0.015583,-0.315650,0.112211,0.942217,0.350883,-0.066221,-0.020770,248.302048,165.548660,-40.523544,,,,,,
1465828092.30,-2.828765,-0.112410,0.301359,-0.012193,-1.143603,0.022427,-0.305808,0.112174,0.945462,0.339453,-0.062201,-0.019345,248.302048,165.548660,-40.523544,,,,,,
1465828092.31,-2.843172,-0.112298,0.301028,-0.021202,-1.529045,0.029093,-0.292159,0.112062,0.949782,0.317336,-0.063067,-0.018339,247.986328,165.508591,-42.568848,,,,,,
1465828092.32,-2.860737,-0.112152,0.300614,-0.026900,-1.818929,0.036227,-0.275437,0.111917,0.954782,0.292115,-0.061899,-0.003824,247.986328,165.508591,-42.568848,,,,,,
1465828092.33,-2.881277,-0.111969,0.300136,-0.030498,-2.135353,0.041402,-0.255774,0.111735,0.960258,0.286581,-0.065516,0.003777,247.986328,165.508591,-42.568848,,,,,,
1465828092.34,-2.904933,-0.111725,0.299580,-0.039384,-2.418867,0.049557,-0.232995,0.111493,0.966065,0.273919,-0.064588,0.001189,245.038757,165.243759,-57.904400,,,,,,
1465828092.35,-2.930505,-0.111456,0.298976,-0.039610,-2.596194,0.052798,-0.208223,0.111226,0.971737,0.240435,-0.062520,0.018742,245.038757,165.243759,-57.904400,,,,,,
1465828092.36,-2.958070,-0.111151,0.298358,-0.044120,-2.792631,0.056155,-0.181368,0.110923,0.977140,0.232729,-0.057807,0.018710,242.069962,165.048874,-69.738197,,,,,,
1465828092.37,-2.986988,-0.110782,0.297699,-0.047466,-2.910496,0.059019,-0.153045,0.110555,0.982016,0.204452,-0.060949,0.025171,242.069962,165.048874,-69.738197,,,,,,
1465828092.38,-3.016114,-0.110400,0.297040,-0.047445,-2.893507,0.058913,-0.124388,0.110176,0.986098,0.161391,-0.059242,0.040895,242.069962,165.048874,-69.738197,,,,,,
1465828092.39,-3.045415,-0.109945,0.296355,-0.044273,-2.908381,0.061138,-0.095450,0.109724,0.989368,0.152960,-0.061948,0.043743,237.948517,164.846954,-83.116783,,,,,,
1465828092.40,-3.074824,-0.109515,0.295712,-0.048570,-2.940230,0.060269,-0.066319,0.109297,0.991794,0.156224,-0.060407,0.038220,237.948517,164.846954,-83.116783,,,,,,
1465828092.41,-3.104050,-0.109083,0.295094,-0.046379,-2.894567,0.057856,-0.037311,0.108866,0.993356,0.130145,-0.058894,0.037421,237.948517,164.846954,-83.116783,,,,,,
1465828092.42,-3.132278,-0.108638,0.294517,-0.045178,-2.787323,0.056120,-0.009259,0.108425,0.994062,0.116879,-0.058056,0.045031,227.059448,164.472305,-109.978600,,,,,,
1465828092.43,3.124276,-0.108135,0.293970,-0.043861,-2.589823,0.052754,0.017215,0.107924,0.994010,0.070096,-0.060042,0.048699,227.059448,164.472305,-109.978600,,,,,,
1465828092.44,3.100765,-0.107749,0.293503,-0.034916,-2.257468,0.045356,0.040579,0.107541,0.993372,0.028589,-0.057721,0.057287,227.059448,164.472305,-109.978600,,,,,,
1465828092.45,3.080516,-0.107419,0.293094,-0.030261,-1.947416,0.040223,0.060687,0.107213,0.992382,0.017087,-0.059361,0.057728,220.888855,164.335388,-122.083626,,,,,,
1465828092.46,3.063285,-0.107144,0.292760,-0.024541,-1.639481,0.032975,0.077779,0.106939,0.991219,0.013209,-0.057104,0.043663,220.888855,164.335388,-122.083626,,,,,,
1465828092.47,3.048998,-0.106842,0.292489,-0.019914,-1.352785,0.026924,0.091935,0.106639,0.990038,0.024169,-0.057811,0.041105,220.888855,164.335388,-122.083626,,,,,,
1465828092.48,3.037760,-0.106677,0.292275,-0.012059,-1.039545,0.020709,0.103057,0.106475,0.988960,0.021882,-0.056442,0.026589,220.888855,164.335388,-122.083626,,,,,,
1465828092.49,3.030072,-0.106593,0.292135,-0.006261,-0.671085,0.012018,0.110658,0.106391,0.988148,0.005064,-0.060401,0.031628,211.364105,164.159607,-138.127670,,,,,,
1465828092.50,3.026348,-0.106586,0.292076,0.001702,-0.272898,0.004206,0.114337,0.106384,0.987729,-0.005786,-0.059067,0.033404,211.364105,164.159607,-138.127670,,,,,,
1465828092.51,3.026872,-0.102851,0.292132,0.008574,0.104056,-0.003479,0.113865,0.102670,0.988177,-0.002415,-0.054070,0.030851,208.779526,164.110352,-142.060944,,,,,,
1465828092.53,3.038071,-0.099775,0.292325,0.020157,0.834595,-0.017633,0.102823,0.099609,0.989700,0.024771,-0.049118,0.027039,208.779526,164.110352,-142.060944,,,,,,
1465828092.52,3.030591,-0.099564,0.292186,0.014377,0.478879,-0.010086,0.110225,0.099399,0.988924,0.008290,-0.050022,0.027251,208.779526,164.110352,-142.060944,,,,,,
1465828092.54,3.048817,-0.100064,0.292516,0.028004,1.143585,-0.022757,0.092180,0.099897,0.990719,0.059233,-0.051618,0.020710,209.991516,164.952850,-139.271469,,,,,,
1465828092.55,3.061968,-0.100405,0.292759,0.031486,1.366573,-0.028409,0.079140,0.100237,0.991811,0.080665,-0.055284,0.016688,209.991516,164.952850,-139.271469,,,,,,
1465828092.56,3.077030,-0.100694,0.293039,0.035997,1.561951,-0.032824,0.064191,0.100524,0.992862,0.083285,-0.053817,0.023297,209.991516,164.952850,-139.271469,,,,,,
1465828092.57,3.094354,-0.101086,0.293374,0.039475,1.784934,-0.036348,0.046980,0.100914,0.993785,0.079240,-0.051384,0.030705,213.174225,164.975632,-134.321274,,,,,,
1465828092.58,3.113957,-0.101546,0.293771,0.045088,2.008983,-0.042005,0.027490,0.101371,0.994469,0.089240,-0.050804,0.032906,213.174225,164.975632,-134.321274,,,,,,
1465828092.59,3.135514,-0.102017,0.294216,0.046395,2.196930,-0.046376,0.006047,0.101840,0.994782,0.100764,-0.051150,0.037734,213.174225,164.975632,-134.321274,,,,,,
1465828092.60,-3.124565,-0.102452,0.294655,0.050847,2.354068,-0.045228,-0.016938,0.102273,0.994612,0.155716,-0.053628,0.031099,222.209610,165.110168,-118.591499,,,,,,
1465828092.61,-3.100884,-0.102942,0.295146,0.048721,2.355134,-0.046301,-0.040482,0.102760,0.993882,0.198380,-0.057915,0.017577,222.209610,165.110168,-118.591499,,,,,,
1465828092.62,-3.077963,-0.103403,0.295638,0.047533,2.255328,-0.046741,-0.063248,0.103219,0.992646,0.221741,-0.054910,0.007293,222.209610,165.110168,-118.591499,,,,,,
1465828092.63,-3.056140,-0.103811,0.296129,0.043142,2.151271,-0.045028,-0.084889,0.103624,0.990987,0.243489,-0.056169,0.006999,222.209610,165.110168,-118.591499,,,,,,
1465828092.64,-3.040824,-0.103149,0.296060,0.042920,1.981338,-0.040769,-0.100064,0.102966,0.989639,0.249127,-0.054580,-0.003326,231.811874,165.323563,-98.151901,,,,,,
1465828092.65,-3.031512,-0.101406,0.295553,0.038434,1.806072,-0.037545,-0.109295,0.101232,0.988841,0.223629,-0.052953,0.003758,231.811874,165.323563,-98.151901,,,,,,
1465828092.66,-3.015815,-0.101382,0.295805,0.034014,1.679706,-0.035692,-0.124803,0.101208,0.987006,0.218659,-0.052395,0.002465,231.811874,165.323563,-98.151901,,,,,,
1465828092.67,-3.000048,-0.101679,0.296185,0.034893,1.536354,-0.031599,-0.140343,0.101503,0.984886,0.209176,-0.053637,0.003914,234.214584,165.478226,-91.993980,,,,,,
1465828092.68,-2.985588,-0.101954,0.296514,0.029409,1.413179,-0.027639,-0.154566,0.101778,0.982726,0.228250,-0.052598,0.004350,234.214584,165.478226,-91.993980,,,,,,
1465828092.69,-2.972905,-0.102218,0.296814,0.030204,1.201874,-0.024184,-0.167013,0.102040,0.980660,0.255437,-0.053730,-0.012414,234.214584,165.478226,-91.993980,,,,,,
1465828092.70,-2.963334,-0.102348,0.297017,0.020251,0.913054,-0.018124,-0.176388,0.102169,0.979004,0.252361,-0.053082,-0.017807,239.008743,165.662155,-78.315331,,,,,,
1465828092.71,-2.955861,-0.102501,0.297204,0.018906,0.691135,-0.015670,-0.183696,0.102322,0.977643,0.258587,-0.052517,-0.009305,239.008743,165.662155,-78.315331,,,,,,
1465828092.72,-2.950906,-0.102631,0.297322,0.012166,0.421423,-0.007598,-0.188536,0.102451,0.976708,0.261991,-0.054263,-0.019143,239.008743,165.662155,-78.315331,,,,,,
1465828092.73,-2.948814,-0.102702,0.297384,0.006486,0.142163,-0.002659,-0.190577,0.102522,0.976304,0.260249,-0.056409,-0.018022,240.251236,165.715256,-74.298172,,,,,,
1465828092.74,-2.965210,-0.099751,0.295781,0.001894,-0.115971,0.001086,-0.174598,0.099586,0.979591,0.239524,-0.052329,-0.022010,240.251236,165.715256,-74.298172,,,,,,
1465828092.75,-2.968260,-0.099756,0.295726,-0.001621,-0.364443,0.006899,-0.171608,0.099591,0.980119,0.232003,-0.052868,-0.016022,240.251236,165.715256,-74.298172,,,,,,
1465828092.76,-2.973627,-0.099731,0.295608,-0.006173,-0.591678,0.012577,-0.166346,0.099565,0.981028,0.220149,-0.048296,-0.017893,239.484528,165.709717,-76.745529,,,,,,
1465828092.77,-2.981032,-0.099665,0.295449,-0.009614,-0.787051,0.014863,-0.159078,0.099500,0.982239,0.205175,-0.050932,-0.008393,239.484528,165.709717,-76.745529,,,,,,
1465828092.78,-2.990166,-0.099581,0.295255,-0.011953,-0.950573,0.018015,-0.150101,0.099416,0.983660,0.196931,-0.050863,-0.005785,239.484528,165.709717,-76.745529,,,,,,
1465828092.79,-3.000834,-0.099472,0.295016,-0.015349,-1.104545,0.023236,-0.139601,0.099308,0.985215,0.193419,-0.052067,-0.003984,238.529800,165.658813,-79.769058,,,,,,
1465828092.80,-3.013053,-0.099350,0.294762,-0.015533,-1.251073,0.024154,-0.127553,0.099186,0.986860,0.169912,-0.049198,-0.002286,238.529800,165.658813,-79.769058,,,,,,
1465828092.82,-3.042502,-0.097975,0.293855,-0.018105,-1.310629,0.026639,-0.098454,0.097819,0.990322,0.139225,-0.048090,0.010746,236.973373,165.585464,-84.424454,,,,,,
1465828092.81,-3.029419,-0.098127,0.294141,-0.018091,-1.300011,0.026573,-0.111400,0.097970,0.988935,0.137386,-0.047479,0.010485,236.973373,165.585464,-84.424454,,,,,,
1465828092.83,-3.056053,-0.097819,0.293570,-0.019239,-1.365843,0.026984,-0.085027,0.097664,0.991581,0.137151,-0.048179,0.007412,236.973373,165.585464,-84.424454,,,,,,
1465828092.84,-3.069973,-0.097639,0.293266,-0.020342,-1.393455,0.029285,-0.071218,0.097484,0.992686,0.132787,-0.048076,0.009634,232.180466,165.457428,-97.048843,,,,,,
1465828092.85,-3.085006,-0.097158,0.292876,-0.019309,-1.420003,0.028388,-0.056290,0.097005,0.993691,0.136780,-0.049855,0.007484,232.180466,165.457428,-97.048843,,,,,,
1465828092.86,-3.101922,-0.096269,0.292364,-0.021527,-1.490095,0.028826,-0.039477,0.096121,0.994587,0.132327,-0.046758,0.001736,232.180466,165.457428,-97.048843,,,,,,
1465828092.87,-3.116978,-0.096058,0.292051,-0.022602,-1.496469,0.029929,-0.024499,0.095911,0.995088,0.114465,-0.046777,0.010267,232.180466,165.457428,-97.048843,,,,,,
1465828092.88,-3.131757,-0.095848,0.291748,-0.021500,-1.466739,0.029744,-0.009790,0.095702,0.995362,0.098947,-0.046050,0.012679,226.099701,165.325089,-110.675003,,,,,,
1465828092.89,3.137092,-0.095645,0.291462,-0.020373,-1.418955,0.028381,0.004480,0.095499,0.995419,0.098272,-0.047724,0.012637,226.099701,165.325089,-110.675003,,,,,,
1465828092.90,3.122969,-0.095341,0.291176,-0.018184,-1.374356,0.025974,0.018538,0.095196,0.995286,0.085848,-0.047711,0.013747,226.099701,165.325089,-110.675003,,,,,,
1465828092.91,3.110091,-0.095153,0.290920,-0.016962,-1.249064,0.025190,0.031354,0.095010,0.994982,0.056246,-0.045770,0.021985,222.885864,165.242004,-117.129776,,,,,,
1465828092.92,3.098830,-0.094977,0.290697,-0.015680,-1.081291,0.020945,0.042557,0.094834,0.994583,0.044128,-0.044465,0.019943,222.885864,165.242004,-117.129776,,,,,,
1465828092.93,3.089400,-0.094851,0.290523,-0.011174,-0.889098,0.016551,0.051935,0.094709,0.994149,0.021735,-0.045514,0.024070,222.885864,165.242004,-117.129776,,,,,,
1465828092.94,3.082276,-0.094547,0.290383,-0.006598,-0.639571,0.012862,0.059017,0.094407,0.993783,0.011677,-0.044068,0.028434,217.220856,165.125244,-127.480057,,,,,,
1465828092.95,3.077792,-0.094510,0.290289,-0.002016,-0.386855,0.008088,0.063472,0.094369,0.993512,0.008595,-0.046503,0.028003,217.220856,165.125244,-127.480057,,,,,,
1465828092.96,3.075741,-0.094516,0.290251,0.001495,-0.141569,0.002295,0.065510,0.094376,0.993379,0.009487,-0.044769,0.025695,217.220856,165.125244,-127.480057,,,,,,
1465828092.97,3.075619,-0.091672,0.290211,0.008201,0.110080,-0.002473,0.065649,0.091544,0.993635,0.012033,-0.043906,0.025973,215.771332,165.112823,-129.934265,,,,,,
1465828092.98,3.077713,-0.089261,0.290200,0.012764,0.347928,-0.008220,0.063582,0.089142,0.993987,0.016786,-0.040558,0.023255,215.771332,165.112823,-129.934265,,,,,,
1465828092.99,3.081913,-0.087350,0.290205,0.014117,0.578334,-0.010730,0.059417,0.087239,0.994414,0.024018,-0.037053,0.021776,215.771332,165.112823,-129.934265,,,,,,
1465828093.00,3.088489,-0.086541,0.290290,0.018636,0.779022,-0.017307,0.052880,0.086433,0.994853,0.033180,-0.036918,0.020436,216.390472,165.919708,-127.860214,,,,,,
1465828093.01,3.097316,-0.086567,0.290438,0.023104,0.945721,-0.018348,0.044097,0.086458,0.995279,0.055116,-0.038271,0.018637,216.390472,165.919708,-127.860214,,,,,,
1465828093.02,3.107304,-0.086718,0.290614,0.025354,1.038102,-0.021054,0.034153,0.086609,0.995657,0.083233,-0.038117,0.011515,216.390472,165.919708,-127.860214,,,,,,
1465828093.03,3.117816,-0.086848,0.290807,0.026493,1.096501,-0.022484,0.023685,0.086739,0.995950,0.096509,-0.039711,0.005164,218.298660,166.061630,-124.385063,,,,,,
1465828093.04,3.128765,-0.086998,0.291003,0.027612,1.137911,-0.023807,0.012779,0.086888,0.996136,0.117455,-0.038548,0.004261,218.298660,166.061630,-124.385063,,,,,,
1465828093.05,3.138217,-0.086827,0.291085,0.027558,1.097548,-0.022489,0.003363,0.086718,0.996227,0.140619,-0.037005,-0.005779,218.298660,166.061630,-124.385063,,,,,,
1465828093.06,-3.136621,-0.086474,0.291114,0.025362,1.046565,-0.021107,-0.004953,0.086367,0.996251,0.137414,-0.037325,-0.004811,223.088593,166.175705,-115.410271,,,,,,
1465828093.07,-3.126321,-0.086710,0.291327,0.024264,1.020021,-0.020942,-0.015214,0.086601,0.996127,0.140412,-0.039451,-0.001254,223.088593,166.175705,-115.410271,,,,,,
1465828093.08,-3.116701,-0.086942,0.291533,0.023090,0.935074,-0.019346,-0.024795,0.086833,0.995914,0.156158,-0.041133,-0.008716,223.088593,166.175705,-115.410271,,,,,,
1465828093.09,-3.108204,-0.087146,0.291707,0.020810,0.818271,-0.016487,-0.033256,0.087035,0.995650,0.168571,-0.038314,-0.013686,225.159012,166.243195,-111.216164,,,,,,
1465828093.10,-3.103285,-0.086850,0.291662,0.017446,0.685529,-0.014593,-0.038153,0.086741,0.995500,0.180030,-0.039286,-0.016542,225.159012,166.243195,-111.216164,,,,,,
1465828093.11,-3.097581,-0.086986,0.291791,0.012989,0.530503,-0.011496,-0.043832,0.086876,0.995254,0.177621,-0.040200,-0.021057,225.159012,166.243195,-111.216164,,,,,,
1465828093.12,-3.093371,-0.087110,0.291884,0.011739,0.386092,-0.008463,-0.048020,0.087000,0.995050,0.172212,-0.039057,-0.018183,228.183105,166.314621,-104.758469,,,,,,
1465828093.13,-3.090449,-0.087207,0.291952,0.010510,0.258671,-0.005536,-0.050928,0.087097,0.994897,0.167764,-0.040191,-0.015054,228.183105,166.314621,-104.758469,,,,,,
1465828093.14,-3.097193,-0.085405,0.291262,0.009275,0.132253,-0.001549,-0.044223,0.085301,0.995373,0.152881,-0.037327,-0.016522,228.183105,166.314621,-104.758469,,,,,,
1465828093.15,-3.096761,-0.085469,0.291285,0.005934,0.013335,-0.001871,-0.044653,0.085365,0.995349,0.148444,-0.037315,-0.011431,228.898239,166.325012,-103.169754,,,,,,
1465828093.16,-3.097451,-0.085517,0.291280,0.004733,-0.091788,0.000916,-0.043966,0.085412,0.995375,0.136389,-0.035150,-0.016737,228.898239,166.325012,-103.169754,,,,,,
1465828093.17,-3.098763,-0.085548,0.291264,0.003601,-0.143819,0.002305,-0.042660,0.085444,0.995429,0.126018,-0.037791,-0.007011,228.898239,166.325012,-103.169754,,,,,,
1465828093.18,-3.107116,-0.083744,0.290687,0.000313,-0.213942,0.003807,-0.034349,0.083646,0.995903,0.118196,-0.036176,-0.009484,228.140762,166.362122,-104.775230,,,,,,
1465828093.19,-3.115607,-0.082119,0.290148,-0.001914,-0.285126,0.006381,-0.025895,0.082027,0.996294,0.111833,-0.033382,-0.008394,228.140762,166.362122,-104.775230,,,,,,
1465828093.20,-3.124230,-0.080646,0.289652,-0.001998,-0.348869,0.006781,-0.017305,0.080559,0.996600,0.105516,-0.031594,-0.007372,226.524033,166.504913,-108.006454,,,,,,
1465828093.21,-3.133136,-0.079251,0.289182,-0.002099,-0.425354,0.008325,-0.008430,0.079168,0.996826,0.100562,-0.031453,-0.010650,226.524033,166.504913,-108.006454,,,,,,
1465828093.22,3.141040,-0.078066,0.288758,-0.004315,-0.491212,0.008737,0.000551,0.077987,0.996954,0.091536,-0.027617,-0.009772,226.524033,166.504913,-108.006454,,,,,,
1465828093.23,3.131995,-0.076946,0.288369,-0.005452,-0.543271,0.011191,0.009569,0.076870,0.996995,0.082457,-0.026272,-0.005082,224.761017,166.615494,-111.463791,,,,,,
1465828093.24,3.123304,-0.075864,0.288037,-0.003362,-0.573022,0.011380,0.018235,0.075791,0.996957,0.069106,-0.026673,-0.004571,224.761017,166.615494,-111.463791,,,,,,
1465828093.25,3.115023,-0.074822,0.287738,-0.005503,-0.580470,0.011425,0.026492,0.074753,0.996850,0.059857,-0.026550,0.000907,224.761017,166.615494,-111.463791,,,,,,
1465828093.26,3.106928,-0.073895,0.287456,-0.005507,-0.581547,0.011432,0.034564,0.073828,0.996672,0.054456,-0.023199,-0.000715,220.992676,166.793259,-118.510178,,,,,,
1465828093.28,3.091797,-0.072071,0.286958,-0.005492,-0.563526,0.013448,0.049646,0.072008,0.996168,0.039053,-0.022631,0.002123,220.992676,166.793259,-118.510178,,,,,,
1465828093.27,3.098994,-0.072886,0.287192,-0.006579,-0.585807,0.011457,0.042472,0.072821,0.996440,0.049065,-0.025580,-0.002254,220.992676,166.793259,-118.510178,,,,,,
1465828093.29,3.085125,-0.071343,0.286752,-0.002258,-0.533799,0.011135,0.056294,0.071283,0.995866,0.035503,-0.021661,0.004469,219.174210,166.888992,-121.709274,,,,,,
1465828093.31,3.072421,-0.069852,0.286388,-0.002195,-0.483906,0.008693,0.068948,0.069796,0.995176,0.034827,-0.021212,0.002734,219.174210,166.888992,-121.709274,,,,,,
1465828093.30,3.078611,-0.070573,0.286563,-0.003287,-0.507257,0.008839,0.062783,0.070514,0.995533,0.036170,-0.021930,0.001568,219.174210,166.888992,-121.709274,,,,,,
1465828093.32,3.066543,-0.069228,0.286208,-0.002167,-0.458434,0.009598,0.074799,0.069173,0.994797,0.033477,-0.018529,0.002228,216.038864,167.048874,-126.981483,,,,,,
1465828093.34,3.056170,-0.067885,0.285904,-0.002080,-0.388366,0.008094,0.085122,0.067833,0.994059,0.024466,-0.019432,0.002951,216.038864,167.048874,-126.981483,,,,,,
1465828093.33,3.061051,-0.068530,0.286044,-0.003195,-0.429770,0.008353,0.080266,0.068476,0.994419,0.031550,-0.020594,0.002835,216.038864,167.048874,-126.981483,,,,,,
1465828093.35,3.052199,-0.067260,0.285796,0.000131,-0.323597,0.006625,0.089073,0.067210,0.993755,0.015221,-0.019450,0.007496,214.659119,167.119568,-129.208847,,,,,,
1465828093.37,3.047621,-0.066147,0.285686,0.005681,-0.146272,0.002324,0.093628,0.066099,0.993411,-0.000107,-0.017592,0.011823,214.659119,167.119568,-129.208847,,,,,,
1465828093.36,3.049326,-0.066655,0.285721,0.001303,-0.238653,0.005029,0.091931,0.066606,0.993535,0.006870,-0.019670,0.010066,214.659119,167.119568,-129.208847,,,,,,
1465828093.38,3.046953,-0.065694,0.285675,0.003685,-0.042209,-0.000459,0.094294,0.065647,0.993378,0.000157,-0.016163,0.011459,-94.839531,239.091400,-142.176300,,,,,,
1465828093.39,3.047257,-0.065236,0.285684,0.004876,0.057603,-0.002149,0.093996,0.065190,0.993436,0.002196,-0.016743,0.011981,-94.839531,239.091400,-142.176300,,,,,,
1465828093.40,3.048454,-0.064847,0.285706,0.006051,0.146794,-0.002708,0.092808,0.064801,0.993573,0.004390,-0.015424,0.009586,-94.839531,239.091400,-142.176300,,,,,,
1465828093.41,3.050355,-0.064489,0.285735,0.010404,0.221120,-0.004234,0.090922,0.064444,0.993771,0.007726,-0.016028,0.006534,-94.870346,239.228546,-141.924805,,,,,,
1465828093.42,3.052596,-0.064100,0.285756,0.010485,0.282707,-0.006749,0.088697,0.064056,0.993997,0.020541,-0.018097,0.007483,-94.870346,239.228546,-141.924805,,,,,,
1465828093.43,3.054940,-0.063764,0.285763,0.012648,0.312428,-0.005869,0.086368,0.063721,0.994223,0.030514,-0.016983,0.001214,-94.870346,239.228546,-141.924805,,,,,,
1465828093.44,3.057078,-0.063474,0.285757,0.011586,0.315608,-0.005890,0.084244,0.063431,0.994424,0.042175,-0.015885,-0.001535,-93.766037,239.443100,-142.296402,,,,,,
1465828093.45,3.058943,-0.063251,0.285738,0.013698,0.300736,-0.006859,0.082391,0.063209,0.994594,0.049445,-0.013877,-0.003551,-93.766037,239.443100,-142.296402,,,,,,
1465828093.46,3.060594,-0.062982,0.285713,0.010480,0.284799,-0.005698,0.080750,0.062940,0.994745,0.051040,-0.014951,-0.006983,-93.766037,239.443100,-142.296402,,,,,,
1465828093.47,3.062032,-0.062756,0.285679,0.008318,0.261429,-0.004488,0.079321,0.062715,0.994874,0.050974,-0.012895,-0.005617,-93.179413,239.522003,-142.548737,,,,,,
1465828093.48,3.063161,-0.062510,0.285645,0.009349,0.233816,-0.005378,0.078198,0.062469,0.994979,0.053455,-0.014038,-0.004470,-93.179413,239.522003,-142.548737,,,,,,
