timestamp,attitude_roll,attitude_pitch,attitude_yaw,rotation_rate_x,rotation_rate_y,rotation_rate_z,gravity_x,gravity_y,gravity_z,user_acc_x,user_acc_y,user_acc_z,magnetic_field_x,magnetic_field_y,magnetic_field_z,latitude(degree),longitude(degree),altitude(meter),speed(m/s),course(degree),timestamp
1467746424.43,0.044197,-0.016408,0.020889,-0.001961,-0.056989,0.000226,0.044177,0.016407,-0.998889,-0.020022,-0.000004,0.004214,27.046637,13.302698,3.899656,,,,,,
1467746424.44,0.043914,-0.016406,0.020900,0.000215,-0.019827,-0.000005,0.043894,0.016405,-0.998901,-0.016870,0.000304,-0.000503,27.054436,13.301793,3.848306,,,,,,
1467746424.45,0.043907,-0.016403,0.020894,0.000246,0.004595,-0.000158,0.043887,0.016403,-0.998902,-0.010424,0.002442,-0.002014,27.054436,13.301793,3.848306,,,,,,
1467746424.46,0.044006,-0.016395,0.020897,0.000254,0.010966,-0.000198,0.043986,0.016395,-0.998898,-0.008600,0.000192,-0.010013,27.054436,13.301793,3.848306,,,,,,
1467746424.47,0.044195,-0.016398,0.020900,0.000270,0.023707,-0.000278,0.044175,0.016397,-0.998889,-0.006302,-0.000665,-0.006787,27.054436,13.301793,3.848306,,,,,,
,,,,,,,,,,,,,,,,29.719885,-95.399176,11.193141,-1.000000,-1.000000,1467746421.10
1467746424.48,0.044491,-0.016405,0.020901,0.000280,0.032201,-0.000331,0.044471,0.016404,-0.998876,-0.000785,0.000579,-0.004542,27.054586,13.301538,3.848122,,,,,,
,,,,,,,,,,,,,,,,29.719876,-95.399154,11.193141,-1.000000,-1.000000,1467746415.53
,,,,,,,,,,,,,,,,29.719885,-95.399176,11.193141,-1.000000,-1.000000,1467746421.10
1467746424.49,0.044722,-0.016364,0.020913,0.001330,0.022638,0.001859,0.044701,0.016363,-0.998866,-0.000466,-0.000708,-0.011830,27.054586,13.301538,3.848122,,,,,,
1467746424.50,0.045008,-0.016392,0.020916,0.001337,0.025830,-0.000290,0.044987,0.016391,-0.998853,0.001598,0.001370,-0.008288,27.052755,13.301261,3.861932,,,,,,
1467746424.51,0.045329,-0.016362,0.020912,0.001343,0.030078,-0.000316,0.045307,0.016362,-0.998839,0.000576,-0.000401,-0.008531,27.052755,13.301261,3.861932,,,,,,
1467746424.52,0.045626,-0.016378,0.020915,0.000270,0.023708,-0.000278,0.045604,0.016377,-0.998825,0.001775,0.000819,-0.010452,27.052755,13.301261,3.861932,,,,,,
1467746424.53,0.045940,-0.016347,0.020913,0.001335,0.023709,-0.000276,0.045918,0.016347,-0.998811,0.003292,-0.000416,-0.011839,27.050402,13.301283,3.878316,,,,,,
1467746424.54,0.046193,-0.016364,0.020917,0.000258,0.016276,0.000834,0.046170,0.016364,-0.998800,0.002872,0.001123,-0.012065,27.050402,13.301283,3.878316,,,,,,
1467746424.55,0.046320,-0.016353,0.020938,-0.001894,-0.000713,0.002002,0.046298,0.016352,-0.998794,0.003629,-0.000468,-0.013871,27.050402,13.301283,3.878316,,,,,,
1467746424.56,0.046334,-0.016355,0.020956,0.002348,-0.015575,0.001035,0.046311,0.016355,-0.998793,0.005950,0.000628,-0.013246,27.046894,13.300599,3.905022,,,,,,
1467746424.57,0.046205,-0.016389,0.020964,-0.001933,-0.032558,0.001138,0.046182,0.016389,-0.998799,0.006934,0.001373,-0.011516,27.046894,13.300599,3.905022,,,,,,
1467746424.58,0.045828,-0.016396,0.020982,-0.001943,-0.038932,0.002242,0.045806,0.016395,-0.998816,0.000901,-0.000236,-0.014536,27.046894,13.300599,3.905022,,,,,,
1467746424.59,0.045486,-0.016383,0.020996,-0.001942,-0.041051,0.001191,0.045464,0.016382,-0.998832,0.003288,-0.001139,-0.008721,27.047668,13.299797,3.902387,,,,,,
1467746424.60,0.045050,-0.016349,0.021007,-0.001970,-0.065467,0.000280,0.045029,0.016348,-0.998852,0.007186,-0.001883,-0.016956,27.047668,13.299797,3.902387,,,,,,
1467746424.61,0.044397,-0.016422,0.021036,-0.004130,-0.085642,0.002533,0.044376,0.016421,-0.998880,0.008724,0.002454,-0.015631,27.047668,13.299797,3.902387,,,,,,
1467746424.62,0.043562,-0.016431,0.021056,-0.003090,-0.107934,0.001610,0.043543,0.016430,-0.998916,0.009131,-0.000881,-0.014527,27.055616,13.297768,3.853920,,,,,,
1467746424.63,0.042475,-0.016447,0.021082,-0.004177,-0.123861,0.002773,0.042457,0.016446,-0.998963,0.006631,-0.000592,-0.014709,27.055616,13.297768,3.853920,,,,,,
1467746424.64,0.041247,-0.016481,0.021112,-0.004185,-0.130231,0.002813,0.041230,0.016480,-0.999014,0.004303,-0.000107,-0.013453,27.055616,13.297768,3.853920,,,,,,
1467746424.65,0.039891,-0.016542,0.021138,-0.005264,-0.141909,0.002885,0.039875,0.016541,-0.999068,0.003415,0.000763,-0.011766,27.063568,13.296453,3.802265,,,,,,
1467746424.66,0.038384,-0.016579,0.021169,-0.004211,-0.151466,0.002946,0.038369,0.016578,-0.999126,0.001731,-0.000175,-0.014439,27.063568,13.296453,3.802265,,,,,,
1467746424.67,0.036924,-0.016650,0.021201,-0.005277,-0.151465,0.002945,0.036911,0.016650,-0.999180,0.003571,0.001447,-0.010250,27.063568,13.296453,3.802265,,,,,,
,,,,,,,,,,,,,,,,29.719893,-95.399195,11.193141,-1.000000,-1.000000,1467746424.67
,,,,,,,,,,,,,,,,29.719899,-95.399209,11.193141,-1.000000,-1.000000,1467746424.68
,,,,,,,,,,,,,,,,29.719905,-95.399223,11.193141,-1.000000,-1.000000,1467746424.69
,,,,,,,,,,,,,,,,29.719910,-95.399237,11.193141,-1.000000,-1.000000,1467746424.70
1467746424.69,0.033567,-0.016734,0.021262,-0.005299,-0.171635,0.002007,0.033556,0.016734,-0.999297,0.001448,0.000356,-0.011323,27.085749,13.292672,3.654677,,,,,,
1467746424.68,0.035320,-0.016678,0.021229,-0.005300,-0.170576,0.003065,0.035307,0.016677,-0.999237,0.005006,-0.001159,-0.013916,27.085749,13.292672,3.654677,,,,,,
1467746424.70,0.031831,-0.016769,0.021291,-0.006346,-0.155713,0.002970,0.031821,0.016769,-0.999353,-0.004538,-0.000716,-0.005576,27.085749,13.292672,3.654677,,,,,,
1467746424.71,0.030163,-0.016806,0.021317,-0.002066,-0.138732,0.002868,0.030154,0.016805,-0.999404,-0.009097,0.000590,-0.006425,27.098640,13.290799,3.564831,,,,,,
1467746424.72,0.028718,-0.016897,0.021325,-0.003101,-0.116435,0.001663,0.028710,0.016896,-0.999445,-0.009240,0.002513,-0.003363,27.098640,13.290799,3.564831,,,,,,
1467746424.73,0.027486,-0.016947,0.021350,-0.002029,-0.107947,0.002675,0.027478,0.016946,-0.999479,-0.005277,0.001486,-0.005892,27.098640,13.290799,3.564831,,,,,,
1467746424.74,0.026323,-0.017001,0.021367,-0.003100,-0.114315,0.001649,0.026316,0.017000,-0.999509,0.000005,0.000975,-0.010623,27.120922,13.287821,3.402805,,,,,,
1467746424.75,0.025115,-0.017042,0.021385,-0.005233,-0.117500,0.001667,0.025108,0.017041,-0.999539,-0.000114,-0.000134,-0.010226,27.120922,13.287821,3.402805,,,,,,
1467746424.76,0.023870,-0.017071,0.021402,-0.004176,-0.123872,0.001708,0.023864,0.017070,-0.999569,0.000733,-0.000164,-0.011188,27.120922,13.287821,3.402805,,,,,,
1467746424.77,0.022557,-0.017132,0.021420,-0.004184,-0.130243,0.001748,0.022552,0.017131,-0.999599,0.000260,0.001042,-0.009190,27.129337,13.286638,3.339740,,,,,,
1467746424.79,0.019919,-0.017236,0.021463,-0.004161,-0.111135,0.001628,0.019914,0.017235,-0.999653,-0.005007,0.001610,-0.006588,27.129337,13.286638,3.339740,,,,,,
1467746424.78,0.021209,-0.017168,0.021448,-0.004183,-0.128124,0.002799,0.021204,0.017167,-0.999628,-0.001215,-0.000672,-0.009314,27.129337,13.286638,3.339740,,,,,,
1467746424.80,0.018764,-0.017289,0.021489,-0.004159,-0.107954,0.002673,0.018760,0.017288,-0.999675,-0.003456,0.000397,-0.007558,27.147326,13.283978,3.201293,,,,,,
1467746424.81,0.017628,-0.017337,0.021501,-0.005227,-0.112199,0.001634,0.017625,0.017337,-0.999694,0.000335,-0.000064,-0.008301,27.147326,13.283978,3.201293,,,,,,
1467746424.82,0.016488,-0.017380,0.021521,-0.004147,-0.098401,0.002613,0.016485,0.017379,-0.999713,-0.004156,-0.000106,-0.007535,27.147326,13.283978,3.201293,,,,,,
1467746424.83,0.015476,-0.017420,0.021532,-0.000916,-0.070797,0.001378,0.015473,0.017419,-0.999729,-0.010209,0.001029,-0.003918,27.155062,13.282689,3.140452,,,,,,
1467746424.84,0.014715,-0.017441,0.021544,-0.000878,-0.038952,0.002243,0.014712,0.017440,-0.999740,-0.013644,0.000367,-0.001451,27.155062,13.282689,3.140452,,,,,,
1467746424.85,0.014312,-0.017478,0.021540,-0.000836,-0.008160,-0.000079,0.014309,0.017477,-0.999745,-0.012890,0.001108,0.000798,27.155062,13.282689,3.140452,,,,,,
1467746424.86,0.014117,-0.017482,0.021542,0.000230,-0.007101,-0.000085,0.014115,0.017481,-0.999748,-0.006851,-0.000116,-0.006173,27.165817,13.281262,3.052223,,,,,,
1467746424.87,0.014022,-0.017493,0.021540,-0.001895,-0.003916,-0.000107,0.014019,0.017492,-0.999749,-0.001568,0.000315,-0.009819,27.165817,13.281262,3.052223,,,,,,
1467746424.88,0.013973,-0.017524,0.021542,-0.001881,0.008821,0.000877,0.013971,0.017523,-0.999749,-0.005014,0.000696,-0.005515,27.165817,13.281262,3.052223,,,,,,
1467746424.89,0.014035,-0.017528,0.021548,0.000267,0.023682,0.000786,0.014032,0.017527,-0.999748,-0.007715,0.000418,-0.005852,27.166708,13.281205,3.044550,,,,,,
1467746424.90,0.014240,-0.017554,0.021557,0.001351,0.041726,0.001738,0.014238,0.017553,-0.999745,-0.008149,0.001841,-0.003139,27.166708,13.281205,3.044550,,,,,,
1467746424.91,0.014675,-0.017563,0.021561,0.001373,0.059774,0.001625,0.014672,0.017562,-0.999738,-0.006143,0.001771,-0.003695,27.166708,13.281205,3.044550,,,,,,
1467746424.92,0.015168,-0.017552,0.021565,0.002436,0.056589,0.000582,0.015165,0.017551,-0.999731,-0.005369,0.001186,-0.008127,27.164978,13.280453,3.063212,,,,,,
1467746424.93,0.015696,-0.017507,0.021555,0.001367,0.049164,-0.001502,0.015693,0.017506,-0.999724,0.000726,-0.001454,-0.010271,27.164978,13.280453,3.063212,,,,,,
1467746424.94,0.016165,-0.017475,0.021560,0.001365,0.051281,0.000614,0.016162,0.017474,-0.999717,-0.002093,-0.000506,-0.010034,27.164978,13.280453,3.063212,,,,,,
1467746424.95,0.016677,-0.017434,0.021553,0.002449,0.064023,-0.000529,0.016673,0.017433,-0.999709,-0.005260,-0.000969,-0.008348,27.161766,13.280764,3.090207,,,,,,
1467746424.96,0.017233,-0.017450,0.021534,0.001397,0.071459,-0.002706,0.017230,0.017449,-0.999699,-0.007449,0.002006,-0.008235,27.161766,13.280764,3.090207,,,,,,
1467746424.97,0.018022,-0.017452,0.021507,0.003572,0.109676,-0.001879,0.018018,0.017451,-0.999685,-0.010969,0.001714,-0.001230,27.161766,13.280764,3.090207,,,,,,
,,,,,,,,,,,,,,,,29.719967,-95.399074,10.801538,-1.000000,-1.000000,1467746424.94
1467746424.98,0.019152,-0.017432,0.021486,0.004680,0.146829,-0.001047,0.019148,0.017431,-0.999665,-0.016707,0.001383,0.001664,27.153879,13.282210,3.152665,,,,,,
1467746424.99,0.020490,-0.017374,0.021456,0.005752,0.148955,-0.003188,0.020485,0.017373,-0.999639,-0.008843,-0.000161,-0.006342,27.153879,13.282210,3.152665,,,,,,
1467746425.00,0.021938,-0.017390,0.021430,0.004701,0.162753,-0.002211,0.021933,0.017389,-0.999608,-0.009070,0.003439,-0.003611,27.153879,13.282210,3.152665,,,,,,
1467746425.02,0.025711,-0.017286,0.021387,0.007977,0.229635,-0.001563,0.025705,0.017285,-0.999520,-0.012018,0.004505,0.001611,27.145355,13.283817,3.218638,,,,,,
1467746425.01,0.023651,-0.017276,0.021413,0.006877,0.198850,-0.002436,0.023645,0.017275,-0.999571,-0.011133,-0.002916,-0.004274,27.145355,13.283817,3.218638,,,,,,
1467746425.03,0.027905,-0.017182,0.021355,0.007993,0.240252,-0.002694,0.027898,0.017181,-0.999463,-0.012013,-0.001434,-0.007358,27.145355,13.283817,3.218638,,,,,,
1467746425.04,0.030338,-0.017151,0.021312,0.006957,0.262551,-0.003900,0.030329,0.017150,-0.999393,-0.009745,0.002992,-0.001553,27.119474,13.287060,3.417295,,,,,,
1467746425.05,0.032937,-0.017002,0.021265,0.011248,0.286966,-0.004049,0.032926,0.017001,-0.999313,-0.013578,-0.002444,-0.005646,27.119474,13.287060,3.417295,,,,,,
1467746425.06,0.035832,-0.016937,0.021211,0.010221,0.317754,-0.004243,0.035819,0.016936,-0.999215,-0.014655,0.002245,0.001946,27.119474,13.287060,3.417295,,,,,,
1467746425.08,0.042391,-0.016817,0.021097,0.011339,0.360220,-0.005573,0.042372,0.016817,-0.998960,-0.011443,0.003264,0.000837,27.100811,13.289988,3.551310,,,,,,
1467746425.07,0.038960,-0.016865,0.021149,0.008130,0.348542,-0.004438,0.038944,0.016864,-0.999099,-0.016346,0.001401,-0.002351,27.100811,13.289988,3.551310,,,,,,
1467746425.09,0.045851,-0.016682,0.021041,0.012389,0.347477,-0.005492,0.045828,0.016681,-0.998810,-0.006369,-0.000812,-0.008316,27.100811,13.289988,3.551310,,,,,,
1467746425.10,0.049434,-0.016558,0.020992,0.009170,0.327310,-0.005369,0.049408,0.016557,-0.998641,0.008500,-0.001558,-0.015473,27.049894,13.296938,3.896701,,,,,,
1467746425.11,0.052701,-0.016445,0.020953,0.010199,0.301824,-0.003079,0.052670,0.016444,-0.998477,0.009754,-0.000758,-0.013883,27.049894,13.296938,3.896701,,,,,,
1467746425.12,0.055720,-0.016318,0.020910,0.008050,0.282681,-0.004017,0.055683,0.016318,-0.998315,0.007671,-0.001867,-0.015250,27.049894,13.296938,3.896701,,,,,,
1467746425.13,0.058459,-0.016218,0.020867,0.009090,0.262508,-0.003890,0.058418,0.016217,-0.998160,0.003517,-0.000119,-0.012475,27.021563,13.299953,4.078745,,,,,,
1467746425.14,0.061079,-0.016096,0.020824,0.009081,0.255076,-0.003843,0.061034,0.016095,-0.998006,0.002947,-0.001950,-0.014354,27.021563,13.299953,4.078745,,,,,,
1467746425.15,0.063738,-0.015986,0.020772,0.011200,0.244463,-0.004839,0.063687,0.015985,-0.997842,0.010013,-0.000406,-0.013175,27.021563,13.299953,4.078745,,,,,,
1467746425.16,0.065944,-0.015913,0.020742,0.006893,0.209420,-0.002494,0.065887,0.015912,-0.997700,0.013016,0.000445,-0.020183,26.972874,13.306088,4.370552,,,,,,
1467746425.17,0.067666,-0.015852,0.020710,0.006831,0.160577,-0.002188,0.067606,0.015851,-0.997586,0.009756,-0.000364,-0.018512,26.972874,13.306088,4.370552,,,,,,
1467746425.18,0.069097,-0.015817,0.020692,0.002543,0.137219,-0.002046,0.069033,0.015816,-0.997489,0.009672,0.000206,-0.015313,26.954784,13.308142,4.474664,,,,,,
1467746425.19,0.070372,-0.015805,0.020682,0.004638,0.111734,-0.000819,0.070305,0.015804,-0.997400,0.005485,0.001545,-0.017034,26.954784,13.308142,4.474664,,,,,,
1467746425.20,0.071357,-0.015775,0.020667,0.002491,0.095811,-0.001786,0.071287,0.015775,-0.997331,0.007540,-0.001538,-0.012526,26.954784,13.308142,4.474664,,,,,,
1467746425.21,0.072161,-0.015751,0.020659,0.001399,0.075634,-0.000596,0.072089,0.015751,-0.997274,0.004571,0.000485,-0.014430,26.942251,13.309019,4.546947,,,,,,
1467746425.22,0.072850,-0.015719,0.020649,-0.000743,0.063959,-0.001590,0.072777,0.015719,-0.997224,0.002693,-0.001070,-0.012968,26.942251,13.309019,4.546947,,,,,,
1467746425.23,0.073429,-0.015720,0.020642,0.002442,0.058645,-0.000489,0.073354,0.015719,-0.997182,-0.000249,0.001188,-0.010157,26.942251,13.309019,4.546947,,,,,,
1467746425.24,0.073965,-0.015687,0.020641,0.002434,0.053333,0.000609,0.073889,0.015686,-0.997143,0.000543,-0.000259,-0.012394,26.927776,13.310328,4.628132,,,,,,
1467746425.25,0.074453,-0.015667,0.020634,0.002441,0.055462,-0.001533,0.074375,0.015666,-0.997107,-0.002781,0.000050,-0.006875,26.927776,13.310328,4.628132,,,,,,
1467746425.26,0.074972,-0.015682,0.020636,0.002452,0.068195,0.000516,0.074892,0.015682,-0.997068,-0.006823,0.002247,-0.006716,26.927776,13.310328,4.628132,,,,,,
1467746425.27,0.075644,-0.015697,0.020620,0.003536,0.080940,-0.001692,0.075562,0.015696,-0.997018,-0.005708,0.002675,-0.004340,26.927776,13.310328,4.628132,,,,,,
1467746425.28,0.076442,-0.015717,0.020603,0.002491,0.098986,-0.000742,0.076358,0.015716,-0.996957,-0.007297,0.002686,-0.004157,26.917187,13.310994,4.687445,,,,,,
1467746425.29,0.077415,-0.015721,0.020590,0.002515,0.118096,-0.000862,0.077328,0.015720,-0.996882,-0.009152,0.001598,-0.003927,26.917187,13.310994,4.687445,,,,,,
1467746425.30,0.078541,-0.015729,0.020566,0.003600,0.132960,-0.002019,0.078450,0.015728,-0.996794,-0.009511,0.001804,-0.005632,26.908419,13.311735,4.735430,,,,,,
1467746425.31,0.079913,-0.015661,0.020539,0.005754,0.151011,-0.003194,0.079818,0.015661,-0.996686,-0.005981,-0.000814,-0.006411,26.908419,13.311735,4.735430,,,,,,
1467746425.32,0.081338,-0.015602,0.020521,0.005761,0.159497,-0.001118,0.081239,0.015602,-0.996573,-0.008286,-0.000297,-0.007502,26.908419,13.311735,4.735430,,,,,,
1467746425.33,0.082896,-0.015533,0.020496,0.005788,0.180730,-0.001252,0.082791,0.015533,-0.996446,-0.010754,-0.000335,-0.002959,26.895884,13.313291,4.801803,,,,,,
1467746425.34,0.084796,-0.015477,0.020458,0.007955,0.209398,-0.002494,0.084684,0.015477,-0.996288,-0.007215,0.000911,-0.004109,26.895884,13.313291,4.801803,,,,,,
1467746425.35,0.086848,-0.015409,0.020430,0.007967,0.218952,-0.002554,0.086729,0.015409,-0.996113,-0.007399,0.000384,-0.007443,26.895884,13.313291,4.801803,,,,,,
1467746425.36,0.088952,-0.015335,0.020390,0.007979,0.228506,-0.002614,0.088824,0.015335,-0.995929,-0.008303,0.000260,-0.005703,26.860773,13.316925,4.984793,,,,,,
1467746425.37,0.091258,-0.015267,0.020342,0.008014,0.255051,-0.003845,0.091121,0.015267,-0.995723,-0.010387,0.000526,-0.001912,26.860773,13.316925,4.984793,,,,,,
1467746425.38,0.093839,-0.015180,0.020285,0.010177,0.281592,-0.004009,0.093691,0.015179,-0.995486,-0.011003,0.000324,-0.004728,26.860773,13.316925,4.984793,,,,,,
1467746425.39,0.096587,-0.015098,0.020222,0.009131,0.295396,-0.005161,0.096426,0.015097,-0.995226,-0.010656,0.000909,-0.005186,26.837528,13.319687,5.101245,,,,,,
1467746425.40,0.099499,-0.014980,0.020157,0.010221,0.314505,-0.005280,0.099324,0.014979,-0.994942,-0.010700,-0.001094,-0.002296,26.837528,13.319687,5.101245,,,,,,
1467746425.41,0.102579,-0.014863,0.020087,0.011323,0.346351,-0.004414,0.102388,0.014863,-0.994634,-0.016847,0.000076,0.000661,26.837528,13.319687,5.101245,,,,,,
1467746425.42,0.106104,-0.014756,0.020022,0.014582,0.398372,-0.004738,0.105893,0.014756,-0.994268,-0.019819,0.001205,0.005117,26.837528,13.319687,5.101245,,,,,,
1467746425.43,0.110173,-0.014631,0.019941,0.014653,0.453583,-0.006148,0.109939,0.014630,-0.993831,-0.021758,0.000720,0.005183,26.775209,13.327688,5.399119,,,,,,
1467746425.44,0.114799,-0.014504,0.019845,0.015773,0.496054,-0.007478,0.114535,0.014503,-0.993313,-0.015872,0.001519,0.001339,26.775209,13.327688,5.399119,,,,,,
1467746425.45,0.119722,-0.014357,0.019748,0.016866,0.518347,-0.007617,0.119424,0.014357,-0.992739,-0.013696,0.000765,-0.002317,26.775209,13.327688,5.399119,,,,,,
1467746425.46,0.124895,-0.014175,0.019651,0.017965,0.545950,-0.007789,0.124558,0.014174,-0.992111,-0.014085,-0.000365,-0.000702,26.675007,13.338238,5.850219,,,,,,
1467746425.47,0.130480,-0.014047,0.019546,0.019083,0.588419,-0.008054,0.130098,0.014046,-0.991402,-0.014360,0.002510,0.003395,26.675007,13.338238,5.850219,,,,,,
1467746425.48,0.136464,-0.013867,0.019421,0.022334,0.633012,-0.009395,0.136028,0.013867,-0.990608,-0.020138,0.001727,0.004783,26.608381,13.344527,6.132468,,,,,,
1467746425.49,0.142975,-0.013646,0.019285,0.023469,0.687162,-0.010798,0.142475,0.013646,-0.989704,-0.026554,-0.000829,0.007450,26.608381,13.344527,6.132468,,,,,,
1467746425.50,0.150264,-0.013444,0.019134,0.022499,0.762548,-0.011272,0.149686,0.013443,-0.988642,-0.028745,0.001205,0.011073,26.526979,13.352655,6.458751,,,,,,
1467746425.51,0.158446,-0.013202,0.018962,0.027926,0.841124,-0.013889,0.157770,0.013201,-0.987388,-0.022227,0.000882,0.012778,26.526979,13.352655,6.458751,,,,,,
1467746425.52,0.167200,-0.012935,0.018779,0.031181,0.889965,-0.014192,0.166409,0.012934,-0.985972,-0.020596,0.001043,0.006861,26.526979,13.352655,6.458751,,,,,,
1467746425.53,0.176475,-0.012656,0.018594,0.031250,0.946237,-0.013480,0.175547,0.012656,-0.984390,-0.027872,0.000909,0.011001,26.420521,13.362617,6.861939,,,,,,
1467746425.54,0.186606,-0.012343,0.018390,0.035626,1.038614,-0.015120,0.185511,0.012343,-0.982565,-0.036387,0.002016,0.018743,26.420521,13.362617,6.861939,,,,,,
1467746425.55,0.197878,-0.012003,0.018153,0.038972,1.157538,-0.016927,0.196575,0.012003,-0.980415,-0.038479,0.002691,0.025658,26.420521,13.362617,6.861939,,,,,,
1467746425.56,0.210281,-0.011624,0.017897,0.043365,1.264777,-0.017595,0.208721,0.011624,-0.977906,-0.033580,0.001285,0.019578,26.121948,13.387693,7.880562,,,,,,
1467746425.57,0.223418,-0.011247,0.017613,0.043437,1.319994,-0.019005,0.221550,0.011246,-0.975084,-0.002556,0.002059,0.004045,26.121948,13.387693,7.880562,,,,,,
1467746425.58,0.235895,-0.010894,0.017334,0.036914,1.212755,-0.018339,0.233700,0.010894,-0.972248,0.012776,-0.004210,-0.035092,26.121948,13.387693,7.880562,,,,,,
1467746425.59,0.247327,-0.010575,0.017066,0.035752,1.132065,-0.019963,0.244799,0.010575,-0.969516,0.007047,-0.000092,-0.019147,25.907314,13.404323,8.533747,,,,,,
1467746425.60,0.258806,-0.010247,0.016801,0.041094,1.153287,-0.015833,0.255913,0.010246,-0.966645,-0.004311,0.005333,-0.006972,25.907314,13.404323,8.533747,,,,,,
1467746425.61,0.269983,-0.009934,0.016527,0.034636,1.092776,-0.018654,0.266702,0.009934,-0.963728,0.030143,-0.009690,-0.024111,25.907314,13.404323,8.533747,,,,,,
1467746425.62,0.280045,-0.009687,0.016286,0.029165,0.980219,-0.014760,0.276386,0.009687,-0.960998,0.015866,0.003466,-0.032380,25.472548,13.437171,9.709862,,,,,,
1467746425.63,0.289698,-0.009425,0.016067,0.032345,0.970658,-0.013632,0.285650,0.009425,-0.958288,0.010828,-0.001659,-0.007990,25.472548,13.437171,9.709862,,,,,,
1467746425.64,0.299213,-0.009163,0.015819,0.029110,0.932443,-0.016589,0.294756,0.009163,-0.955529,0.012525,-0.003227,-0.023277,25.472548,13.437171,9.709862,,,,,,
1467746425.65,0.308171,-0.008970,0.015587,0.026936,0.897405,-0.016372,0.303304,0.008970,-0.952852,-0.022985,-0.001493,-0.010192,25.272161,13.450946,10.201939,,,,,,
1467746425.66,0.317989,-0.008699,0.015338,0.035598,1.014196,-0.016031,0.312645,0.008699,-0.949830,-0.031639,0.010405,0.026719,25.272161,13.450946,10.201939,,,,,,
1467746425.67,0.328678,-0.008415,0.015065,0.036736,1.072595,-0.016396,0.322780,0.008415,-0.946437,-0.013225,-0.004997,-0.008260,25.272161,13.450946,10.201939,,,,,,
1467746425.68,0.338809,-0.008132,0.014808,0.033435,0.988711,-0.014809,0.332353,0.008132,-0.943120,0.011626,0.004960,-0.018657,24.846910,13.480729,11.162014,,,,,,
1467746425.69,0.348356,-0.007899,0.014564,0.031260,0.950490,-0.015636,0.341342,0.007899,-0.939906,0.006253,-0.002650,-0.020086,24.846910,13.480729,11.162014,,,,,,
1467746425.70,0.357893,-0.007644,0.014320,0.031267,0.957920,-0.014618,0.350291,0.007644,-0.936610,-0.009669,0.000718,-0.003835,24.618446,13.495611,11.640029,,,,,,
1467746425.71,0.367785,-0.007384,0.014063,0.034517,1.002514,-0.014894,0.359540,0.007384,-0.933101,-0.024152,0.000764,0.005473,24.618446,13.495611,11.640029,,,,,,
1467746425.72,0.378341,-0.007098,0.013787,0.036736,1.073653,-0.015338,0.369370,0.007098,-0.929255,-0.020509,-0.001376,0.006602,24.618446,13.495611,11.640029,,,,,,
1467746425.73,0.389115,-0.006831,0.013508,0.035662,1.066221,-0.015293,0.379361,0.006831,-0.925223,0.000476,0.000707,-0.010934,24.383799,13.510496,12.107294,,,,,,
1467746425.74,0.399316,-0.006594,0.013235,0.031336,1.011013,-0.016015,0.388780,0.006594,-0.921307,-0.004670,-0.001665,-0.024005,24.383799,13.510496,12.107294,,,,,,
1467746425.75,0.409596,-0.006332,0.012942,0.037760,1.037557,-0.017240,0.398231,0.006332,-0.917263,-0.014976,0.001694,0.001873,24.383799,13.510496,12.107294,,,,,,
1467746425.76,0.420492,-0.006064,0.012638,0.036784,1.109758,-0.016629,0.408202,0.006064,-0.912871,-0.031997,0.000223,0.010009,23.848080,13.543528,13.097009,,,,,,
1467746425.77,0.432238,-0.005781,0.012305,0.040086,1.194703,-0.018223,0.418897,0.005781,-0.908015,-0.035047,0.000292,0.010478,23.848080,13.543528,13.097009,,,,,,
1467746425.78,0.444557,-0.005467,0.011954,0.044405,1.242482,-0.018519,0.430052,0.005467,-0.902788,-0.030058,0.000377,0.009492,23.848080,13.543528,13.097009,,,,,,
1467746425.79,0.457577,-0.005163,0.011597,0.044514,1.330609,-0.018007,0.441770,0.005163,-0.897114,-0.041166,0.003366,0.016712,23.540682,13.562175,13.623264,,,,,,
1467746425.80,0.471489,-0.004830,0.011206,0.046730,1.396445,-0.020546,0.454208,0.004830,-0.890882,-0.005722,0.001517,0.003553,23.540682,13.562175,13.623264,,,,,,
1467746425.81,0.484759,-0.004542,0.010842,0.041277,1.294512,-0.018848,0.465991,0.004542,-0.884778,0.013410,-0.002176,-0.033328,23.540682,13.562175,13.623264,,,,,,
1467746425.82,0.497074,-0.004267,0.010492,0.040115,1.219122,-0.017312,0.476851,0.004267,-0.878974,0.020296,-0.001811,-0.024331,22.783192,13.604874,14.816317,,,,,,
1467746425.83,0.509112,-0.004004,0.010151,0.040093,1.201071,-0.017199,0.487398,0.004004,-0.873171,0.005461,-0.000815,-0.014479,22.783192,13.604874,14.816317,,,,,,
1467746425.84,0.521070,-0.003735,0.009801,0.041151,1.195761,-0.017164,0.497805,0.003735,-0.867281,-0.005267,0.000736,-0.011351,22.783192,13.604874,14.816317,,,,,,
1467746425.85,0.533178,-0.003490,0.009434,0.041187,1.221250,-0.019453,0.508270,0.003490,-0.861191,-0.028396,-0.001324,0.002762,22.410961,13.624923,15.355781,,,,,,
1467746425.86,0.546432,-0.003230,0.009044,0.042437,1.368840,-0.020377,0.519640,0.003230,-0.854379,-0.062654,0.002019,0.029581,22.410961,13.624923,15.355781,,,,,,
1467746425.87,0.561625,-0.002931,0.008565,0.053344,1.569528,-0.025883,0.532560,0.002931,-0.846387,-0.081907,0.002730,0.046842,22.410961,13.624923,15.355781,,,,,,
1467746425.88,0.579010,-0.002567,0.008011,0.062152,1.798875,-0.028377,0.547194,0.002567,-0.837002,-0.088805,0.004894,0.049267,21.563446,13.670469,16.487139,,,,,,
1467746425.89,0.598222,-0.002179,0.007395,0.066586,1.936911,-0.030303,0.563173,0.002179,-0.826336,-0.023653,0.002872,0.031048,21.563446,13.670469,16.487139,,,,,,
1467746425.90,0.616808,-0.001829,0.006808,0.063250,1.828600,-0.026434,0.578434,0.001829,-0.815727,-0.004673,0.003359,-0.024086,21.563446,13.670469,16.487139,,,,,,
1467746425.91,0.635007,-0.001504,0.006241,0.060056,1.828601,-0.026437,0.593182,0.001504,-0.805067,0.005786,0.001105,-0.012698,20.938271,13.703935,17.247627,,,,,,
1467746425.92,0.652956,-0.001173,0.005638,0.061048,1.767022,-0.028178,0.607536,0.001173,-0.794291,0.028557,-0.001478,-0.017812,20.938271,13.703935,17.247627,,,,,,
1467746425.94,0.687793,-0.000610,0.004469,0.060088,1.845605,-0.031866,0.634833,0.000610,-0.772649,-0.063605,-0.000793,0.034200,20.282511,13.736758,17.989187,,,,,,
1467746425.93,0.669902,-0.000876,0.005069,0.057746,1.683138,-0.026591,0.620909,0.000876,-0.783882,-0.003538,-0.000922,-0.023567,20.282511,13.736758,17.989187,,,,,,
1467746425.95,0.708567,-0.000295,0.003756,0.073264,2.160959,-0.035959,0.650746,0.000295,-0.759295,-0.127828,0.004451,0.073657,20.282511,13.736758,17.989187,,,,,,
1467746425.96,0.733452,0.000082,0.002898,0.088739,2.612221,-0.039838,0.669438,-0.000082,-0.742868,-0.176060,0.011312,0.117059,20.282511,13.736758,17.989187,,,,,,
1467746425.97,0.763031,0.000491,0.001895,0.101015,3.057119,-0.045810,0.691115,-0.000491,-0.722744,-0.156035,0.004366,0.117092,18.890375,13.806752,19.396313,,,,,,
1467746425.98,0.796031,0.000921,0.000767,0.112075,3.380972,-0.051023,0.714585,-0.000921,-0.699548,-0.155625,0.009267,0.109323,18.890375,13.806752,19.396313,,,,,,
1467746425.99,0.833444,0.001366,-0.000521,0.128679,3.878961,-0.058388,0.740250,-0.001366,-0.672330,-0.183320,0.009255,0.142941,17.795383,13.858828,20.370243,,,,,,
1467746426.00,0.876359,0.001827,-0.002044,0.150660,4.417299,-0.067064,0.768413,-0.001827,-0.639952,-0.174083,0.011531,0.178420,17.795383,13.858828,20.370243,,,,,,
1467746426.01,0.923614,0.002307,-0.003776,0.168186,4.806975,-0.070555,0.797783,-0.002307,-0.602940,-0.086068,0.012835,0.144245,17.795383,13.858828,20.370243,,,,,,
1467746426.02,0.970768,0.002694,-0.005521,0.158355,4.607363,-0.070377,0.825317,-0.002694,-0.564664,0.142792,-0.001853,0.004132,14.282102,14.015745,22.875099,,,,,,
1467746426.03,1.010908,0.002922,-0.006970,0.126463,3.811004,-0.056899,0.847311,-0.002922,-0.531090,0.238230,-0.012108,-0.163078,14.282102,14.015745,22.875099,,,,,,
1467746426.04,1.045216,0.003032,-0.008207,0.108845,3.350184,-0.051898,0.865029,-0.003032,-0.501712,0.193031,-0.012563,-0.101300,14.282102,14.015745,22.875099,,,,,,
1467746426.05,1.077629,0.003106,-0.009369,0.103332,3.199411,-0.050958,0.880834,-0.003106,-0.473416,0.134150,-0.012122,-0.042301,12.217077,14.102946,23.990408,,,,,,
1467746426.06,1.107872,0.003106,-0.010483,0.096666,2.976439,-0.050630,0.894746,-0.003106,-0.446564,0.061644,-0.008979,-0.039047,12.217077,14.102946,23.990408,,,,,,
1467746426.07,1.138511,0.003106,-0.011640,0.106415,3.107038,-0.052504,0.908006,-0.003106,-0.418945,0.025740,0.006905,0.028167,12.217077,14.102946,23.990408,,,,,,
1467746426.08,1.169294,0.003049,-0.012805,0.103146,3.047579,-0.052134,0.920471,-0.003049,-0.390800,0.014618,-0.003542,-0.002923,9.039783,14.228456,25.288792,,,,,,
1467746426.09,1.200321,0.002994,-0.013964,0.106468,3.154811,-0.049610,0.932151,-0.002994,-0.362057,-0.033927,0.011692,0.037319,9.039783,14.228456,25.288792,,,,,,
1467746426.10,1.233497,0.002890,-0.015203,0.116301,3.352305,-0.051904,0.943648,-0.002890,-0.330939,-0.030943,-0.001458,0.042349,9.039783,14.228456,25.288792,,,,,,
1467746426.11,1.267756,0.002761,-0.016493,0.117482,3.443570,-0.052467,0.954430,-0.002761,-0.298423,-0.026436,0.009765,0.040427,7.447124,14.290338,25.768513,,,,,,
1467746426.12,1.302441,0.002632,-0.017806,0.121733,3.442497,-0.049263,0.964205,-0.002632,-0.265145,0.077040,0.002449,0.006967,7.447124,14.290338,25.768513,,,,,,
1467746426.13,1.332681,0.002440,-0.018948,0.099688,2.842592,-0.046587,0.971781,-0.002440,-0.235871,0.208700,-0.010301,-0.124328,7.447124,14.290338,25.768513,,,,,,
1467746426.14,1.356484,0.002279,-0.019795,0.075514,2.259648,-0.033375,0.977120,-0.002279,-0.212675,0.206458,-0.004038,-0.159761,3.956979,14.421980,26.458241,,,,,,
1467746426.15,1.376373,0.002104,-0.020512,0.061221,1.897583,-0.032183,0.981157,-0.002104,-0.193201,0.185988,-0.017519,-0.117804,3.956979,14.421980,26.458241,,,,,,
1467746426.16,1.393330,0.001924,-0.021085,0.052391,1.654426,-0.027474,0.984292,-0.001924,-0.176536,0.085990,-0.009550,-0.078332,3.956979,14.421980,26.458241,,,,,,
1467746426.17,1.410946,0.001740,-0.021681,0.055799,1.824313,-0.028536,0.987250,-0.001740,-0.159170,-0.009741,-0.003615,0.020071,2.788523,14.462813,26.584597,,,,,,
1467746426.18,1.430724,0.001514,-0.022373,0.066685,2.010132,-0.032884,0.990205,-0.001514,-0.139615,-0.039155,0.003590,0.033719,2.788523,14.462813,26.584597,,,,,,
1467746426.19,1.451770,0.001254,-0.023092,0.067928,2.148171,-0.035877,0.992924,-0.001254,-0.118746,-0.072025,0.004489,0.030779,2.788523,14.462813,26.584597,,,,,,
1467746426.20,1.475827,0.000973,-0.023932,0.085420,2.512361,-0.038144,0.995493,-0.000973,-0.094827,-0.122187,0.015667,0.071206,0.761542,14.529412,26.683437,,,,,,
1467746426.21,1.504302,0.000606,-0.024919,0.097689,2.947709,-0.046184,0.997790,-0.000606,-0.066446,-0.129443,0.006573,0.104974,0.761542,14.529412,26.683437,,,,,,
1467746426.22,1.536275,0.000163,-0.026029,0.110882,3.274746,-0.051415,0.999404,-0.000163,-0.034514,-0.124877,0.013637,0.088423,0.761542,14.529412,26.683437,,,,,,
1467746426.23,1.571950,-0.000381,-0.027237,0.123099,3.671863,-0.057087,0.999999,0.000381,0.001154,-0.122588,0.008576,0.101126,-0.651722,14.576398,26.660709,,,,,,
1467746426.24,1.611643,-0.000997,-0.028576,0.140609,4.048798,-0.060498,0.999165,0.000997,0.040835,-0.096989,0.010966,0.114667,-0.651722,14.576398,26.660709,,,,,,
1467746426.25,1.653679,-0.001726,-0.029947,0.139744,4.200651,-0.065709,0.996566,0.001726,0.082788,-0.020766,0.001066,0.072120,-0.651722,14.576398,26.660709,,,,,,
1467746426.26,1.696245,-0.002523,-0.031290,0.141950,4.262237,-0.066093,0.992139,0.002523,0.125119,0.004321,-0.001546,0.038104,-0.651722,14.576398,26.660709,,,,,,
1467746426.27,1.739168,-0.003408,-0.032578,0.139826,4.261186,-0.069282,0.985853,0.003408,0.167577,0.097658,-0.008093,0.034907,-4.640184,14.704050,26.190634,,,,,,
1467746426.28,1.779469,-0.004306,-0.033746,0.127709,3.941583,-0.065161,0.978298,0.004306,0.207160,0.145070,-0.009265,-0.044654,-4.640184,14.704050,26.190634,,,,,,
1467746426.29,1.816578,-0.005187,-0.034801,0.119886,3.649585,-0.061208,0.969934,0.005187,0.243311,0.148657,-0.003493,-0.053278,-6.877657,14.769531,25.656353,,,,,,
1467746426.30,1.852339,-0.006061,-0.035745,0.114452,3.565700,-0.058559,0.960610,0.006061,0.277832,0.099112,-0.000323,-0.029007,-6.877657,14.769531,25.656353,,,,,,
1467746426.31,1.888696,-0.006982,-0.036767,0.126293,3.671869,-0.057084,0.949871,0.006982,0.312565,0.031468,0.007667,0.038540,-6.877657,14.769531,25.656353,,,,,,
1467746426.32,1.925285,-0.007952,-0.037704,0.118771,3.611358,-0.059905,0.937794,0.007952,0.347100,0.105357,-0.001787,0.006385,-10.654398,14.871231,24.269732,,,,,,
1467746426.33,1.958758,-0.008865,-0.038533,0.108751,3.269451,-0.053513,0.925646,0.008864,0.378287,0.124006,-0.006515,-0.063834,-10.654398,14.871231,24.269732,,,,,,
1467746426.34,1.990516,-0.009740,-0.039317,0.106482,3.161142,-0.050707,0.913160,0.009740,0.407485,0.114123,-0.001775,-0.034011,-10.654398,14.871231,24.269732,,,,,,
1467746426.35,2.020804,-0.010587,-0.040025,0.096645,2.963642,-0.046285,0.900393,0.010587,0.434948,0.140943,-0.009260,-0.048901,-12.343578,14.913013,23.429207,,,,,,
1467746426.36,2.047668,-0.011350,-0.040661,0.088714,2.593060,-0.037582,0.888378,0.011350,0.458972,0.159184,0.000720,-0.078769,-12.343578,14.913013,23.429207,,,,,,
1467746426.37,2.070475,-0.012003,-0.041176,0.071133,2.163029,-0.031709,0.877673,0.012003,0.479109,0.217358,-0.009195,-0.112685,-12.343578,14.913013,23.429207,,,,,,
1467746426.38,2.088006,-0.012532,-0.041549,0.052348,1.622572,-0.025145,0.869134,0.012532,0.494418,0.229743,-0.009358,-0.145678,-14.901481,14.974490,21.849487,,,,,,
1467746426.39,2.100897,-0.012919,-0.041821,0.040071,1.179792,-0.017058,0.862684,0.012919,0.505578,0.220919,-0.009501,-0.130745,-14.901481,14.974490,21.849487,,,,,,
1467746426.40,2.108569,-0.013162,-0.041989,0.020188,0.612790,-0.010329,0.858777,0.013161,0.512180,0.247775,-0.007714,-0.141879,-14.901481,14.974490,21.849487,,,,,,
1467746426.41,2.109913,-0.013201,-0.041995,-0.002973,-0.017924,-0.001074,0.858088,0.013201,0.513334,0.244528,-0.006350,-0.176176,-14.901481,14.974490,21.849487,,,,,,
1467746426.42,2.106687,-0.013088,-0.041905,-0.016211,-0.378942,0.005435,0.859740,0.013088,0.510564,0.151368,-0.002239,-0.125432,-15.760704,14.992898,21.225052,,,,,,
1467746426.43,2.103153,-0.012965,-0.041821,-0.011900,-0.337534,0.005180,0.861541,0.012965,0.507523,0.067124,0.001653,-0.020218,-15.760704,14.992898,21.225052,,,,,,
1467746426.44,2.098574,-0.012847,-0.041664,-0.027039,-0.531821,0.001061,0.863857,0.012847,0.503573,0.068317,-0.005355,-0.027438,-15.615080,14.988946,21.335194,,,,,,
1467746426.45,2.096150,-0.012772,-0.041572,0.001264,-0.035977,-0.000956,0.865076,0.012771,0.501478,-0.190607,0.006562,0.059710,-15.615080,14.988946,21.335194,,,,,,
1467746426.46,2.117378,-0.013613,-0.041512,0.025882,0.899695,-0.016378,0.854227,0.013613,0.519722,-0.231653,0.012083,0.215752,-15.615080,14.988946,21.335194,,,,,,
1467746426.47,2.130499,-0.014054,-0.041794,0.051013,1.408292,-0.021672,0.847329,0.014053,0.530882,-0.213403,0.008240,0.147707,-15.464575,14.982894,21.448763,,,,,,
1467746426.48,2.147665,-0.014568,-0.042101,0.056904,1.852137,-0.029772,0.838086,0.014567,0.545344,-0.198147,0.016469,0.081426,-15.464575,14.982894,21.448763,,,,,,
1467746426.49,2.170469,-0.015313,-0.042519,0.082084,2.391541,-0.040581,0.825423,0.015313,0.564306,-0.140014,0.002967,0.112192,-15.464575,14.982894,21.448763,,,,,,
1467746426.50,2.197654,-0.016169,-0.042958,0.086943,2.862991,-0.047791,0.809769,0.016169,0.586526,-0.195176,0.014593,0.104178,-17.038202,15.001088,20.207838,,,,,,
1467746426.51,2.233017,-0.017340,-0.043538,0.126377,3.732610,-0.059592,0.788510,0.017339,0.614777,-0.238553,0.007090,0.186553,-17.038202,15.001088,20.207838,,,,,,
1467746426.52,2.276960,-0.018795,-0.044213,0.150918,4.609671,-0.073584,0.760723,0.018794,0.648805,-0.256816,0.020787,0.231078,-17.038202,15.001088,20.207838,,,,,,
1467746426.53,2.328600,-0.020560,-0.044952,0.179511,5.323208,-0.085481,0.726194,0.020558,0.687183,-0.191037,0.013087,0.244000,-18.282913,15.022451,19.072248,,,,,,
1467746426.55,2.451150,-0.024895,-0.046323,0.225863,6.601636,-0.108355,0.636681,0.024893,0.770725,-0.064141,0.007700,0.272564,-18.282913,15.022451,19.072248,,,,,,
1467746426.54,2.386427,-0.022572,-0.045659,0.196289,5.958173,-0.094769,0.685235,0.022570,0.727972,-0.154763,0.017225,0.222406,-18.282913,15.022451,19.072248,,,,,,
1467746426.56,2.518887,-0.027350,-0.046807,0.221876,6.817188,-0.110776,0.583017,0.027347,0.812000,0.041693,-0.001178,0.205655,-18.282913,15.022451,19.072248,,,,,,
1467746426.57,2.588746,-0.029912,-0.047170,0.238140,7.048656,-0.113275,0.524877,0.029907,0.850652,0.086466,-0.001724,0.207224,-22.018002,15.074816,14.548096,,,,,,
1467746426.58,2.661142,-0.032604,-0.047353,0.245896,7.285443,-0.117946,0.461933,0.032599,0.886315,0.145565,0.001825,0.214728,-22.018002,15.074816,14.548096,,,,,,
1467746426.59,2.733278,-0.035300,-0.047347,0.240435,7.179259,-0.115157,0.396815,0.035293,0.917220,0.223454,0.007142,0.168596,-23.834469,15.082751,11.318933,,,,,,
1467746426.60,2.804568,-0.037932,-0.047131,0.239268,7.100680,-0.112536,0.330443,0.037923,0.943064,0.266008,-0.007939,0.153662,-23.834469,15.082751,11.318933,,,,,,
1467746426.61,2.873963,-0.040431,-0.046737,0.221955,6.881955,-0.110117,0.264230,0.040420,0.963612,0.301444,-0.001144,0.121272,-23.834469,15.082751,11.318933,,,,,,
1467746426.62,2.940711,-0.042862,-0.046192,0.223699,6.576152,-0.107133,0.199350,0.042849,0.978991,0.343375,-0.014162,0.106931,-26.104460,15.040236,4.004768,,,,,,
1467746426.63,3.002759,-0.045035,-0.045560,0.198576,6.082406,-0.096611,0.138247,0.045020,0.989374,0.377668,-0.009497,0.034994,-26.104460,15.040236,4.004768,,,,,,
1467746426.64,3.059916,-0.047030,-0.044864,0.185165,5.578053,-0.092396,0.081496,0.047013,0.995564,0.382066,-0.016327,0.009792,-26.104460,15.040236,4.004768,,,,,,
1467746426.65,3.111214,-0.048756,-0.044116,0.163084,4.964318,-0.080054,0.030338,0.048736,0.998351,0.413769,-0.005264,-0.027800,-26.429636,14.995234,0.554021,,,,,,
1467746426.66,-3.128019,-0.050209,-0.043421,0.137610,4.187077,-0.069882,-0.013556,0.050188,0.998648,0.426535,-0.018541,-0.097494,-26.429636,14.995234,0.554021,,,,,,
1467746426.67,-3.092226,-0.051367,-0.042802,0.113136,3.365227,-0.055172,-0.049282,0.051345,0.997464,0.442913,-0.015944,-0.137769,-26.429636,14.995234,0.554021,,,,,,
1467746426.68,-3.065344,-0.052237,-0.042312,0.080042,2.461622,-0.039958,-0.076071,0.052214,0.995734,0.434592,-0.013533,-0.187827,-26.103661,14.902884,-4.493623,,,,,,
1467746426.70,-3.036570,-0.053107,-0.041772,0.023700,0.863587,-0.011896,-0.104682,0.053082,0.993088,0.366187,-0.005581,-0.204483,-26.103661,14.902884,-4.493623,,,,,,
1467746426.69,-3.047061,-0.052811,-0.041970,0.053412,1.618538,-0.025117,-0.094260,0.052787,0.994147,0.416342,-0.015860,-0.199241,-26.103661,14.902884,-4.493623,,,,,,
1467746426.71,-3.033611,-0.053203,-0.041709,0.002506,0.103332,-0.001827,-0.107620,0.053178,0.992769,0.341827,-0.013200,-0.197801,-25.884691,14.876387,-5.689061,,,,,,
1467746426.72,-3.038269,-0.053059,-0.041796,-0.020812,-0.649495,0.010322,-0.102995,0.053034,0.993267,0.320295,-0.004190,-0.209667,-25.884691,14.876387,-5.689061,,,,,,
1467746426.73,-3.049875,-0.052689,-0.042027,-0.045094,-1.324804,0.019855,-0.091462,0.052665,0.994415,0.297059,-0.020789,-0.185272,-25.884691,14.876387,-5.689061,,,,,,
1467746426.74,-3.068045,-0.052114,-0.042364,-0.064030,-1.977827,0.032448,-0.073382,0.052090,0.995943,0.280611,-0.006695,-0.169939,-25.899914,14.878268,-5.614376,,,,,,
1467746426.75,-3.092895,-0.051312,-0.042812,-0.090441,-2.653135,0.041979,-0.048614,0.051289,0.997500,0.272781,-0.016850,-0.162676,-25.899914,14.878268,-5.614376,,,,,,
1467746426.76,-3.124371,-0.050285,-0.043362,-0.108301,-3.296602,0.054512,-0.017199,0.050264,0.998588,0.267901,-0.003557,-0.150749,-25.899914,14.878268,-5.614376,,,,,,
1467746426.77,3.121277,-0.049031,-0.043961,-0.131420,-3.897580,0.061451,0.020290,0.049011,0.998592,0.261402,-0.009338,-0.123714,-26.106550,14.903325,-4.475334,,,,,,
1467746426.78,3.078821,-0.047567,-0.044601,-0.145842,-4.348859,0.071718,0.062659,0.047549,0.996902,0.221246,-0.008837,-0.077270,-26.106550,14.903325,-4.475334,,,,,,
1467746426.79,3.032151,-0.045944,-0.045223,-0.161274,-4.764023,0.076436,0.109108,0.045928,0.992968,0.199883,-0.005110,-0.037432,-26.106550,14.903325,-4.475334,,,,,,
1467746426.80,2.982160,-0.044219,-0.045803,-0.164850,-5.063458,0.081503,0.158603,0.044204,0.986352,0.168881,-0.005600,0.005805,-26.441021,14.983541,-0.235502,,,,,,
1467746426.81,2.929970,-0.042372,-0.046290,-0.174677,-5.258825,0.082719,0.209858,0.042359,0.976814,0.129849,0.009124,0.038781,-26.441021,14.983541,-0.235502,,,,,,
1467746426.82,2.876753,-0.040444,-0.046732,-0.179054,-5.342723,0.089627,0.261540,0.040433,0.964345,0.086574,-0.002378,0.087825,-26.441021,14.983541,-0.235502,,,,,,
1467746426.83,2.822665,-0.038462,-0.047049,-0.179143,-5.420222,0.085856,0.313316,0.038453,0.948870,0.066994,0.012634,0.099271,-26.300346,15.022593,2.510585,,,,,,
1467746426.84,2.769341,-0.036496,-0.047271,-0.177903,-5.275827,0.088145,0.363471,0.036488,0.930891,0.009454,0.000209,0.145998,-26.300346,15.022593,2.510585,,,,,,
1467746426.85,2.718152,-0.034602,-0.047369,-0.164868,-5.076203,0.082648,0.410654,0.034595,0.911135,-0.016092,0.007702,0.175871,-26.300346,15.022593,2.510585,,,,,,
1467746426.86,2.668483,-0.032772,-0.047386,-0.165738,-4.921179,0.081675,0.455412,0.032766,0.889678,-0.034956,-0.001195,0.176286,-25.122217,15.074274,8.082703,,,,,,
1467746426.87,2.622121,-0.031049,-0.047307,-0.149255,-4.522994,0.072807,0.496182,0.031044,0.867663,-0.103924,0.012063,0.179517,-25.122217,15.074274,8.082703,,,,,,
1467746426.88,2.579282,-0.029480,-0.047160,-0.141407,-4.215063,0.066626,0.532911,0.029476,0.845658,-0.131803,0.012669,0.159820,-24.205662,15.083057,10.501281,,,,,,
1467746426.89,2.540544,-0.028040,-0.046969,-0.123768,-3.739374,0.060467,0.565285,0.028037,0.824419,-0.150734,0.010629,0.193510,-24.205662,15.083057,10.501281,,,,,,
1467746426.90,2.507673,-0.026830,-0.046757,-0.107044,-3.151123,0.049343,0.592094,0.026826,0.805422,-0.179710,0.010283,0.174802,-24.205662,15.083057,10.501281,,,,,,
1467746426.91,2.479904,-0.025831,-0.046558,-0.087234,-2.641459,0.042973,0.614245,0.025828,0.788693,-0.201311,0.013357,0.168827,-23.247873,15.082849,12.479328,,,,,,
1467746426.92,2.457907,-0.025036,-0.046378,-0.068385,-2.056394,0.031871,0.631456,0.025034,0.775007,-0.204714,0.011420,0.156069,-23.247873,15.082849,12.479328,,,,,,
1467746426.93,2.441649,-0.024451,-0.046237,-0.048489,-1.477716,0.026133,0.643982,0.024449,0.764650,-0.252182,0.020061,0.157622,-23.247873,15.082849,12.479328,,,,,,
1467746426.94,2.431979,-0.024078,-0.046151,-0.027377,-0.787531,0.013310,0.651352,0.024075,0.758394,-0.239654,0.009616,0.168120,-21.875435,15.073812,14.762629,,,,,,
1467746426.95,2.429074,-0.023972,-0.046118,-0.004190,-0.137701,0.002871,0.653554,0.023969,0.756500,-0.241216,0.012835,0.147888,-21.875435,15.073812,14.762629,,,,,,
1467746426.96,2.432098,-0.024076,-0.046145,0.014665,0.451610,-0.008258,0.651262,0.024073,0.758471,-0.228883,0.008367,0.141340,-21.875435,15.073812,14.762629,,,,,,
1467746426.97,2.441392,-0.024426,-0.046233,0.037832,1.087633,-0.017546,0.644179,0.024423,0.764485,-0.222167,0.015601,0.147335,-21.684666,15.072006,15.043256,,,,,,
1467746426.98,2.456621,-0.024975,-0.046363,0.056671,1.666324,-0.027543,0.632453,0.024973,0.774196,-0.198661,0.013342,0.134999,-21.684666,15.072006,15.043256,,,,,,
1467746426.99,2.477372,-0.025731,-0.046548,0.074382,2.199349,-0.034061,0.616242,0.025728,0.787137,-0.150192,0.012419,0.121143,-21.684666,15.072006,15.043256,,,,,,
1467746427.00,2.502233,-0.026642,-0.046726,0.084449,2.575240,-0.042796,0.596470,0.026639,0.802193,-0.138722,0.009631,0.104972,-22.397047,15.078359,13.953671,,,,,,
1467746427.01,2.531240,-0.027667,-0.046912,0.097792,3.026500,-0.045612,0.572937,0.027663,0.819133,-0.119247,0.006913,0.139928,-22.397047,15.078359,13.953671,,,,,,
1467746427.02,2.564858,-0.028891,-0.047087,0.114298,3.439557,-0.056702,0.545062,0.028887,0.837898,-0.075076,0.008284,0.108742,-23.128220,15.082416,12.700231,,,,,,
1467746427.03,2.601343,-0.030221,-0.047240,0.123170,3.724113,-0.057413,0.514115,0.030216,0.857189,-0.062425,0.003460,0.115376,-23.128220,15.082416,12.700231,,,,,,
1467746427.04,2.640888,-0.031633,-0.047335,0.128877,4.021430,-0.064595,0.479804,0.031628,0.876806,0.018716,0.007725,0.097300,-23.128220,15.082416,12.700231,,,,,,
1467746427.05,2.681682,-0.033148,-0.047379,0.137463,4.075578,-0.064926,0.443624,0.033142,0.895600,0.021327,0.000442,0.060806,-23.128220,15.082416,12.700231,,,,,,
1467746427.06,2.722919,-0.034654,-0.047360,0.138634,4.158401,-0.066508,0.406305,0.034647,0.913080,0.050284,0.004248,0.088964,-24.800941,15.078828,9.012876,,,,,,
1467746427.07,2.765625,-0.036228,-0.047251,0.140919,4.277330,-0.070445,0.366932,0.036220,0.929542,0.103604,-0.004589,0.056572,-24.800941,15.078828,9.012876,,,,,,
1467746427.08,2.807239,-0.037745,-0.047087,0.131133,4.118059,-0.067327,0.327924,0.037736,0.943950,0.114672,0.002089,0.016225,-25.488104,15.066360,6.859372,,,,,,
1467746427.09,2.847725,-0.039202,-0.046879,0.132093,4.038417,-0.064698,0.289434,0.039192,0.956395,0.126658,-0.001243,0.035868,-25.488104,15.066360,6.859372,,,,,,
1467746427.10,2.887310,-0.040671,-0.046623,0.133012,3.920557,-0.065022,0.251343,0.040659,0.967044,0.193511,0.003805,-0.017703,-25.488104,15.066360,6.859372,,,,,,
1467746427.11,2.923635,-0.041959,-0.046327,0.111217,3.531833,-0.056213,0.216046,0.041946,0.975482,0.201511,-0.008011,-0.053698,-25.488104,15.066360,6.859372,,,,,,
1467746427.12,2.956387,-0.043092,-0.046028,0.101205,3.194176,-0.050912,0.183978,0.043078,0.981986,0.195432,0.002088,-0.053473,-26.282036,15.024829,2.683058,,,,,,
1467746427.13,2.986335,-0.044107,-0.045736,0.093408,2.928715,-0.043933,0.154484,0.044093,0.987011,0.217968,-0.006403,-0.055462,-26.282036,15.024829,2.683058,,,,,,
1467746427.14,3.012148,-0.045007,-0.045447,0.082187,2.468960,-0.042125,0.128953,0.044992,0.990630,0.235336,-0.011193,-0.103209,-26.282036,15.024829,2.683058,,,,,,
1467746427.15,3.033153,-0.045771,-0.045180,0.068792,1.984770,-0.033779,0.108113,0.045755,0.993085,0.246898,-0.028833,-0.098401,-26.412224,15.002725,1.001147,,,,,,
1467746427.16,3.049442,-0.046395,-0.044952,0.056464,1.501641,-0.025440,0.091921,0.046378,0.994686,0.236890,-0.011985,-0.128795,-26.412224,15.002725,1.001147,,,,,,
1467746427.17,3.060630,-0.046832,-0.044790,0.036649,0.991971,-0.016941,0.080786,0.046815,0.995631,0.233576,-0.004426,-0.149913,-26.412224,15.002725,1.001147,,,,,,
1467746427.18,3.066707,-0.047070,-0.044679,0.020033,0.475946,-0.014785,0.074733,0.047052,0.996093,0.252324,-0.017862,-0.122695,-26.431137,14.969427,-1.000510,,,,,,
1467746427.19,3.051780,-0.045822,-0.045398,0.009720,-0.091269,-0.002717,0.089598,0.045806,0.994924,0.238649,-0.027190,-0.118520,-26.431137,14.969427,-1.000510,,,,,,
1467746427.20,3.046940,-0.045793,-0.045446,-0.005848,-0.610498,0.005846,0.094412,0.045777,0.994480,0.213404,-0.008515,-0.143589,-26.431137,14.969427,-1.000510,,,,,,
1467746427.21,3.037137,-0.045652,-0.045579,-0.016065,-1.103192,0.017442,0.104157,0.045636,0.993513,0.198639,-0.005139,-0.107710,-26.428516,14.988533,-0.753052,,,,,,
1467746427.22,3.023001,-0.045309,-0.045724,-0.037870,-1.501372,0.025239,0.118192,0.045293,0.991957,0.158480,-0.023000,-0.104292,-26.428516,14.988533,-0.753052,,,,,,
1467746427.23,3.005266,-0.044928,-0.045942,-0.039394,-1.865573,0.028586,0.135767,0.044913,0.989722,0.159155,0.009348,-0.091880,-26.428516,14.988533,-0.753052,,,,,,
1467746427.24,2.983119,-0.044156,-0.046182,-0.055785,-2.201106,0.030675,0.157657,0.044142,0.986507,0.148938,-0.030119,-0.041103,-26.425066,15.005573,0.488125,,,,,,
1467746427.25,2.958672,-0.043541,-0.046419,-0.064696,-2.517513,0.030522,0.181730,0.043527,0.982385,0.131853,0.039160,-0.072671,-26.425066,15.005573,0.488125,,,,,,
1467746427.26,2.931651,-0.042745,-0.046627,-0.071397,-2.758554,0.037349,0.208213,0.042732,0.977150,0.088327,-0.002433,-0.028892,-26.425066,15.005573,0.488125,,,,,,
1467746427.27,2.903168,-0.041805,-0.046861,-0.096026,-2.861551,0.043293,0.235966,0.041793,0.970862,0.074337,0.054307,-0.046821,-26.362867,15.022370,1.737030,,,,,,
1467746427.28,2.873586,-0.040768,-0.047095,-0.094064,-2.983682,0.051511,0.264590,0.040757,0.963499,0.083646,0.017517,-0.004179,-26.362867,15.022370,1.737030,,,,,,
1467746427.29,2.843019,-0.039486,-0.047273,-0.126112,-3.061189,0.056223,0.293928,0.039475,0.955012,0.041674,0.056167,-0.053218,-26.362867,15.022370,1.737030,,,,,,
1467746427.30,2.812384,-0.038234,-0.047442,-0.112267,-3.063311,0.053057,0.323058,0.038224,0.945607,0.030885,0.048659,0.012218,-25.956268,15.057166,4.821158,,,,,,
1467746427.31,2.782498,-0.036817,-0.047572,-0.129192,-2.957154,0.064083,0.351188,0.036808,0.935581,-0.033546,-0.000874,0.059551,-25.956268,15.057166,4.821158,,,,,,
1467746427.32,2.753597,-0.035462,-0.047678,-0.128006,-2.870069,0.057152,0.378096,0.035455,0.925087,-0.018050,0.049537,0.036949,-25.956268,15.057166,4.821158,,,,,,
1467746427.33,2.725450,-0.034132,-0.047754,-0.110880,-2.796816,0.057774,0.404000,0.034126,0.914122,-0.020775,-0.034538,0.113038,-25.598881,15.073006,6.418054,,,,,,
1467746427.34,2.698362,-0.032874,-0.047789,-0.117092,-2.663014,0.052671,0.428628,0.032868,0.902883,-0.044656,-0.004014,0.052134,-25.598881,15.073006,6.418054,,,,,,
1467746427.36,2.650467,-0.030909,-0.047769,-0.078135,-2.187304,0.034824,0.471393,0.030904,0.881381,-0.097324,-0.062566,0.144513,-25.172472,15.085754,7.902929,,,,,,
1467746427.35,2.673193,-0.031835,-0.047810,-0.081715,-2.479325,0.046232,0.451230,0.031830,0.891840,-0.077542,-0.036087,0.133230,-25.172472,15.085754,7.902929,,,,,,
1467746427.37,2.631235,-0.030406,-0.047733,-0.044672,-1.843262,0.019926,0.488263,0.030401,0.872167,-0.084775,-0.023245,0.113902,-25.172472,15.085754,7.902929,,,,,,
1467746427.38,2.614507,-0.030013,-0.047622,-0.029470,-1.626629,0.006874,0.502790,0.030008,0.863888,-0.070951,-0.041132,0.121281,-24.290167,15.096073,10.285237,,,,,,
1467746427.39,2.599754,-0.029826,-0.047551,-0.038848,-1.454623,0.011107,0.515483,0.029821,0.856381,-0.116267,0.050059,0.041095,-24.290167,15.096073,10.285237,,,,,,
1467746427.40,2.587410,-0.029537,-0.047508,-0.021435,-1.150962,0.011349,0.526019,0.029533,0.849960,-0.143527,0.029824,0.080628,-24.290167,15.096073,10.285237,,,,,,
1467746427.41,2.579000,-0.029251,-0.047459,-0.027294,-0.728362,0.008693,0.533153,0.029246,0.845513,-0.150569,0.056691,0.060050,-23.952152,15.092996,11.053755,,,,,,
1467746427.42,2.574938,-0.029154,-0.047477,-0.007597,-0.302592,0.007107,0.536585,0.029150,0.843343,-0.155222,0.023142,0.083278,-23.714127,15.092225,11.556583,,,,,,
1467746427.43,2.585636,-0.032207,-0.047123,-0.009238,0.086165,0.004651,0.527482,0.032202,0.848956,-0.151658,0.046579,0.052549,-23.714127,15.092225,11.556583,,,,,,
1467746427.44,2.589258,-0.032206,-0.047169,0.005058,0.450354,0.003446,0.524404,0.032200,0.850860,-0.132803,0.018551,0.081513,-23.714127,15.092225,11.556583,,,,,,
1467746427.45,2.596347,-0.032248,-0.047203,0.007623,0.795441,0.000220,0.518358,0.032242,0.854555,-0.113436,0.011871,0.081068,-23.714127,15.092225,11.556583,,,,,,
1467746427.46,2.606473,-0.032510,-0.047261,0.029291,1.080017,-0.010059,0.509674,0.032505,0.859753,-0.088944,-0.014133,0.083545,-23.937674,15.076842,11.107035,,,,,,
1467746427.47,2.619255,-0.032890,-0.047299,0.041337,1.332744,-0.020147,0.498638,0.032884,0.866187,-0.053829,-0.021654,0.081338,-23.937674,15.076842,11.107035,,,,,,
1467746427.48,2.634049,-0.033449,-0.047349,0.051158,1.517502,-0.024490,0.485760,0.033443,0.873452,-0.034161,-0.012096,0.032233,-23.937674,15.076842,11.107035,,,,,,
1467746427.49,2.650097,-0.034057,-0.047383,0.057697,1.634303,-0.027345,0.471671,0.034050,0.881117,-0.014320,-0.009941,0.028124,-24.189426,15.077472,10.546618,,,,,,
1467746427.50,2.667557,-0.034737,-0.047411,0.061086,1.786145,-0.030422,0.456205,0.034730,0.889197,-0.021299,0.009154,0.024667,-24.189426,15.077472,10.546618,,,,,,
1467746427.51,2.686786,-0.035444,-0.047416,0.065560,1.959215,-0.030439,0.439013,0.035436,0.897782,-0.034365,-0.003439,0.049301,-24.510359,15.076255,9.779495,,,,,,
1467746427.52,2.707668,-0.036231,-0.047403,0.071108,2.131236,-0.035770,0.420159,0.036223,0.906727,-0.016046,0.003801,0.052822,-24.510359,15.076255,9.779495,,,,,,
1467746427.53,2.729644,-0.037080,-0.047371,0.077585,2.200252,-0.037261,0.400120,0.037072,0.915713,0.035991,0.001914,0.020521,-24.510359,15.076255,9.779495,,,,,,
1467746427.54,2.750953,-0.037926,-0.047321,0.070051,2.137604,-0.035811,0.380506,0.037917,0.924001,0.052142,0.007233,-0.015676,-24.510359,15.076255,9.779495,,,,,,
1467746427.55,2.772208,-0.038701,-0.047257,0.067904,2.124861,-0.034669,0.360771,0.038691,0.931852,0.058312,0.012289,-0.015454,-25.228378,15.066958,7.759215,,,,,,
1467746427.56,2.793215,-0.039430,-0.047184,0.066780,2.082380,-0.031210,0.341108,0.039420,0.939197,0.072496,0.011438,-0.019962,-25.228378,15.066958,7.759215,,,,,,
1467746427.57,2.813212,-0.040092,-0.047103,0.058116,1.969828,-0.028384,0.322251,0.040081,0.945805,0.080687,0.003559,-0.033665,-25.228378,15.066958,7.759215,,,,,,
1467746427.58,2.832072,-0.040702,-0.047025,0.056952,1.892311,-0.026835,0.304350,0.040691,0.951691,0.084856,-0.006648,-0.016724,-25.806381,15.050866,5.584948,,,,,,
1467746427.59,2.850116,-0.041328,-0.046927,0.056790,1.759591,-0.028132,0.287122,0.041316,0.957003,0.115558,-0.016734,-0.025148,-25.806381,15.050866,5.584948,,,,,,
1467746427.60,2.865834,-0.041912,-0.046827,0.052202,1.500508,-0.024382,0.272038,0.041900,0.961374,0.140575,-0.014907,-0.060999,-25.806381,15.050866,5.584948,,,,,,
1467746427.61,2.878658,-0.042402,-0.046746,0.041191,1.213821,-0.020466,0.259682,0.042389,0.964763,0.142479,-0.005585,-0.073788,-26.002724,15.042478,4.612151,,,,,,
1467746427.62,2.888910,-0.042796,-0.046678,0.034533,1.003575,-0.015961,0.249774,0.042783,0.967359,0.136121,-0.002057,-0.067456,-26.002724,15.042478,4.612151,,,,,,
1467746427.63,2.897001,-0.043069,-0.046628,0.022479,0.735997,-0.011102,0.241936,0.043056,0.969336,0.139824,0.000661,-0.083838,-26.002724,15.042478,4.612151,,,,,,
1467746427.64,2.902091,-0.043225,-0.046588,0.012510,0.433380,-0.006020,0.236997,0.043212,0.970549,0.146182,-0.004073,-0.088209,-26.200968,15.029295,3.364410,,,,,,
1467746427.65,2.904249,-0.043272,-0.046574,0.001497,0.144569,-0.002091,0.234901,0.043259,0.971056,0.146248,0.000290,-0.089586,-26.200968,15.029295,3.364410,,,,,,
1467746427.66,2.893694,-0.043135,-0.047008,-0.003133,-0.144370,0.002909,0.245140,0.043122,0.968528,0.121254,-0.003648,-0.079246,-26.200968,15.029295,3.364410,,,,,,
1467746427.67,2.890879,-0.042980,-0.047030,-0.016128,-0.315320,0.006097,0.247867,0.042967,0.967841,0.088391,-0.000700,-0.057852,-26.226164,15.027255,3.171686,,,,,,
1467746427.68,2.886582,-0.042783,-0.047060,-0.020586,-0.472468,0.008143,0.252025,0.042769,0.966775,0.087361,0.006226,-0.053277,-26.226164,15.027255,3.171686,,,,,,
1467746427.69,2.880399,-0.042467,-0.047109,-0.031488,-0.666787,0.014673,0.258001,0.042454,0.965211,0.074274,0.003277,-0.058900,-26.226164,15.027255,3.171686,,,,,,
1467746427.70,2.870970,-0.042185,-0.047226,-0.033790,-0.805899,0.014478,0.267094,0.042172,0.962747,0.067897,0.002887,-0.038187,-26.132259,15.043760,3.805252,,,,,,
1467746427.71,2.862136,-0.041750,-0.047303,-0.039256,-0.911030,0.020454,0.275593,0.041738,0.960368,0.053539,-0.005147,-0.031886,-26.132259,15.043760,3.805252,,,,,,
1467746427.72,2.852171,-0.041316,-0.047384,-0.040457,-1.021454,0.020081,0.285155,0.041304,0.957591,0.051668,0.000413,-0.031306,-26.132259,15.043760,3.805252,,,,,,
1467746427.73,2.841106,-0.040834,-0.047464,-0.043801,-1.137195,0.022933,0.295738,0.040823,0.954396,0.055199,-0.006384,-0.024175,-26.052662,15.051048,4.291205,,,,,,
1467746427.74,2.828587,-0.040319,-0.047531,-0.046064,-1.248677,0.020436,0.307670,0.040308,0.950639,0.035333,-0.000574,-0.019197,-26.052662,15.051048,4.291205,,,,,,
1467746427.75,2.816095,-0.039801,-0.047597,-0.047123,-1.241250,0.022518,0.319527,0.039790,0.946741,0.011054,-0.004619,0.006658,-26.052662,15.051048,4.291205,,,,,,
1467746427.76,2.803986,-0.039295,-0.047637,-0.047064,-1.197710,0.020116,0.330974,0.039285,0.942822,-0.006023,0.001807,0.013340,-25.814037,15.064698,5.511802,,,,,,
1467746427.77,2.792531,-0.038809,-0.047679,-0.043780,-1.125509,0.019666,0.341759,0.038799,0.938986,-0.020897,0.003834,0.014490,-25.814037,15.064698,5.511802,,,,,,
1467746427.78,2.781809,-0.038354,-0.047705,-0.041571,-1.063922,0.018218,0.351813,0.038344,0.935285,-0.016531,0.003572,0.017840,-25.814037,15.064698,5.511802,,,,,,
1467746427.79,2.771734,-0.038064,-0.047731,-0.042578,-1.015082,0.020038,0.361221,0.038055,0.931703,-0.017990,0.009232,0.007979,-25.670757,15.069836,6.132038,,,,,,
1467746427.80,2.762080,-0.037611,-0.047761,-0.041436,-0.953497,0.019653,0.370206,0.037602,0.928188,-0.017728,0.002208,0.018848,-25.670757,15.069836,6.132038,,,,,,
1467746427.81,2.753166,-0.037217,-0.047772,-0.040288,-0.890844,0.017132,0.378470,0.037209,0.924865,-0.023688,0.007759,0.015641,-25.670757,15.069836,6.132038,,,,,,
1467746427.82,2.744802,-0.036805,-0.047800,-0.035939,-0.815464,0.018793,0.386199,0.036796,0.921681,-0.026076,0.003365,0.019923,-25.399189,15.077063,7.159122,,,,,,
1467746427.83,2.737405,-0.036438,-0.047815,-0.032613,-0.715647,0.014977,0.393011,0.036430,0.918812,-0.030783,0.000008,0.024883,-25.399189,15.077063,7.159122,,,,,,
1467746427.84,2.730941,-0.036102,-0.047840,-0.030370,-0.623275,0.015464,0.398946,0.036094,0.916264,-0.030615,-0.002113,0.023190,-25.277992,15.080519,7.569060,,,,,,
1467746427.85,2.726350,-0.035639,-0.047816,-0.024937,-0.537256,0.013866,0.403156,0.035631,0.914437,-0.025379,-0.003985,0.023093,-25.277992,15.080519,7.569060,,,,,,
1467746427.86,2.723227,-0.035060,-0.047774,-0.018419,-0.439545,0.010069,0.406018,0.035053,0.913192,-0.028531,-0.007251,0.030365,-25.277992,15.080519,7.569060,,,,,,
1467746427.87,2.721484,-0.034607,-0.047714,-0.015088,-0.333338,0.007278,0.407616,0.034600,0.912498,-0.028420,-0.004617,0.027825,-25.187901,15.082924,7.859050,,,,,,
1467746427.88,2.720468,-0.034097,-0.047667,-0.005382,-0.237755,0.004562,0.408550,0.034091,0.912099,-0.022304,-0.006976,0.026499,-25.187901,15.082924,7.859050,,,,,,
1467746427.89,2.720445,-0.033741,-0.047616,-0.006321,-0.138984,0.002879,0.408575,0.033735,0.912101,-0.023550,-0.005033,0.023186,-25.187901,15.082924,7.859050,,,,,,
1467746427.90,2.721108,-0.033644,-0.047561,-0.000872,-0.044461,-0.000902,0.407972,0.033638,0.912374,-0.020430,-0.001259,0.018931,-25.132044,15.083299,8.035179,,,,,,
1467746427.91,2.722743,-0.033844,-0.047512,0.003520,0.060672,-0.001558,0.406477,0.033837,0.913034,-0.019636,0.003837,0.017721,-25.132044,15.083299,8.035179,,,,,,
1467746427.92,2.724073,-0.033894,-0.047501,0.003642,0.156237,-0.003221,0.405262,0.033888,0.913572,-0.020695,0.009005,0.009264,-25.132044,15.083299,8.035179,,,,,,
1467746427.93,2.727132,-0.034406,-0.047472,0.006946,0.243314,-0.003766,0.402458,0.034399,0.914792,-0.012275,0.009195,0.009021,-25.152477,15.080271,7.976708,,,,,,
1467746427.94,2.730129,-0.034475,-0.047463,0.007037,0.317637,-0.003168,0.399713,0.034468,0.915992,-0.008188,0.008409,0.005593,-25.152477,15.080271,7.976708,,,,,,
1467746427.95,2.733832,-0.034568,-0.047454,0.008192,0.387718,-0.004671,0.396317,0.034561,0.917463,-0.001252,0.005219,0.004855,-25.152477,15.080271,7.976708,,,,,,
1467746427.96,2.737997,-0.034687,-0.047452,0.011426,0.419571,-0.004867,0.392491,0.034680,0.919102,0.021266,0.004840,-0.004978,-25.244507,15.076605,7.687684,,,,,,
1467746427.97,2.739709,-0.034897,-0.047527,0.006029,0.364327,-0.002398,0.390914,0.034890,0.919766,0.041565,0.002143,-0.027889,-25.244507,15.076605,7.687684,,,,,,
1467746427.98,2.739843,-0.034981,-0.047592,-0.002608,0.264497,-0.004974,0.390790,0.034974,0.919815,0.053637,0.001128,-0.037964,-25.244507,15.076605,7.687684,,,,,,
1467746427.99,2.739223,-0.034814,-0.047660,-0.010172,0.184817,0.000840,0.391362,0.034807,0.919578,0.053813,-0.002290,-0.032768,-25.290192,15.077557,7.534137,,,,,,
1467746428.00,2.737373,-0.034746,-0.047716,-0.027337,0.090273,0.006738,0.393064,0.034739,0.918855,0.058383,0.003485,-0.043656,-25.284229,15.081285,7.546663,,,,,,
1467746428.01,2.731341,-0.034224,-0.047906,-0.059627,-0.149809,0.031629,0.398606,0.034217,0.916484,0.096328,-0.000419,-0.088771,-25.284229,15.081285,7.546663,,,,,,
1467746428.02,2.709700,-0.034247,-0.048442,-0.125592,-0.927259,0.057722,0.418345,0.034240,0.907643,0.276479,0.028245,-0.244847,-25.284229,15.081285,7.546663,,,,,,
1467746428.03,2.687983,-0.032492,-0.048466,-0.173554,-2.642084,0.082267,0.437982,0.032487,0.898397,0.572669,-0.015778,-0.361913,-25.217087,15.089460,7.752188,,,,,,
1467746428.04,2.649775,-0.030123,-0.048250,-0.225461,-4.128582,0.091538,0.472014,0.030118,0.881076,0.521211,0.009784,-0.359226,-25.217087,15.089460,7.752188,,,,,,
