timestamp,attitude_roll,attitude_pitch,attitude_yaw,rotation_rate_x,rotation_rate_y,rotation_rate_z,gravity_x,gravity_y,gravity_z,user_acc_x,user_acc_y,user_acc_z,magnetic_field_x,magnetic_field_y,magnetic_field_z,latitude(degree),longitude(degree),altitude(meter),speed(m/s),course(degree),timestamp
1465846674.81,0.009244,-0.011753,-1.487260,0.000625,-0.025377,0.000461,0.009243,0.011753,-0.999888,0.004383,0.003079,0.002208,-61.737415,230.001831,-91.760704,,,,,,
1465846674.82,0.008743,-0.011713,-1.487283,0.014394,-0.088020,-0.002325,0.008742,0.011713,-0.999893,0.011735,0.004889,-0.000992,-61.737415,230.001831,-91.760704,,,,,,
1465846674.83,0.007902,-0.011570,-1.487313,0.011161,-0.121988,-0.004244,0.007901,0.011570,-0.999902,0.018512,-0.001103,-0.011771,-61.737415,230.001831,-91.760704,,,,,,
1465846674.84,0.006989,-0.011482,-1.487360,0.012259,-0.097564,-0.005461,0.006989,0.011482,-0.999910,0.008819,0.001625,-0.003661,-61.854034,230.019028,-91.638985,,,,,,
1465846674.85,0.006265,-0.011323,-1.487418,0.011245,-0.057215,-0.005715,0.006265,0.011322,-0.999916,-0.001947,-0.002075,0.002297,-61.854034,230.019028,-91.638985,,,,,,
1465846674.86,0.006159,-0.011211,-1.487449,0.002834,0.036212,-0.000987,0.006159,0.011211,-0.999918,-0.007532,-0.002926,0.006754,-61.854034,230.019028,-91.638985,,,,,,
1465846674.87,0.007043,-0.011113,-1.487483,0.011473,0.129651,-0.003693,0.007043,0.011113,-0.999913,-0.014001,-0.001423,0.010762,-62.027763,229.989807,-91.594872,,,,,,
1465846674.88,0.008290,-0.011003,-1.487543,0.009345,0.127534,-0.005811,0.008289,0.011002,-0.999905,-0.005329,0.000304,0.003186,-62.027763,229.989807,-91.594872,,,,,,
1465846674.89,0.009477,-0.010903,-1.487593,0.013552,0.087182,-0.004489,0.009477,0.010902,-0.999896,0.009627,0.000893,-0.005308,-62.027763,229.989807,-91.594872,,,,,,
,,,,,,,,,,,,,,,,29.719988,-95.399031,10.534275,-1.000000,-1.000000,1465846685.86
,,,,,,,,,,,,,,,,29.719966,-95.399045,10.534275,-1.000000,-1.000000,1465846675.87
,,,,,,,,,,,,,,,,29.719988,-95.399031,10.534275,-1.000000,-1.000000,1465846685.86
1465846674.90,0.010277,-0.010723,-1.487645,0.019882,0.039402,-0.005248,0.010277,0.010723,-0.999890,0.014855,0.001332,-0.013096,-61.772343,229.940536,-91.890732,,,,,,
1465846674.91,0.010691,-0.010530,-1.487721,0.017711,0.001189,-0.008204,0.010690,0.010530,-0.999887,0.017051,-0.000596,-0.010656,-61.772343,229.940536,-91.890732,,,,,,
1465846674.92,0.010756,-0.010342,-1.487797,0.017693,-0.011555,-0.007059,0.010756,0.010342,-0.999889,0.010027,-0.000332,-0.010121,-61.772343,229.940536,-91.890732,,,,,,
1465846674.93,0.010792,-0.010211,-1.487869,0.013455,0.003316,-0.008221,0.010792,0.010211,-0.999890,0.002484,0.000547,-0.000416,-61.689194,229.898468,-92.051704,,,,,,
1465846674.94,0.010896,-0.010062,-1.487919,0.013487,0.035157,-0.004163,0.010896,0.010062,-0.999890,-0.008973,-0.000662,0.002164,-61.689194,229.898468,-92.051704,,,,,,
1465846674.95,0.011411,-0.009965,-1.487954,0.012464,0.070194,-0.003320,0.011410,0.009964,-0.999885,-0.006726,0.001495,0.006111,-61.689194,229.898468,-92.051704,,,,,,
1465846674.96,0.012093,-0.009871,-1.488000,0.010344,0.076568,-0.004426,0.012092,0.009871,-0.999878,-0.004661,0.001207,-0.001480,-61.674732,229.832169,-92.226791,,,,,,
1465846674.97,0.012981,-0.009760,-1.488056,0.009295,0.085069,-0.006609,0.012980,0.009760,-0.999868,0.002401,-0.000895,-0.002024,-61.674732,229.832169,-92.226791,,,,,,
1465846674.98,0.013969,-0.009688,-1.488102,0.008235,0.092497,-0.004528,0.013968,0.009688,-0.999856,0.004328,0.000627,-0.004432,-61.674732,229.832169,-92.226791,,,,,,
1465846674.99,0.015045,-0.009683,-1.488141,0.006105,0.093557,-0.003472,0.015044,0.009683,-0.999840,0.006212,0.003409,-0.003197,-61.552608,229.807037,-92.370850,,,,,,
1465846675.00,0.015998,-0.009609,-1.488165,0.009281,0.080812,-0.002325,0.015997,0.009609,-0.999826,0.005137,0.000873,-0.004080,-61.552608,229.807037,-92.370850,,,,,,
1465846675.01,0.016861,-0.009650,-1.488342,0.000785,0.070249,-0.020363,0.016859,0.009650,-0.999811,0.007402,0.004342,-0.004843,-61.552608,229.807037,-92.370850,,,,,,
1465846675.02,0.017633,-0.009494,-1.488439,0.010351,0.070221,-0.011837,0.017631,0.009493,-0.999799,0.003365,-0.004931,-0.009539,-61.258625,229.779083,-92.635445,,,,,,
1465846675.03,0.018376,-0.009400,-1.488516,-0.000302,0.075518,-0.005495,0.018374,0.009400,-0.999787,-0.000445,-0.002671,-0.003463,-61.258625,229.779083,-92.635445,,,,,,
1465846675.04,0.019431,-0.009417,-1.488551,-0.002388,0.111617,-0.004659,0.019429,0.009417,-0.999767,-0.001515,-0.001620,0.001155,-61.258625,229.779083,-92.635445,,,,,,
1465846675.05,0.020510,-0.009419,-1.488582,0.001861,0.107362,-0.002499,0.020507,0.009419,-0.999745,-0.002227,0.002025,-0.001918,-61.157104,229.745178,-92.786491,,,,,,
1465846675.06,0.021521,-0.009454,-1.488594,-0.002422,0.089311,-0.001325,0.021519,0.009453,-0.999724,0.004040,0.000587,-0.006517,-61.157104,229.745178,-92.786491,,,,,,
1465846675.07,0.022415,-0.009453,-1.488606,0.001817,0.075503,-0.000170,0.022412,0.009453,-0.999704,0.006275,0.000755,-0.008841,-61.157104,229.745178,-92.786491,,,,,,
,,,,,,,,,,,,,,,,29.720866,-95.401398,10.534275,-1.000000,-1.000000,1465846730.89
,,,,,,,,,,,,,,,,29.720895,-95.401477,10.534275,-1.000000,-1.000000,1465846730.90
1465846675.08,0.023312,-0.009488,-1.488606,-0.003507,0.075505,-0.000175,0.023309,0.009488,-0.999683,0.006965,0.000903,-0.003750,-60.802681,229.744385,-93.021141,,,,,,
1465846675.09,0.024127,-0.009464,-1.488612,0.000751,0.074441,-0.000164,0.024124,0.009464,-0.999664,0.003342,-0.001468,-0.004212,-60.802681,229.744385,-93.021141,,,,,,
1465846675.10,0.024944,-0.009434,-1.488620,-0.001363,0.085063,-0.001298,0.024940,0.009434,-0.999644,-0.000633,-0.001850,-0.001424,-60.802681,229.744385,-93.021141,,,,,,
1465846675.11,0.025866,-0.009434,-1.488638,-0.002411,0.096746,-0.002436,0.025862,0.009434,-0.999621,-0.001692,-0.001072,0.000170,-60.644753,229.745041,-93.122581,,,,,,
1465846675.12,0.026984,-0.009459,-1.488648,-0.002383,0.122224,-0.000467,0.026979,0.009458,-0.999591,-0.003465,0.000582,0.000263,-60.644753,229.745041,-93.122581,,,,,,
1465846675.13,0.028306,-0.009505,-1.488675,-0.001289,0.142403,-0.002722,0.028301,0.009505,-0.999554,-0.004391,0.001497,0.000409,-60.644753,229.745041,-93.122581,,,,,,
,,,,,,,,,,,,,,,,29.719991,-95.399026,10.527831,-1.000000,-1.000000,1465846731.04
1465846675.14,0.029815,-0.009546,-1.488713,-0.001267,0.156212,-0.004937,0.029809,0.009546,-0.999510,-0.003045,0.001197,-0.000337,-60.269604,229.744843,-93.366302,,,,,,
1465846675.15,0.031440,-0.009567,-1.488734,-0.001280,0.150895,-0.001710,0.031433,0.009567,-0.999460,0.004074,0.000199,-0.007300,-60.269604,229.744843,-93.366302,,,,,,
1465846675.16,0.032986,-0.009603,-1.488769,-0.002370,0.127543,-0.003694,0.032979,0.009603,-0.999410,0.010768,0.000697,-0.008647,-60.269604,229.744843,-93.366302,,,,,,
1465846675.17,0.034231,-0.009649,-1.488802,-0.002405,0.099937,-0.003521,0.034222,0.009648,-0.999368,0.009586,0.001216,-0.008369,-59.990780,229.746796,-93.540871,,,,,,
1465846675.18,0.035306,-0.009667,-1.488829,-0.001353,0.091440,-0.002402,0.035297,0.009667,-0.999330,0.007825,-0.000024,-0.005797,-59.990780,229.746796,-93.540871,,,,,,
1465846675.19,0.036238,-0.009686,-1.488857,-0.001357,0.086134,-0.003433,0.036229,0.009686,-0.999297,0.002452,0.000263,-0.004411,-59.990780,229.746796,-93.540871,,,,,,
1465846675.21,0.038061,-0.009684,-1.488919,-0.002407,0.097814,-0.003508,0.038050,0.009684,-0.999229,-0.000559,-0.000117,-0.002068,-59.570354,229.749969,-93.801422,,,,,,
1465846675.22,0.039118,-0.009716,-1.488942,-0.001340,0.100996,-0.002462,0.039106,0.009715,-0.999188,0.001361,0.000355,-0.000629,-59.570354,229.749969,-93.801422,,,,,,
1465846675.20,0.037109,-0.009661,-1.488885,-0.001357,0.086134,-0.003433,0.037099,0.009660,-0.999265,0.000544,-0.002245,-0.006167,-59.570354,229.749969,-93.801422,,,,,,
1465846675.23,0.040184,-0.009734,-1.488971,-0.001342,0.099935,-0.002455,0.040171,0.009734,-0.999145,0.002371,-0.000075,-0.004044,-59.413471,229.745850,-93.910904,,,,,,
1465846675.24,0.041192,-0.009770,-1.488994,-0.000296,0.085070,-0.002361,0.041178,0.009770,-0.999104,0.005819,0.001888,-0.002773,-59.413471,229.745850,-93.910904,,,,,,
1465846675.25,0.041985,-0.009789,-1.489016,-0.001380,0.069144,-0.002262,0.041970,0.009789,-0.999071,0.003821,0.000907,-0.005415,-59.413471,229.745850,-93.910904,,,,,,
1465846675.26,0.042768,-0.009815,-1.489027,-0.000312,0.073388,-0.001223,0.042753,0.009815,-0.999037,0.003176,0.001599,-0.002961,-59.067608,229.749420,-94.120110,,,,,,
1465846675.28,0.044502,-0.009841,-1.489057,-0.001350,0.093566,-0.002415,0.044486,0.009841,-0.998962,0.000925,0.000169,-0.002503,-59.067608,229.749420,-94.120110,,,,,,
1465846675.27,0.043563,-0.009824,-1.489040,-0.000300,0.082944,-0.001283,0.043547,0.009824,-0.999003,-0.000792,0.000339,-0.003759,-59.067608,229.749420,-94.120110,,,,,,
1465846675.29,0.045436,-0.009848,-1.489082,-0.000276,0.100997,-0.002461,0.045418,0.009847,-0.998920,-0.003075,0.000178,-0.003568,-58.924816,229.751099,-94.205528,,,,,,
1465846675.30,0.046472,-0.009842,-1.489108,-0.001326,0.112677,-0.002535,0.046453,0.009842,-0.998872,-0.005071,-0.000519,-0.000365,-58.924816,229.751099,-94.205528,,,,,,
1465846675.31,0.047683,-0.009851,-1.489124,-0.001300,0.134972,-0.001611,0.047663,0.009851,-0.998815,-0.005991,-0.000009,0.001775,-58.924816,229.751099,-94.205528,,,,,,
1465846675.33,0.050907,-0.009851,-1.489183,-0.001217,0.198682,-0.003075,0.050882,0.009851,-0.998656,-0.008310,-0.001641,0.003508,-58.555740,229.748276,-94.442238,,,,,,
1465846675.32,0.049119,-0.009864,-1.489147,-0.002324,0.165767,-0.002869,0.049097,0.009864,-0.998745,-0.010217,-0.000694,0.002560,-58.555740,229.748276,-94.442238,,,,,,
1465846675.34,0.052989,-0.009912,-1.489215,-0.005424,0.240093,-0.003339,0.052961,0.009912,-0.998547,-0.014540,0.000815,0.006314,-58.555740,229.748276,-94.442238,,,,,,
1465846675.35,0.055560,-0.009962,-1.489262,-0.004292,0.292123,-0.004728,0.055529,0.009962,-0.998407,-0.014696,0.000429,0.006205,-58.264515,229.744507,-94.631340,,,,,,
1465846675.37,0.062090,-0.010081,-1.489380,-0.005205,0.409986,-0.007597,0.062047,0.010081,-0.998022,-0.024541,-0.000438,0.012198,-58.264515,229.744507,-94.631340,,,,,,
1465846675.36,0.058518,-0.010024,-1.489311,-0.006362,0.339903,-0.005030,0.058482,0.010024,-0.998238,-0.020884,-0.000106,0.007699,-58.264515,229.744507,-94.631340,,,,,,
1465846675.38,0.066383,-0.010125,-1.489465,-0.008289,0.495994,-0.009204,0.066331,0.010125,-0.997746,-0.031541,-0.001947,0.015050,-57.250923,229.753189,-95.226974,,,,,,
1465846675.39,0.071670,-0.010244,-1.489566,-0.011336,0.611732,-0.010998,0.071605,0.010243,-0.997380,-0.043270,-0.000173,0.022908,-57.250923,229.753189,-95.226974,,,,,,
1465846675.40,0.078478,-0.010372,-1.489693,-0.013269,0.764637,-0.014087,0.078394,0.010372,-0.996869,-0.053918,-0.000896,0.028943,-57.250923,229.753189,-95.226974,,,,,,
1465846675.41,0.087444,-0.010535,-1.489832,-0.016216,0.962133,-0.015329,0.087328,0.010535,-0.996124,-0.071627,0.001580,0.041931,-56.380997,229.756317,-95.737083,,,,,,
1465846675.42,0.098822,-0.010743,-1.489989,-0.020169,1.204228,-0.017916,0.098655,0.010743,-0.995064,-0.087150,0.000350,0.061241,-56.380997,229.756317,-95.737083,,,,,,
1465846675.43,0.112920,-0.011001,-1.490171,-0.025142,1.480306,-0.021781,0.112673,0.011000,-0.993571,-0.083864,-0.000044,0.064387,-54.930317,229.766220,-96.553185,,,,,,
1465846675.44,0.129699,-0.011305,-1.490392,-0.029067,1.741520,-0.026617,0.129327,0.011305,-0.991538,-0.087426,-0.001799,0.064658,-54.930317,229.766220,-96.553185,,,,,,
1465846675.46,0.171337,-0.012125,-1.490952,-0.041078,2.341462,-0.036778,0.170488,0.012125,-0.985285,-0.175645,0.003027,0.132670,-54.930317,229.766220,-96.553185,,,,,,
1465846675.45,0.148936,-0.011677,-1.490658,-0.034076,1.985749,-0.032411,0.148375,0.011676,-0.988862,-0.130813,0.000653,0.094087,-54.930317,229.766220,-96.553185,,,,,,
1465846675.48,0.232887,-0.013388,-1.491653,-0.061888,3.563631,-0.052979,0.230767,0.013387,-0.972917,-0.167885,0.003748,0.167100,-49.118889,229.818085,-99.515617,,,,,,
1465846675.47,0.198879,-0.012695,-1.491268,-0.052073,2.906359,-0.044589,0.197554,0.012694,-0.980210,-0.178633,-0.003646,0.162934,-49.118889,229.818085,-99.515617,,,,,,
1465846675.49,0.272773,-0.014178,-1.492068,-0.068636,4.115790,-0.062836,0.269376,0.014177,-0.962931,-0.138333,-0.004061,0.159174,-49.118889,229.818085,-99.515617,,,,,,
1465846675.50,0.317187,-0.015136,-1.492527,-0.081921,4.545850,-0.074062,0.311860,0.015136,-0.950008,-0.153519,0.007646,0.185741,-36.915543,229.955780,-104.354935,,,,,,
1465846675.51,0.365914,-0.016137,-1.492940,-0.080305,4.985436,-0.076817,0.357757,0.016137,-0.933675,-0.130584,-0.006234,0.186590,-36.915543,229.955780,-104.354935,,,,,,
1465846675.52,0.419526,-0.017348,-1.493347,-0.099900,5.486626,-0.083173,0.407266,0.017347,-0.913145,-0.128977,0.007341,0.210584,-36.915543,229.955780,-104.354935,,,,,,
1465846675.53,0.477918,-0.018638,-1.493697,-0.104617,5.968689,-0.087266,0.459851,0.018637,-0.887800,-0.130536,0.001932,0.239882,-27.396908,230.077179,-106.987282,,,,,,
1465846675.54,0.541859,-0.020005,-1.493976,-0.102850,6.521900,-0.094991,0.515627,0.020004,-0.856580,-0.057390,-0.005493,0.230039,-27.396908,230.077179,-106.987282,,,,,,
1465846675.55,0.610028,-0.021548,-1.494236,-0.121521,6.902058,-0.105910,0.572757,0.021546,-0.819442,-0.054325,0.006286,0.228072,-27.396908,230.077179,-106.987282,,,,,,
1465846675.57,0.755454,-0.024787,-1.494371,-0.125068,7.481783,-0.102098,0.685408,0.024784,-0.727737,0.065416,0.009670,0.207840,-1.681938,230.478348,-109.586845,,,,,,
1465846675.56,0.681332,-0.023151,-1.494366,-0.117948,7.202549,-0.108855,0.629660,0.023149,-0.776526,-0.012899,-0.003312,0.237738,-1.681938,230.478348,-109.586845,,,,,,
1465846675.58,0.831145,-0.026513,-1.494247,-0.133431,7.571038,-0.123955,0.738444,0.026510,-0.673794,0.121435,0.001048,0.164532,-1.681938,230.478348,-109.586845,,,,,,
1465846675.59,0.906080,-0.028166,-1.494008,-0.117653,7.444629,-0.106115,0.786780,0.028162,-0.616591,0.146860,0.005819,0.144576,13.681999,230.756317,-108.151306,,,,,,
1465846675.60,0.978659,-0.029725,-1.493736,-0.117957,7.189816,-0.111969,0.829383,0.029720,-0.557889,0.179452,0.002292,0.100004,13.681999,230.756317,-108.151306,,,,,,
1465846675.61,1.048442,-0.031241,-1.493212,-0.125787,6.903110,-0.101663,0.866224,0.031236,-0.498679,0.231478,0.004790,0.064291,13.681999,230.756317,-108.151306,,,,,,
1465846675.62,1.114656,-0.032655,-1.492716,-0.103913,6.512362,-0.101319,0.897281,0.032650,-0.440251,0.227963,0.004109,0.042516,43.172363,231.394409,-98.616196,,,,,,
1465846675.63,1.176450,-0.033953,-1.492152,-0.105556,6.063199,-0.091053,0.922716,0.033946,-0.383983,0.231825,0.007192,0.018093,43.172363,231.394409,-98.616196,,,,,,
1465846675.64,1.233752,-0.035125,-1.491609,-0.086956,5.610864,-0.089262,0.943154,0.035118,-0.330495,0.229148,-0.000801,-0.003001,43.172363,231.394409,-98.616196,,,,,,
1465846675.65,1.286454,-0.036238,-1.490970,-0.101352,5.173400,-0.083339,0.959216,0.036231,-0.280342,0.122708,0.007242,0.023812,54.919830,231.695953,-91.832291,,,,,,
1465846675.66,1.337038,-0.037152,-1.490315,-0.077056,5.036386,-0.071811,0.972131,0.037143,-0.231476,0.142844,0.002560,0.048157,54.919830,231.695953,-91.832291,,,,,,
1465846675.67,1.386802,-0.038143,-1.489720,-0.086722,4.946178,-0.086157,0.982406,0.038134,-0.182824,0.106645,-0.001635,0.016565,64.234085,231.967010,-84.839035,,,,,,
1465846675.68,1.435812,-0.039071,-1.488892,-0.091078,4.884570,-0.076195,0.990147,0.039061,-0.134472,0.067821,0.007433,0.073284,64.234085,231.967010,-84.839035,,,,,,
1465846675.70,1.533037,-0.040696,-1.487502,-0.088996,4.841043,-0.079114,0.998460,0.040685,-0.037719,0.079894,-0.002248,0.043136,64.234085,231.967010,-84.839035,,,,,,
1465846675.69,1.484521,-0.039892,-1.488292,-0.067682,4.865440,-0.073923,0.995488,0.039882,-0.086100,0.075801,0.004033,0.051310,64.234085,231.967010,-84.839035,,,,,,
1465846675.71,1.581278,-0.041519,-1.486687,-0.079442,4.821921,-0.076855,0.999083,0.041507,0.010472,0.017274,0.006985,0.081950,78.873520,232.446594,-69.856537,,,,,,
1465846675.72,1.630304,-0.042265,-1.485903,-0.077170,4.933412,-0.078617,0.997338,0.042253,0.059420,0.023185,0.001082,0.090483,78.873520,232.446594,-69.856537,,,,,,
1465846675.73,1.680948,-0.043013,-1.484948,-0.090797,5.094830,-0.086029,0.993020,0.043000,0.109827,0.024283,-0.003068,0.084341,84.866913,232.684311,-61.546730,,,,,,
1465846675.74,1.733172,-0.043797,-1.483925,-0.092698,5.273220,-0.089279,0.985900,0.043783,0.161508,-0.062270,0.011911,0.149909,84.866913,232.684311,-61.546730,,,,,,
1465846675.75,1.788627,-0.044546,-1.482860,-0.092211,5.651239,-0.098036,0.975400,0.044531,0.215898,-0.126477,0.000345,0.208357,84.866913,232.684311,-61.546730,,,,,,
1465846675.76,1.850190,-0.045235,-1.481569,-0.111585,6.333988,-0.102337,0.960240,0.045220,0.275491,-0.132847,0.005150,0.255546,94.831642,233.175140,-42.055801,,,,,,
1465846675.77,1.919470,-0.045897,-1.480136,-0.113817,7.091073,-0.113474,0.938837,0.045881,0.341292,-0.055094,0.005526,0.249712,94.831642,233.175140,-42.055801,,,,,,
1465846675.78,1.994434,-0.046561,-1.478452,-0.139769,7.615628,-0.121048,0.910611,0.046544,0.410634,-0.095914,0.004160,0.296489,94.831642,233.175140,-42.055801,,,,,,
1465846675.79,2.074725,-0.047100,-1.476559,-0.141199,8.158237,-0.134032,0.874721,0.047082,0.482334,-0.098705,0.004248,0.355038,98.991348,233.454376,-28.846725,,,,,,
1465846675.80,2.161605,-0.047480,-1.474585,-0.154155,8.862221,-0.139525,0.829554,0.047462,0.556405,-0.033427,0.006157,0.387626,98.991348,233.454376,-28.846725,,,,,,
1465846675.81,2.255532,-0.047700,-1.472391,-0.162880,9.539667,-0.148040,0.773705,0.047682,0.631749,0.043052,0.015535,0.397334,98.991348,233.454376,-28.846725,,,,,,
1465846675.82,2.354351,-0.047706,-1.470086,-0.176189,9.948495,-0.160197,0.707603,0.047688,0.704999,0.136192,0.003459,0.370593,98.991348,233.454376,-28.846725,,,,,,
1465846675.83,2.455300,-0.047410,-1.467634,-0.188754,10.122628,-0.158109,0.632962,0.047392,0.772731,0.137317,0.017686,0.403142,101.498581,234.068466,6.508709,,,,,,
1465846675.84,2.557774,-0.046982,-1.465362,-0.165144,10.263848,-0.163229,0.550606,0.046965,0.833443,0.250450,0.009630,0.382087,101.498581,234.068466,6.508709,,,,,,
1465846675.85,2.660695,-0.046224,-1.463038,-0.188571,10.264915,-0.161130,0.462081,0.046208,0.885633,0.310853,0.017528,0.346819,101.498581,234.068466,6.508709,,,,,,
1465846675.86,2.762104,-0.045262,-1.460877,-0.172853,10.073766,-0.153528,0.370066,0.045246,0.927903,0.361440,0.018642,0.318206,88.955383,234.488754,47.268822,,,,,,
1465846675.87,2.860354,-0.044212,-1.458893,-0.162665,9.705318,-0.152272,0.277275,0.044198,0.959774,0.436287,0.015754,0.255375,88.955383,234.488754,47.268822,,,,,,
1465846675.88,2.953075,-0.043019,-1.457123,-0.153864,9.101115,-0.136765,0.187230,0.043005,0.981374,0.476970,0.013696,0.185572,88.955383,234.488754,47.268822,,,,,,
1465846675.89,3.038449,-0.041851,-1.455610,-0.131424,8.319612,-0.129712,0.102870,0.041838,0.993815,0.533787,0.010698,0.107336,77.023232,234.555222,64.681061,,,,,,
1465846675.90,3.114351,-0.040624,-1.454313,-0.131618,7.319386,-0.121311,0.027216,0.040613,0.998804,0.569936,0.015738,0.001623,77.023232,234.555222,64.681061,,,,,,
1465846675.91,-3.104028,-0.039536,-1.453274,-0.097929,6.185329,-0.101391,-0.037526,0.039526,0.998514,0.561345,0.006479,-0.062021,77.023232,234.555222,64.681061,,,,,,
1465846675.92,-3.050877,-0.038647,-1.452467,-0.085574,5.020489,-0.081300,-0.090524,0.038637,0.995145,0.552361,0.011412,-0.134534,51.532551,234.473175,86.597374,,,,,,
1465846675.93,-3.009327,-0.037806,-1.451883,-0.071082,3.866259,-0.058080,-0.131786,0.037797,0.990557,0.515773,0.004394,-0.171603,51.532551,234.473175,86.597374,,,,,,
1465846675.94,-2.979319,-0.037325,-1.451492,-0.034227,2.701422,-0.043287,-0.161450,0.037316,0.986175,0.538555,0.017081,-0.226349,51.532551,234.473175,86.597374,,,,,,
1465846675.95,-2.961764,-0.036981,-1.451242,-0.027329,1.425105,-0.025695,-0.178739,0.036973,0.983202,0.534391,0.002761,-0.262895,42.741318,234.402328,91.439064,,,,,,
1465846675.96,-2.957628,-0.036859,-1.451160,-0.003489,0.077633,-0.005512,-0.182804,0.036851,0.982458,0.510487,0.009963,-0.284567,42.741318,234.402328,91.439064,,,,,,
1465846675.97,-2.966256,-0.036964,-1.451161,0.014124,-1.146658,0.010700,-0.174321,0.036955,0.983995,0.387837,0.004488,-0.226106,42.741318,234.402328,91.439064,,,,,,
1465846675.98,-2.984291,-0.037258,-1.451376,0.027949,-1.991890,0.026659,-0.156545,0.037250,0.986968,0.348333,0.010586,-0.189208,38.566177,234.369827,93.358521,,,,,,
1465846675.99,-3.008844,-0.037677,-1.451646,0.041021,-2.597139,0.035790,-0.132265,0.037668,0.990498,0.299044,0.003882,-0.132817,38.566177,234.369827,93.358521,,,,,,
1465846676.00,-3.039302,-0.038255,-1.452053,0.057286,-3.198151,0.048091,-0.102038,0.038246,0.994045,0.298754,0.009041,-0.131466,38.566177,234.369827,93.358521,,,,,,
1465846676.01,-3.076598,-0.038940,-1.452549,0.067023,-3.913828,0.058976,-0.064900,0.038930,0.997132,0.281193,0.006770,-0.101456,42.638943,234.404205,91.482025,,,,,,
1465846676.02,-3.121437,-0.039750,-1.453237,0.082029,-4.666683,0.074357,-0.020138,0.039740,0.999007,0.284725,0.005136,-0.088637,42.638943,234.404205,91.482025,,,,,,
1465846676.03,3.109996,-0.040592,-1.454012,0.084390,-5.329252,0.079579,0.031565,0.040581,0.998678,0.249471,0.008995,-0.027791,48.961941,234.462280,88.105286,,,,,,
1465846676.04,3.053145,-0.041457,-1.454933,0.095536,-5.765689,0.091908,0.088257,0.041445,0.995235,0.161835,0.002272,0.036991,48.961941,234.462280,88.105286,,,,,,
1465846676.05,2.993854,-0.042433,-1.456023,0.112310,-5.978053,0.091128,0.147070,0.042421,0.988216,0.208292,0.014617,0.057164,48.961941,234.462280,88.105286,,,,,,
1465846676.06,2.931817,-0.043229,-1.457085,0.092769,-6.279593,0.091935,0.208046,0.043215,0.977164,0.153191,0.000394,0.087564,67.134003,234.566055,74.860970,,,,,,
1465846676.07,2.866943,-0.044014,-1.458296,0.113735,-6.531268,0.099921,0.270947,0.044000,0.961588,0.085971,0.007117,0.141851,67.134003,234.566055,74.860970,,,,,,
1465846676.08,2.801256,-0.044844,-1.459617,0.115836,-6.557807,0.097960,0.333469,0.044829,0.941695,0.055279,0.009080,0.172853,67.134003,234.566055,74.860970,,,,,,
1465846676.09,2.736805,-0.045475,-1.460942,0.106460,-6.387923,0.100079,0.393416,0.045459,0.918236,0.000138,0.003461,0.212608,76.475060,234.572037,65.267891,,,,,,
1465846676.10,2.674781,-0.046083,-1.462254,0.111063,-6.123519,0.092039,0.449564,0.046067,0.892060,-0.044718,0.009384,0.222442,76.475060,234.572037,65.267891,,,,,,
1465846676.11,2.615859,-0.046562,-1.463519,0.099762,-5.797537,0.088918,0.501304,0.046545,0.864019,-0.111808,0.002680,0.235164,76.475060,234.572037,65.267891,,,,,,
1465846676.12,2.561244,-0.046906,-1.464760,0.095019,-5.337768,0.083901,0.547712,0.046889,0.835352,-0.112852,0.004488,0.232168,91.041435,234.489365,43.111240,,,,,,
1465846676.13,2.511139,-0.047232,-1.465864,0.083892,-4.891770,0.068320,0.588854,0.047215,0.806859,-0.144655,0.005520,0.217280,91.041435,234.489365,43.111240,,,,,,
1465846676.14,2.465990,-0.047404,-1.466915,0.077077,-4.371504,0.072501,0.624665,0.047387,0.779454,-0.204056,-0.001153,0.230647,91.041435,234.489365,43.111240,,,,,,
1465846676.15,2.427108,-0.047559,-1.467845,0.067278,-3.709969,0.058762,0.654487,0.047541,0.754577,-0.219566,0.000509,0.219727,95.396378,234.410522,32.918365,,,,,,
1465846676.16,2.395156,-0.047643,-1.468538,0.050062,-3.016583,0.046945,0.678257,0.047625,0.733280,-0.264850,0.005719,0.211025,95.396378,234.410522,32.918365,,,,,,
1465846676.17,2.370717,-0.047701,-1.469139,0.044658,-2.243567,0.034641,0.695971,0.047683,0.716485,-0.285799,-0.001616,0.210273,95.396378,234.410522,32.918365,,,,,,
1465846676.18,2.354306,-0.047728,-1.469539,0.024387,-1.437631,0.023179,0.707634,0.047709,0.704967,-0.288307,-0.000133,0.190221,95.396378,234.410522,32.918365,,,,,,
1465846676.19,2.345875,-0.047721,-1.469749,0.012618,-0.644440,0.011806,0.713553,0.047703,0.698976,-0.289511,0.001720,0.174712,99.534988,234.259506,18.645233,,,,,,
1465846676.20,2.345136,-0.047731,-1.469793,0.000810,0.114778,-0.001483,0.714069,0.047713,0.698448,-0.283054,-0.000029,0.165856,99.534988,234.259506,18.645233,,,,,,
1465846676.21,2.351878,-0.047695,-1.469640,-0.017412,0.858064,-0.011485,0.709345,0.047677,0.703247,-0.274973,0.002448,0.153091,100.063438,234.225555,16.064606,,,,,,
1465846676.22,2.365955,-0.047659,-1.469325,-0.026071,1.586480,-0.021384,0.699376,0.047641,0.713164,-0.257879,0.000561,0.154863,100.063438,234.225555,16.064606,,,,,,
1465846676.23,2.386943,-0.047602,-1.468855,-0.041181,2.260753,-0.033079,0.684257,0.047584,0.727687,-0.222404,0.000710,0.138707,100.063438,234.225555,16.064606,,,,,,
1465846676.24,2.414148,-0.047511,-1.468211,-0.053190,2.862819,-0.043254,0.664213,0.047493,0.746033,-0.198927,0.000221,0.137085,99.187111,234.267883,20.318699,,,,,,
1465846676.25,2.446932,-0.047393,-1.467475,-0.057826,3.409653,-0.047752,0.639406,0.047375,0.767408,-0.169130,0.003757,0.138399,99.187111,234.267883,20.318699,,,,,,
1465846676.26,2.484612,-0.047262,-1.466634,-0.065746,3.866267,-0.063397,0.610047,0.047245,0.790955,-0.097108,0.005947,0.118377,99.187111,234.267883,20.318699,,,,,,
1465846676.27,2.526004,-0.047025,-1.465674,-0.077028,4.210294,-0.064502,0.576801,0.047007,0.815531,-0.070164,0.002294,0.115087,97.575607,234.330719,26.466751,,,,,,
1465846676.28,2.570200,-0.046742,-1.464701,-0.077756,4.484231,-0.063027,0.540214,0.046724,0.840230,-0.047584,0.002424,0.111079,97.575607,234.330719,26.466751,,,,,,
1465846676.29,2.616631,-0.046429,-1.463703,-0.080701,4.671131,-0.071653,0.500640,0.046412,0.864411,0.025132,0.005559,0.093429,97.575607,234.330719,26.466751,,,,,,
1465846676.30,2.664059,-0.046034,-1.462645,-0.084853,4.750776,-0.075350,0.459103,0.046017,0.887190,0.042362,0.005939,0.089708,91.060539,234.467850,43.187763,,,,,,
1465846676.31,2.712106,-0.045601,-1.461632,-0.082646,4.819781,-0.071523,0.415971,0.045585,0.908234,0.043135,-0.000495,0.091842,91.060539,234.467850,43.187763,,,,,,
1465846676.32,2.760923,-0.045116,-1.460612,-0.084683,4.887745,-0.075145,0.371165,0.045101,0.927471,0.100027,0.007359,0.078541,91.060539,234.467850,43.187763,,,,,,
1465846676.33,2.809184,-0.044619,-1.459640,-0.079499,4.778375,-0.073389,0.325996,0.044604,0.944318,0.149956,0.003889,0.047991,86.173645,234.516754,52.042068,,,,,,
1465846676.34,2.855013,-0.044082,-1.458706,-0.080903,4.507615,-0.071692,0.282399,0.044068,0.958284,0.177135,0.010665,0.019972,86.173645,234.516754,52.042068,,,,,,
1465846676.35,2.897541,-0.043566,-1.457915,-0.065389,4.158248,-0.059906,0.241407,0.043552,0.969446,0.201907,0.005658,-0.003519,86.173645,234.516754,52.042068,,,,,,
1465846676.36,2.936046,-0.043095,-1.457191,-0.060587,3.744139,-0.056239,0.203913,0.043081,0.978041,0.229101,0.014002,-0.033094,74.382431,234.555817,67.699356,,,,,,
1465846676.37,2.969918,-0.042620,-1.456533,-0.056933,3.258900,-0.055321,0.170678,0.042607,0.984405,0.241798,0.005428,-0.062149,74.382431,234.555817,67.699356,,,,,,
1465846676.38,2.998570,-0.042211,-1.456066,-0.046873,2.808655,-0.040779,0.142409,0.042198,0.988908,0.235521,0.004280,-0.054795,74.382431,234.555817,67.699356,,,,,,
1465846676.39,3.022592,-0.041866,-1.455624,-0.040112,2.255455,-0.038367,0.118616,0.041854,0.992058,0.270544,0.010819,-0.113090,74.382431,234.555817,67.699356,,,,,,
1465846676.40,3.040406,-0.041556,-1.455303,-0.030287,1.613036,-0.025813,0.100927,0.041544,0.994026,0.271617,0.003591,-0.114571,64.879578,234.540466,76.901192,,,,,,
1465846676.41,3.051359,-0.041422,-1.455133,-0.012003,0.921772,-0.014008,0.090034,0.041410,0.995077,0.283073,0.004260,-0.146048,64.879578,234.540466,76.901192,,,,,,
1465846676.42,3.055009,-0.041361,-1.455047,-0.004407,0.192300,-0.006232,0.086401,0.041350,0.995402,0.287744,0.008592,-0.149409,64.879578,234.540466,76.901192,,,,,,
1465846676.43,3.051663,-0.041413,-1.455092,0.008546,-0.501090,0.007710,0.089731,0.041401,0.995105,0.256475,0.002574,-0.152149,62.537243,234.530167,78.848358,,,,,,
1465846676.44,3.042041,-0.041570,-1.455246,0.019485,-1.110582,0.015801,0.099302,0.041558,0.994189,0.247592,0.006233,-0.132129,62.537243,234.530167,78.848358,,,,,,
1465846676.45,3.026654,-0.041788,-1.455482,0.025158,-1.674414,0.023600,0.114586,0.041776,0.992535,0.215507,0.003695,-0.122997,62.503948,234.531708,78.870171,,,,,,
1465846676.46,3.006242,-0.042070,-1.455815,0.033094,-2.132067,0.030736,0.134818,0.042058,0.989977,0.173638,0.004008,-0.085619,62.503948,234.531708,78.870171,,,,,,
1465846676.47,2.982313,-0.042420,-1.456238,0.042242,-2.469740,0.038186,0.158464,0.042407,0.986454,0.141600,0.001370,-0.064029,62.503948,234.531708,78.870171,,,,,,
1465846676.48,2.955394,-0.042814,-1.456671,0.046145,-2.760664,0.035756,0.184955,0.042801,0.981815,0.121884,0.007508,-0.043140,68.042999,234.553024,74.077034,,,,,,
1465846676.49,2.926150,-0.043189,-1.457210,0.047994,-2.967746,0.047701,0.213581,0.043176,0.975971,0.068722,-0.000512,-0.008426,68.042999,234.553024,74.077034,,,,,,
1465846676.50,2.895403,-0.043566,-1.457760,0.047862,-3.081345,0.043091,0.243480,0.043553,0.968928,0.061208,0.008694,0.001211,68.042999,234.553024,74.077034,,,,,,
1465846676.51,2.863976,-0.043961,-1.458399,0.057325,-3.159952,0.054238,0.273800,0.043947,0.960782,0.037968,0.002470,0.026782,72.274994,234.563568,69.918732,,,,,,
1465846676.53,2.798000,-0.044718,-1.459678,0.060284,-3.352131,0.052253,0.336535,0.044703,0.940609,-0.003543,-0.001551,0.050953,72.274994,234.563568,69.918732,,,,,,
1465846676.52,2.831446,-0.044336,-1.459008,0.051868,-3.279910,0.046470,0.304898,0.044322,0.951353,0.047534,0.009298,0.015017,72.274994,234.563568,69.918732,,,,,,
1465846676.54,2.765027,-0.045094,-1.460368,0.058268,-3.265057,0.049576,0.367355,0.045079,0.928988,-0.017380,0.005565,0.060362,72.274994,234.563568,69.918732,,,,,,
1465846676.55,2.733307,-0.045381,-1.460993,0.049912,-3.136574,0.048762,0.396627,0.045365,0.916858,-0.035437,0.002501,0.070737,81.035118,234.553452,59.584969,,,,,,
1465846676.56,2.703074,-0.045678,-1.461632,0.053312,-2.977297,0.044573,0.424155,0.045662,0.904437,-0.071571,0.001976,0.086407,81.035118,234.553452,59.584969,,,,,,
1465846676.57,2.675047,-0.045938,-1.462236,0.047230,-2.733079,0.043035,0.449329,0.045922,0.892185,-0.095234,0.002967,0.094082,84.935631,234.534561,53.961536,,,,,,
1465846676.58,2.650247,-0.046162,-1.462735,0.041307,-2.380525,0.029109,0.471310,0.046145,0.880760,-0.119168,-0.011370,0.106103,84.935631,234.534561,53.961536,,,,,,
1465846676.59,2.629097,-0.046390,-1.463215,0.039592,-2.031223,0.038626,0.489826,0.046373,0.870586,-0.156696,0.018034,0.106526,84.935631,234.534561,53.961536,,,,,,
1465846676.60,2.612119,-0.046482,-1.463603,0.025263,-1.596894,0.019921,0.504534,0.046465,0.862141,-0.127321,-0.005785,0.106380,90.421028,234.492447,44.381371,,,,,,
1465846676.61,2.598349,-0.046666,-1.463867,0.029886,-1.311262,0.014941,0.516353,0.046649,0.855105,-0.118937,-0.002475,0.089155,90.421028,234.492447,44.381371,,,,,,
1465846676.62,2.587376,-0.046754,-1.464149,0.019596,-1.018214,0.018415,0.525702,0.046737,0.849384,-0.148520,0.000764,0.084103,90.421028,234.492447,44.381371,,,,,,
1465846676.63,2.580146,-0.046850,-1.464302,0.013634,-0.686912,0.011009,0.531827,0.046833,0.845557,-0.115720,0.009259,0.071588,90.421028,234.492447,44.381371,,,,,,
1465846676.64,2.575489,-0.046880,-1.464435,0.007618,-0.391725,0.008087,0.535759,0.046863,0.843070,-0.113472,0.003354,0.056833,92.640533,234.468491,39.681618,,,,,,
1465846676.65,2.573544,-0.046861,-1.464473,-0.002698,-0.127330,0.006419,0.537397,0.046844,0.842027,-0.105161,0.016800,0.055022,92.640533,234.468491,39.681618,,,,,,
1465846676.66,2.580636,-0.047010,-1.464207,-0.004472,0.158325,0.005689,0.531408,0.046993,0.845811,-0.105383,0.003956,0.052016,92.932404,234.459671,39.046219,,,,,,
1465846676.68,2.594516,-0.046374,-1.463791,-0.008111,0.633012,-0.010065,0.519634,0.046357,0.853131,-0.068813,-0.011979,0.045948,92.932404,234.459671,39.046219,,,,,,
1465846676.67,2.584274,-0.046990,-1.464121,-0.007303,0.428060,-0.008779,0.528329,0.046972,0.847740,-0.069909,-0.007101,0.054696,92.932404,234.459671,39.046219,,,,,,
1465846676.69,2.602231,-0.046354,-1.463608,-0.013197,0.815656,-0.015473,0.513037,0.046338,0.857115,-0.056326,0.002414,0.036730,92.932404,234.459671,39.046219,,,,,,
1465846676.70,2.611785,-0.046266,-1.463397,-0.019357,1.001469,-0.014516,0.504827,0.046250,0.861981,-0.057576,0.003128,0.026981,91.663116,234.467072,41.897980,,,,,,
1465846676.71,2.623508,-0.046194,-1.463138,-0.017998,1.228706,-0.020197,0.494689,0.046178,0.867842,-0.052520,-0.000814,0.038621,91.663116,234.467072,41.897980,,,,,,
1465846676.72,2.637591,-0.046120,-1.462863,-0.020933,1.441060,-0.018339,0.482420,0.046103,0.874726,-0.050962,0.005105,0.039947,90.674850,234.480591,43.923782,,,,,,
1465846676.73,2.653302,-0.045996,-1.462487,-0.030290,1.603550,-0.030011,0.468621,0.045980,0.882202,-0.020745,0.007014,0.023483,90.674850,234.480591,43.923782,,,,,,
1465846676.74,2.670160,-0.045852,-1.462110,-0.030166,1.712898,-0.024310,0.453686,0.045836,0.889982,-0.030316,0.009889,0.025560,90.674850,234.480591,43.923782,,,,,,
1465846676.75,2.688829,-0.045649,-1.461726,-0.037353,1.923141,-0.026701,0.436997,0.045633,0.898305,-0.043748,0.010901,0.031062,89.214691,234.501144,46.715443,,,,,,
1465846676.76,2.709768,-0.045412,-1.461290,-0.040280,2.134445,-0.029093,0.418097,0.045396,0.907267,-0.012198,0.005446,0.032430,89.214691,234.501144,46.715443,,,,,,
1465846676.77,2.731990,-0.045183,-1.460834,-0.039081,2.234266,-0.033976,0.397839,0.045168,0.916343,0.014851,-0.002016,0.029488,89.214691,234.501144,46.715443,,,,,,
1465846676.78,2.754301,-0.044959,-1.460356,-0.036964,2.222588,-0.034965,0.377301,0.044944,0.925000,0.032642,-0.006003,0.021274,84.991196,234.527130,53.906376,,,,,,
1465846676.79,2.776307,-0.044765,-1.459911,-0.033813,2.188609,-0.034749,0.356858,0.044751,0.933086,0.048980,-0.000515,0.006993,84.991196,234.527130,53.906376,,,,,,
1465846676.80,2.797701,-0.044555,-1.459488,-0.034971,2.117462,-0.032175,0.336819,0.044540,0.940515,0.076038,0.006897,-0.009653,84.991196,234.527130,53.906376,,,,,,
1465846676.81,2.817990,-0.044332,-1.459075,-0.034065,1.991107,-0.031381,0.317672,0.044317,0.947165,0.092301,0.001673,-0.020117,82.354919,234.544327,57.784176,,,,,,
1465846676.82,2.836239,-0.044183,-1.458712,-0.031077,1.829704,-0.028237,0.300337,0.044169,0.952810,0.095995,0.010656,-0.031011,82.354919,234.544327,57.784176,,,,,,
1465846676.83,2.853327,-0.043982,-1.458391,-0.027031,1.662993,-0.025059,0.284015,0.043968,0.957811,0.101315,0.003243,-0.030016,82.354919,234.544327,57.784176,,,,,,
1465846676.84,2.869532,-0.043729,-1.459361,0.029986,1.678205,0.223984,0.268460,0.043715,0.962298,0.125339,0.007372,-0.043277,82.354919,234.544327,57.784176,,,,,,
1465846676.85,2.865359,-0.044487,-1.460399,0.064829,-1.646438,-0.096819,0.272464,0.044472,0.961138,2.235410,0.183281,-1.021273,77.379707,234.564102,64.221748,,,,,,
1465846676.86,2.797281,-0.044120,-1.459457,-0.024709,-8.551247,-0.073828,0.337220,0.044106,0.940392,0.426208,-0.112312,-0.259209,77.379707,234.564102,64.221748,,,,,,
1465846676.87,2.683017,-0.045505,-1.461946,0.288063,-11.698314,0.232558,0.442213,0.045489,0.895756,0.116228,-0.015872,0.320278,77.016075,234.493561,64.912766,,,,,,
1465846676.88,2.579815,-0.046319,-1.464552,0.138498,-9.680591,0.138856,0.532120,0.046303,0.845402,0.088500,0.051232,0.451016,77.016075,234.493561,64.912766,,,,,,
1465846676.89,2.500538,-0.046404,-1.465751,0.084961,-7.393404,0.111685,0.597397,0.046388,0.800603,-0.148453,-0.024964,0.430431,77.016075,234.493561,64.912766,,,,,,
1465846676.90,2.434963,-0.046951,-1.467363,0.150126,-6.417561,0.076890,0.648559,0.046934,0.759716,-0.164687,0.070482,0.327381,95.834923,234.348389,32.076183,,,,,,
1465846676.91,2.364493,-0.047454,-1.466679,-0.133993,-7.592046,-0.202364,0.700425,0.047436,0.712148,-3.186143,0.235370,0.614314,95.834923,234.348389,32.076183,,,,,,
1465846676.92,2.326337,-0.042796,-1.466916,-0.156974,-1.639782,0.609713,0.727234,0.042783,0.685055,-1.524521,-0.114514,1.603672,95.834923,234.348389,32.076183,,,,,,
1465846676.93,2.377963,-0.042323,-1.472506,0.319683,6.733492,0.123379,0.690929,0.042311,0.721684,1.550450,0.265734,-0.790608,99.281403,234.381851,18.458687,,,,,,
1465846676.94,2.448817,-0.041066,-1.465833,-0.704638,6.575345,-0.484452,0.638137,0.041054,0.768828,-0.032577,-0.301705,0.069872,99.281403,234.381851,18.458687,,,,,,
1465846676.95,2.481736,-0.041333,-1.464342,0.232274,2.204236,0.023963,0.612480,0.041321,0.789405,0.145287,0.027938,0.021203,99.281403,234.381851,18.458687,,,,,,
1465846676.96,2.480107,-0.044517,-1.466790,0.258567,-0.766418,-0.060631,0.613681,0.044502,0.788299,0.642255,-0.021827,-0.455856,96.890503,234.005264,31.403023,,,,,,
1465846676.97,2.463656,-0.042868,-1.465304,-0.250740,-1.772984,0.029265,0.626611,0.042855,0.778153,0.165824,-0.029030,-0.182450,96.890503,234.005264,31.403023,,,,,,
1465846676.98,2.448414,-0.043950,-1.466118,0.238539,-1.419479,-0.034202,0.638368,0.043936,0.768476,-0.301058,-0.011999,0.225634,96.890503,234.005264,31.403023,,,,,,
1465846676.99,2.439245,-0.044392,-1.467263,0.035814,-0.717856,0.081478,0.645375,0.044378,0.762576,-0.144368,-0.074758,0.139981,97.391075,234.079056,29.229351,,,,,,
1465846677.00,2.437607,-0.044328,-1.467708,0.057047,-0.016907,0.015365,0.646626,0.044313,0.761519,0.265072,0.040175,-0.075789,97.391075,234.079056,29.229351,,,,,,
1465846677.01,2.436167,-0.045330,-1.467787,0.053723,-0.254518,-0.067239,0.647692,0.045315,0.760553,-0.023516,0.025364,-0.048578,97.391075,234.079056,29.229351,,,,,,
1465846677.02,2.429941,-0.045365,-1.467761,0.011468,-0.709168,0.015404,0.652414,0.045350,0.756505,-0.027993,0.063308,-0.062978,98.223267,234.141403,25.736675,,,,,,
1465846677.03,2.422820,-0.045851,-1.468254,0.070091,-0.678373,0.003560,0.657769,0.045835,0.751824,-0.059549,0.047518,0.002647,98.223267,234.141403,25.736675,,,,,,
1465846677.04,2.417846,-0.045692,-1.468258,-0.039287,-0.426706,0.014646,0.661506,0.045676,0.748548,-0.188316,0.037439,0.022403,98.223267,234.141403,25.736675,,,,,,
1465846677.05,2.417026,-0.045189,-1.468528,-0.002574,0.050955,0.056394,0.662134,0.045174,0.748023,-0.072336,-0.024056,0.067514,98.559387,234.157608,24.261864,,,,,,
1465846677.06,2.419788,-0.044886,-1.468653,-0.033067,0.313312,0.027043,0.660075,0.044871,0.749858,-0.073435,0.005178,0.005787,98.559387,234.157608,24.261864,,,,,,
1465846677.07,2.423251,-0.044098,-1.468517,-0.066064,0.348321,0.043821,0.657497,0.044084,0.752167,-0.041896,0.021621,-0.001541,98.559387,234.157608,24.261864,,,,,,
1465846677.08,2.426837,-0.043512,-1.468622,-0.034107,0.351505,0.038511,0.654813,0.043498,0.754538,0.138995,-0.011836,-0.061652,98.864914,233.996201,24.574108,,,,,,
1465846677.09,2.429376,-0.043128,-1.468152,-0.062924,0.208328,-0.015971,0.652906,0.043115,0.756211,-0.024228,-0.012033,0.014556,98.864914,233.996201,24.574108,,,,,,
1465846677.10,2.432084,-0.042842,-1.467823,-0.031943,0.317632,0.000405,0.650863,0.042828,0.757986,-0.052566,-0.002500,0.055536,98.864914,233.996201,24.574108,,,,,,
1465846677.11,2.436949,-0.042679,-1.467599,-0.035914,0.523664,-0.015793,0.647173,0.042666,0.761149,-0.008302,0.010953,-0.008555,98.796799,233.936218,25.405022,,,,,,
1465846677.12,2.442248,-0.042153,-1.467267,-0.060491,0.510835,0.020454,0.643145,0.042141,0.764584,-0.020494,0.014225,-0.013623,98.796799,233.936218,25.405022,,,,,,
1465846677.13,2.445979,-0.041670,-1.467321,-0.026691,0.319650,0.037654,0.640300,0.041658,0.766994,0.053349,0.025602,-0.033520,98.796799,233.936218,25.405022,,,,,,
1465846677.14,2.444605,-0.040216,-1.467490,-0.039792,0.063746,0.040312,0.641392,0.040205,0.766159,0.041179,-0.015348,-0.018997,98.431770,233.862061,27.424503,,,,,,
1465846677.15,2.444423,-0.039791,-1.467542,-0.018592,-0.033912,0.027108,0.641542,0.039780,0.766055,0.042585,-0.014451,0.025601,98.431770,233.862061,27.424503,,,,,,
1465846677.16,2.442292,-0.038436,-1.467805,0.009122,-0.028591,0.014331,0.643207,0.038427,0.764727,0.051449,-0.022100,0.012678,98.431770,233.862061,27.424503,,,,,,
1465846677.17,2.441901,-0.038385,-1.467776,-0.005784,-0.048723,0.001669,0.643507,0.038376,0.764477,-0.005461,-0.006378,0.003681,98.795746,233.690720,27.575863,,,,,,
1465846677.19,2.442065,-0.038304,-1.468049,0.010106,-0.091232,0.015790,0.643384,0.038294,0.764585,0.009692,0.013601,-0.022627,98.795746,233.690720,27.575863,,,,,,
1465846677.18,2.442911,-0.038281,-1.467852,0.020806,-0.068905,0.002887,0.642738,0.038272,0.765130,-0.024207,-0.003543,0.017509,98.795746,233.690720,27.575863,,,,,,
1465846677.20,2.439584,-0.038574,-1.468200,-0.002754,-0.158125,0.016196,0.645272,0.038564,0.762979,0.006522,0.006510,-0.021860,99.174149,233.535248,27.534599,,,,,,
1465846677.21,2.438383,-0.038670,-1.468304,0.001421,-0.221837,0.018728,0.646186,0.038661,0.762200,-0.018576,0.004033,0.006064,99.174149,233.535248,27.534599,,,,,,
1465846677.22,2.435875,-0.039325,-1.468512,0.005660,-0.233528,0.021997,0.648079,0.039315,0.760558,0.001824,0.016105,-0.001265,99.174149,233.535248,27.534599,,,,,,
1465846677.23,2.433349,-0.039932,-1.468661,0.000332,-0.246253,0.016748,0.649982,0.039921,0.758900,-0.006962,0.014965,-0.010395,99.264633,233.551559,27.066364,,,,,,
1465846677.24,2.432535,-0.040100,-1.468735,-0.000738,-0.247312,0.018882,0.650595,0.040089,0.758366,-0.033682,0.006602,0.018627,99.264633,233.551559,27.066364,,,,,,
1465846677.25,2.431073,-0.039545,-1.468948,0.008859,-0.219732,0.028299,0.651718,0.039535,0.757430,-0.019989,-0.010879,0.010178,99.264633,233.551559,27.066364,,,,,,
1465846677.26,2.429546,-0.038710,-1.469087,0.003595,-0.193144,0.014291,0.652895,0.038700,0.756459,-0.009127,-0.018345,0.006724,99.439873,233.588150,26.089550,,,,,,
1465846677.27,2.428026,-0.037840,-1.469231,0.014272,-0.175085,0.009932,0.654066,0.037831,0.755491,-0.001798,-0.022068,0.010744,99.439873,233.588150,26.089550,,,,,,
1465846677.28,2.426565,-0.038297,-1.469338,0.016392,-0.195238,0.002609,0.655158,0.038288,0.754521,-0.015021,0.008496,0.000468,99.439873,233.588150,26.089550,,,,,,
1465846677.29,2.424842,-0.039176,-1.469449,0.013201,-0.197353,0.000489,0.656434,0.039166,0.753366,-0.010072,0.020649,0.000586,99.829208,233.426941,26.045441,,,,,,
1465846677.30,2.423587,-0.040289,-1.469503,0.016390,-0.203718,-0.000535,0.657350,0.040278,0.752508,-0.029802,0.025930,-0.001287,99.829208,233.426941,26.045441,,,,,,
1465846677.31,2.421909,-0.041419,-1.469650,0.015310,-0.200560,0.010087,0.658581,0.041407,0.751369,-0.025952,0.028173,-0.014217,99.829208,233.426941,26.045441,,,,,,
1465846677.32,2.419997,-0.041973,-1.469760,-0.000678,-0.207996,0.014374,0.660002,0.041961,0.750091,-0.019743,0.016328,-0.015091,99.508728,233.705353,24.742790,,,,,,
1465846677.34,2.415446,-0.041659,-1.470065,0.007760,-0.263227,0.020051,0.663417,0.041647,0.747090,-0.006999,-0.002295,-0.005680,99.508728,233.705353,24.742790,,,,,,
1465846677.33,2.418002,-0.041799,-1.469871,0.000347,-0.234548,0.017735,0.661502,0.041787,0.748779,-0.018771,-0.002266,-0.005966,99.508728,233.705353,24.742790,,,,,,
1465846677.35,2.412562,-0.041557,-1.470224,0.001338,-0.295069,0.017051,0.665572,0.041545,0.745177,-0.004118,-0.017818,-0.003920,99.584381,233.724335,24.253986,,,,,,
1465846677.36,2.410104,-0.040905,-1.470345,0.009845,-0.309923,0.012896,0.667420,0.040894,0.743558,-0.008392,-0.018357,0.020632,99.584381,233.724335,24.253986,,,,,,
1465846677.37,2.407290,-0.040482,-1.470527,0.021553,-0.322651,0.006602,0.669521,0.040471,0.741690,-0.003078,-0.016179,0.018381,99.584381,233.724335,24.253986,,,,,,
1465846677.38,2.403611,-0.040623,-1.470714,0.023646,-0.358743,0.002573,0.672241,0.040612,0.739218,-0.001022,-0.000436,-0.008764,100.157547,233.574982,23.314503,,,,,,
1465846677.39,2.399718,-0.040806,-1.470896,0.026794,-0.400146,-0.000358,0.675108,0.040794,0.736590,-0.009352,0.012444,-0.006731,100.157547,233.574982,23.314503,,,,,,
1465846677.40,2.395468,-0.040949,-1.471112,0.022488,-0.424589,0.008307,0.678229,0.040937,0.733710,-0.010794,0.019411,-0.015127,100.157547,233.574982,23.314503,,,,,,
1465846677.41,2.391000,-0.041011,-1.471321,0.018183,-0.449029,0.015907,0.681498,0.040999,0.730670,-0.032786,0.007692,-0.019061,100.343292,233.580643,22.442982,,,,,,
1465846677.42,2.387749,-0.040878,-1.471503,0.011807,-0.428863,0.022161,0.683874,0.040867,0.728455,-0.041387,-0.003788,0.013931,100.343292,233.580643,22.442982,,,,,,
1465846677.43,2.383708,-0.040804,-1.471794,0.016104,-0.397014,0.023030,0.686814,0.040792,0.725687,-0.018830,-0.023657,0.016119,100.343292,233.580643,22.442982,,,,,,
1465846677.44,2.379658,-0.040776,-1.472042,0.015031,-0.408685,0.019908,0.689749,0.040764,0.722900,-0.009893,-0.010613,0.000748,100.841492,233.527603,20.693611,,,,,,
1465846677.45,2.375316,-0.040779,-1.472294,0.018189,-0.439476,0.019040,0.692881,0.040768,0.719899,-0.015192,0.007847,-0.008259,100.841492,233.527603,20.693611,,,,,,
1465846677.46,2.370908,-0.041627,-1.472546,0.014972,-0.460706,0.018104,0.696023,0.041615,0.716813,-0.027810,0.029155,-0.015320,100.841492,233.527603,20.693611,,,,,,
1465846677.47,2.366159,-0.041540,-1.472880,0.015992,-0.467127,0.036241,0.699422,0.041528,0.713501,-0.052770,0.030844,-0.017685,101.099213,233.496017,19.771919,,,,,,
1465846677.48,2.361729,-0.041326,-1.473190,0.001122,-0.440572,0.034995,0.702582,0.041314,0.710402,-0.041205,0.049995,-0.031706,101.099213,233.496017,19.771919,,,,,,
1465846677.49,2.357699,-0.040859,-1.473441,-0.021197,-0.373726,0.055842,0.705453,0.040848,0.707579,-0.074716,-0.001251,0.012621,101.099213,233.496017,19.771919,,,,,,
1465846677.50,2.356662,-0.040437,-1.473606,-0.001931,-0.306807,0.046926,0.706198,0.040426,0.706859,-0.073752,-0.001699,0.025304,101.607346,233.434845,17.790417,,,,,,
1465846677.51,2.354296,-0.040020,-1.473959,-0.017775,-0.203807,0.047329,0.707881,0.040009,0.705198,0.000051,0.005309,-0.063657,101.607346,233.434845,17.790417,,,,,,
1465846677.52,2.352798,-0.039383,-1.473727,-0.062375,-0.134724,0.030884,0.708954,0.039373,0.704155,-0.072739,-0.018727,0.034340,101.607346,233.434845,17.790417,,,,,,
1465846677.53,2.352025,-0.039071,-1.473954,0.012235,-0.057276,0.040053,0.709507,0.039061,0.703615,-0.060703,-0.009856,0.026304,101.890854,233.333252,17.499401,,,,,,
1465846677.54,2.350109,-0.039147,-1.474079,-0.044181,-0.064655,0.028333,0.710852,0.039137,0.702252,0.001169,0.012377,-0.057370,101.890854,233.333252,17.499401,,,,,,
1465846677.55,2.349008,-0.038481,-1.474001,-0.037900,-0.123104,0.045737,0.711643,0.038472,0.701488,-0.031741,-0.035298,0.011159,102.086609,233.253265,17.424713,,,,,,
1465846677.56,2.347563,-0.038438,-1.474453,0.045151,-0.145403,0.031058,0.712657,0.038429,0.700460,0.030599,-0.097709,0.045634,102.086609,233.253265,17.424713,,,,,,
1465846677.57,2.345595,-0.038779,-1.474603,0.026015,-0.220611,-0.030228,0.714025,0.038770,0.699046,0.108943,-0.129682,-0.012370,102.086609,233.253265,17.424713,,,,,,
1465846677.58,2.342064,-0.038528,-1.474622,0.073839,-0.332054,-0.056090,0.716495,0.038518,0.696528,0.026074,-0.032339,0.008123,102.350632,233.189835,16.709980,,,,,,
1465846677.59,2.338761,-0.039750,-1.474963,0.110078,-0.325660,-0.070996,0.718758,0.039740,0.694124,0.000771,-0.013251,0.021025,102.350632,233.189835,16.709980,,,,,,
1465846677.60,2.335697,-0.040858,-1.475057,0.079233,-0.300161,-0.071187,0.720849,0.040846,0.691887,-0.058801,0.035387,-0.002724,102.350632,233.189835,16.709980,,,,,,
1465846677.62,2.331139,-0.042299,-1.475600,0.032404,-0.195174,-0.015476,0.723952,0.042286,0.688553,-0.089064,0.115963,-0.088730,102.357651,233.250595,15.793903,,,,,,
1465846677.61,2.333153,-0.041792,-1.475392,0.088833,-0.232304,-0.037541,0.722579,0.041780,0.690025,-0.085235,0.069792,-0.055167,102.357651,233.250595,15.793903,,,,,,
1465846677.63,2.329496,-0.042216,-1.475795,0.005746,-0.148577,0.033170,0.725084,0.042203,0.687366,-0.127886,0.110568,-0.072314,102.357651,233.250595,15.793903,,,,,,
1465846677.64,2.328400,-0.041718,-1.476104,-0.022998,-0.094498,0.064735,0.725853,0.041706,0.686585,-0.080055,0.066143,-0.095429,102.357651,233.250595,15.793903,,,,,,
1465846677.65,2.327565,-0.040754,-1.476149,-0.069857,-0.090251,0.073177,0.726455,0.040743,0.686005,-0.034103,0.023558,-0.063859,102.214966,233.408768,14.311920,,,,,,
1465846677.66,2.327803,-0.039288,-1.476145,-0.056074,-0.133787,0.074530,0.726334,0.039278,0.686219,-0.054490,-0.015032,0.007003,102.214966,233.408768,14.311920,,,,,,
1465846677.67,2.326526,-0.038340,-1.476335,-0.053935,-0.114696,0.081863,0.727236,0.038331,0.685316,-0.057284,-0.038331,0.000612,102.546913,233.264420,14.290154,,,,,,
1465846677.68,2.326131,-0.037464,-1.476398,-0.054825,-0.007398,0.060965,0.727531,0.037455,0.685051,-0.017372,-0.050441,-0.007744,102.546913,233.264420,14.290154,,,,,,
1465846677.69,2.326553,-0.036965,-1.476497,-0.017441,0.058465,0.042493,0.727256,0.036956,0.685371,-0.046485,-0.020935,0.014641,102.546913,233.264420,14.290154,,,,,,
1465846677.70,2.329572,-0.036555,-1.476617,-0.013054,0.154046,0.037641,0.725194,0.036547,0.687574,-0.065862,-0.003145,0.005038,102.546913,233.264420,14.290154,,,,,,
1465846677.71,2.331735,-0.036227,-1.476735,-0.012940,0.234760,0.030748,0.723714,0.036219,0.689149,-0.061391,0.025900,-0.036180,103.259499,232.922211,14.734482,,,,,,
1465846677.72,2.334827,-0.035926,-1.476859,-0.013876,0.335635,0.029050,0.721587,0.035919,0.691391,-0.066283,0.007798,-0.030518,103.259499,232.922211,14.734482,,,,,,
1465846677.73,2.338728,-0.035560,-1.476938,-0.021250,0.408885,0.034970,0.718894,0.035552,0.694210,-0.087760,0.008362,-0.033016,103.344292,232.844910,15.348763,,,,,,
1465846677.74,2.344420,-0.034482,-1.476964,-0.030703,0.516130,0.036418,0.714958,0.034475,0.698317,-0.070198,-0.022924,-0.036864,103.344292,232.844910,15.348763,,,,,,
1465846677.75,2.350157,-0.034044,-1.476942,-0.031663,0.580933,0.024302,0.710951,0.034038,0.702418,-0.015821,-0.018870,-0.040430,103.344292,232.844910,15.348763,,,,,,
1465846677.76,2.355828,-0.033757,-1.476840,-0.024218,0.551240,0.009593,0.706963,0.033751,0.706445,0.006935,-0.037474,-0.030130,103.439056,232.645477,17.573418,,,,,,
1465846677.77,2.360462,-0.033675,-1.476774,-0.005183,0.432335,0.000778,0.703683,0.033669,0.709716,0.005255,-0.036400,-0.046111,103.439056,232.645477,17.573418,,,,,,
1465846677.78,2.363128,-0.032507,-1.476826,0.016021,0.339980,-0.012456,0.701816,0.032501,0.711616,0.014691,-0.042434,-0.034706,103.439056,232.645477,17.573418,,,,,,
1465846677.79,2.365949,-0.032886,-1.476850,0.032994,0.259328,-0.031094,0.699797,0.032880,0.713584,0.018373,-0.033353,-0.039344,103.439056,232.645477,17.573418,,,,,,
1465846677.80,2.368020,-0.033455,-1.477067,0.062711,0.198764,-0.021104,0.698305,0.033449,0.715019,-0.023179,-0.010485,-0.035163,103.322197,232.551285,19.411495,,,,,,
1465846677.81,2.369551,-0.034125,-1.477400,0.070094,0.140364,-0.021795,0.697193,0.034119,0.716071,-0.018071,0.029968,-0.067114,103.322197,232.551285,19.411495,,,,,,
1465846677.82,2.370430,-0.034622,-1.477680,0.049759,0.075572,-0.009700,0.696552,0.034615,0.716671,-0.031253,0.043525,-0.107327,103.141632,232.624863,19.489826,,,,,,
1465846677.83,2.370928,-0.034902,-1.477915,0.033724,0.039452,0.000090,0.696188,0.034895,0.717011,-0.045202,0.046618,-0.106598,103.141632,232.624863,19.489826,,,,,,
1465846677.84,2.371203,-0.034901,-1.478124,0.007053,0.033033,0.022458,0.695991,0.034894,0.717203,-0.089347,0.041156,-0.118326,103.141632,232.624863,19.489826,,,,,,
1465846677.85,2.372053,-0.034621,-1.478316,-0.009918,0.099909,0.031601,0.695388,0.034614,0.717800,-0.068328,0.013924,-0.107174,103.141632,232.624863,19.489826,,,,,,
1465846677.86,2.373360,-0.034173,-1.478461,-0.025865,0.141289,0.045164,0.694460,0.034166,0.718720,-0.097139,0.001646,-0.094376,103.164764,232.612061,19.520039,,,,,,
1465846677.87,2.375272,-0.033465,-1.478615,-0.042850,0.218745,0.068079,0.693101,0.033459,0.720064,-0.125672,0.018589,-0.097688,103.164764,232.612061,19.520039,,,,,,
1465846677.88,2.378740,-0.032567,-1.478620,-0.071369,0.384429,0.056367,0.690620,0.032561,0.722484,-0.067146,0.006700,-0.104595,103.164764,232.612061,19.520039,,,,,,
1465846677.89,2.383342,-0.031699,-1.478521,-0.064863,0.474685,0.053678,0.687307,0.031693,0.725675,-0.068380,-0.000794,-0.069990,103.337685,232.494644,19.998531,,,,,,
1465846677.90,2.388412,-0.030912,-1.478581,-0.052041,0.513960,0.055574,0.683636,0.030907,0.729168,-0.067623,-0.000680,-0.089779,103.337685,232.494644,19.998531,,,,,,
1465846677.91,2.393726,-0.030027,-1.478455,-0.078617,0.539471,0.050065,0.679769,0.030022,0.732811,-0.026861,-0.003518,-0.126778,103.439377,232.347961,21.144638,,,,,,
1465846677.92,2.397985,-0.028937,-1.478351,-0.050947,0.507636,0.036455,0.676664,0.028933,0.735723,-0.005613,-0.024843,-0.097402,103.439377,232.347961,21.144638,,,,,,
1465846677.93,2.402641,-0.028469,-1.478406,-0.026531,0.443925,0.033686,0.673240,0.028465,0.738876,0.001946,-0.023201,-0.075790,103.439377,232.347961,21.144638,,,,,,
1465846677.94,2.406172,-0.028036,-1.478462,-0.029878,0.317581,0.031282,0.670636,0.028033,0.741257,0.035221,0.000654,-0.141388,103.497665,232.074356,23.708817,,,,,,
1465846677.95,2.408316,-0.027665,-1.478529,-0.018326,0.185917,0.029990,0.669052,0.027662,0.742701,0.028657,0.017886,-0.145899,103.497665,232.074356,23.708817,,,,,,
1465846677.96,2.409322,-0.027399,-1.478844,0.004930,0.077558,0.046660,0.668309,0.027396,0.743379,-0.016316,0.006296,-0.125139,103.497665,232.074356,23.708817,,,,,,
1465846677.97,2.409544,-0.026968,-1.479117,-0.021783,0.008542,0.051324,0.668152,0.026965,0.743536,-0.009156,0.003888,-0.187719,103.507248,231.996780,24.415615,,,,,,
1465846677.98,2.409579,-0.026439,-1.479396,-0.015405,0.013825,0.059812,0.668135,0.026436,0.743570,-0.028548,-0.006782,-0.174997,103.507248,231.996780,24.415615,,,,,,
1465846677.99,2.410203,-0.026013,-1.479721,-0.012111,0.070139,0.044560,0.667679,0.026010,0.743995,0.002182,-0.000116,-0.141380,103.507248,231.996780,24.415615,,,,,,
1465846678.00,2.410869,-0.025520,-1.479842,-0.031274,0.068031,0.042425,0.667191,0.025517,0.744449,-0.005997,0.008922,-0.172214,103.921761,231.779678,24.714882,,,,,,
1465846678.01,2.411765,-0.025085,-1.479963,-0.019512,0.099894,0.036915,0.666532,0.025082,0.745055,0.001025,-0.015256,-0.159438,103.921761,231.779678,24.714882,,,,,,
1465846678.02,2.413422,-0.024787,-1.480172,-0.006612,0.197574,0.036315,0.665301,0.024785,0.746164,-0.010561,-0.015889,-0.119180,103.921761,231.779678,24.714882,,,,,,
1465846678.03,2.412749,-0.025165,-1.480393,-0.008605,0.279360,0.019832,0.665797,0.025162,0.745709,0.002324,0.012298,-0.118939,104.068054,231.683365,25.000641,,,,,,
1465846678.04,2.415936,-0.024823,-1.480400,-0.028787,0.326075,0.024841,0.663423,0.024820,0.747833,0.007049,0.014731,-0.190170,104.068054,231.683365,25.000641,,,,,,
1465846678.05,2.419385,-0.024359,-1.480498,-0.026654,0.353622,0.041702,0.660846,0.024357,0.750126,0.001110,-0.000584,-0.188938,104.068054,231.683365,25.000641,,,,,,
1465846678.06,2.422956,-0.023832,-1.480654,-0.031988,0.350430,0.044910,0.658172,0.023830,0.752490,0.043335,0.005757,-0.193637,104.078316,231.586823,25.838535,,,,,,
1465846678.07,2.425731,-0.023202,-1.480735,-0.043829,0.255921,0.050813,0.656091,0.023200,0.754325,0.060187,0.005243,-0.224281,104.078316,231.586823,25.838535,,,,,,
1465846678.08,2.427990,-0.022532,-1.480886,-0.037498,0.216619,0.055324,0.654396,0.022530,0.755817,0.092522,-0.006615,-0.200168,104.078316,231.586823,25.838535,,,,,,
1465846678.09,2.429117,-0.021955,-1.481084,-0.030227,0.064790,0.052025,0.653552,0.021953,0.756563,0.128171,-0.010753,-0.193850,104.129242,231.470169,26.665306,,,,,,
1465846678.10,2.428454,-0.021324,-1.481301,-0.033643,-0.104050,0.058403,0.654062,0.021322,0.756140,0.135138,-0.015188,-0.237051,104.129242,231.470169,26.665306,,,,,,
1465846678.11,2.418245,-0.019734,-1.481785,-0.010327,-0.189048,0.058963,0.661769,0.019733,0.749448,0.135091,-0.026538,-0.157667,104.129242,231.470169,26.665306,,,,,,
1465846678.12,2.416815,-0.019497,-1.482373,0.025964,-0.116863,0.058546,0.662843,0.019496,0.748505,0.091750,-0.004038,-0.054184,-108.070786,227.388992,-85.418800,,,,,,
1465846678.13,2.416119,-0.019239,-1.482688,-0.012260,-0.065819,0.036899,0.663367,0.019238,0.748047,0.137231,0.031406,-0.159668,-108.070786,227.388992,-85.418800,,,,,,
1465846678.14,2.415212,-0.018663,-1.482886,-0.028316,-0.096668,0.060494,0.664053,0.018662,0.747453,0.112772,-0.010499,-0.236940,-108.070786,227.388992,-85.418800,,,,,,
1465846678.15,2.407537,-0.017352,-1.483449,-0.012299,-0.040468,0.071869,0.669785,0.017351,0.742352,0.093307,-0.018251,-0.152753,-108.022308,227.478134,-85.242584,,,,,,
1465846678.16,2.407208,-0.016756,-1.483743,-0.029303,-0.037236,0.057994,0.670037,0.016755,0.742139,0.130393,0.011031,-0.136639,-108.022308,227.478134,-85.242584,,,,,,
1465846678.17,2.407329,-0.016074,-1.483768,-0.056854,0.044578,0.042551,0.669954,0.016074,0.742228,0.143461,0.016534,-0.206248,-108.022308,227.478134,-85.242584,,,,,,
1465846678.18,2.408981,-0.015500,-1.483742,-0.033230,0.195357,0.036307,0.668733,0.015499,0.743341,0.129637,0.003757,-0.058694,-108.100311,227.931702,-83.921844,,,,,,
1465846678.19,2.405812,-0.015437,-1.483992,-0.033123,0.290870,0.043158,0.671086,0.015437,0.741219,0.102733,0.010305,-0.109566,-108.100311,227.931702,-83.921844,,,,,,
1465846678.20,2.409269,-0.014558,-1.483638,-0.101164,0.353582,0.030988,0.668529,0.014558,0.743544,0.182561,0.006561,-0.201628,-108.100311,227.931702,-83.921844,,,,,,
1465846678.21,2.413201,-0.013806,-1.483393,-0.060627,0.413026,0.029591,0.665606,0.013806,0.746175,0.163129,-0.012097,-0.123769,-108.091949,228.022842,-83.684708,,,,,,
1465846678.22,2.418266,-0.013278,-1.483133,-0.060442,0.535177,0.012858,0.661824,0.013277,0.749542,0.171062,0.016325,-0.014129,-108.091949,228.022842,-83.684708,,,,,,
1465846678.23,2.424277,-0.012820,-1.482756,-0.058175,0.618043,-0.004690,0.657310,0.012820,0.753511,0.183907,0.008176,-0.045763,-108.091949,228.022842,-83.684708,,,,,,
1465846678.24,2.428896,-0.012587,-1.482089,-0.085739,0.674387,-0.028489,0.653825,0.012587,0.756541,0.242355,0.023882,-0.126781,-106.349838,228.344498,-85.028915,,,,,,
1465846678.25,2.435291,-0.012068,-1.481572,-0.066697,0.625449,0.002706,0.648977,0.012068,0.760712,0.202860,-0.007124,-0.064713,-106.349838,228.344498,-85.028915,,,,,,
1465846678.26,2.440889,-0.011517,-1.481090,-0.079579,0.533094,-0.002050,0.644713,0.011517,0.764338,0.238618,0.014240,-0.088587,-106.349838,228.344498,-85.028915,,,,,,
1465846678.27,2.445420,-0.010786,-1.480539,-0.093553,0.439642,0.005973,0.641249,0.010786,0.767257,0.246844,0.008578,-0.106674,-105.502319,228.416351,-85.887444,,,,,,
1465846678.28,2.450155,-0.010123,-1.479799,-0.096644,0.477944,-0.021946,0.637613,0.010123,0.770290,0.284048,0.017816,-0.069454,-105.502319,228.416351,-85.887444,,,,,,
1465846678.29,2.454074,-0.009698,-1.479303,-0.054233,0.358960,-0.006255,0.634592,0.009698,0.772787,0.262305,0.001578,0.036219,-105.502319,228.416351,-85.887444,,,,,,
1465846678.30,2.456741,-0.009299,-1.478690,-0.077771,0.229499,-0.029949,0.632531,0.009299,0.774480,0.306602,-0.003379,-0.058217,-103.929749,228.676575,-87.103683,,,,,,
1465846678.31,2.457636,-0.008893,-1.477962,-0.071616,0.041560,-0.029829,0.631839,0.008893,0.775048,0.297238,0.007266,-0.005471,-103.929749,228.676575,-87.103683,,,,,,
1465846678.32,2.457144,-0.008602,-1.477327,-0.061116,-0.079485,-0.031188,0.632222,0.008602,0.774739,0.281153,0.011921,0.023097,-103.741173,228.750046,-87.135529,,,,,,
1465846678.33,2.455185,-0.008336,-1.476819,-0.052806,-0.233471,-0.022763,0.633740,0.008336,0.773501,0.324542,0.005901,-0.072497,-103.741173,228.750046,-87.135529,,,,,,
1465846678.34,2.452135,-0.007897,-1.476017,-0.095490,-0.325797,-0.032871,0.636099,0.007897,0.771567,0.255533,-0.009041,0.052408,-103.741173,228.750046,-87.135529,,,,,,
1465846678.35,2.448349,-0.007453,-1.475463,-0.057276,-0.388515,-0.013279,0.639018,0.007453,0.769156,0.282888,0.010263,0.045236,-103.741173,228.750046,-87.135529,,,,,,
1465846678.36,2.444276,-0.007145,-1.474855,-0.072195,-0.422445,-0.027984,0.642146,0.007145,0.766549,0.286610,-0.006367,0.020133,-104.777023,228.877396,-85.547241,,,,,,
1465846678.37,2.439334,-0.006642,-1.474098,-0.091475,-0.513750,-0.027430,0.645929,0.006642,0.763368,0.256811,-0.006947,0.022551,-104.777023,228.877396,-85.547241,,,,,,
1465846678.38,2.434334,-0.005950,-1.473211,-0.113823,-0.482985,-0.013808,0.649741,0.005950,0.760132,0.170419,-0.005920,0.125213,-104.777023,228.877396,-85.547241,,,,,,
