timestamp,attitude_roll,attitude_pitch,attitude_yaw,rotation_rate_x,rotation_rate_y,rotation_rate_z,gravity_x,gravity_y,gravity_z,user_acc_x,user_acc_y,user_acc_z,magnetic_field_x,magnetic_field_y,magnetic_field_z,latitude(degree),longitude(degree),altitude(meter),speed(m/s),course(degree),timestamp
1465827837.15,-1.548870,0.111623,1.095537,-0.002343,0.004059,0.000350,-0.993538,-0.111391,-0.021788,0.706413,0.088167,-0.937730,128.594711,229.443573,-104.635674,,,,,,
1465827837.16,-1.531185,0.111486,1.093548,-0.001305,-0.006441,0.000418,-0.993012,-0.111256,-0.039355,0.699830,0.085392,-0.915677,128.594711,229.443573,-104.635674,,,,,,
1465827837.17,-1.513549,0.111306,1.091569,-0.002361,0.009607,-0.000746,-0.992184,-0.111076,-0.056862,0.700390,0.085975,-0.893776,128.594711,229.443573,-104.635674,,,,,,
1465827837.18,-1.496042,0.111063,1.089622,-0.001321,0.003347,0.001425,-0.991063,-0.110835,-0.074224,0.700917,0.086360,-0.880991,135.682495,230.201111,-93.419937,,,,,,
1465827837.19,-1.478826,0.110780,1.087695,-0.001348,-0.009276,0.000442,-0.989670,-0.110553,-0.091278,0.704224,0.086841,-0.862595,135.682495,230.201111,-93.419937,,,,,,
,,,,,,,,,,,,,,,,29.719964,-95.399056,10.269065,-1.000000,-1.000000,1465828806.53
1465827837.20,-1.461922,0.110574,1.085795,-0.001388,-0.029338,0.001633,-0.988008,-0.110349,-0.107996,0.704744,0.083356,-0.848807,135.682495,230.201111,-93.419937,,,,,,
,,,,,,,,,,,,,,,,29.719979,-95.399056,10.717276,-1.000000,-1.000000,1465828913.99
,,,,,,,,,,,,,,,,29.719964,-95.399056,10.269065,-1.000000,-1.000000,1465828806.53
1465827837.21,-1.445440,0.110276,1.083902,-0.001432,-0.054707,0.001794,-0.986127,-0.110052,-0.124268,0.702084,0.084799,-0.831908,138.845245,230.520050,-87.818451,,,,,,
1465827837.22,-1.429336,0.109885,1.082049,-0.001464,-0.069460,0.001888,-0.984040,-0.109664,-0.140139,0.696214,0.085860,-0.813429,138.845245,230.520050,-87.818451,,,,,,
1465827837.23,-1.413518,0.109454,1.080218,-0.001486,-0.076781,0.001936,-0.981747,-0.109235,-0.155693,0.690136,0.085508,-0.799263,138.845245,230.520050,-87.818451,,,,,,
1465827837.24,-1.397906,0.109032,1.078418,-0.001503,-0.080918,0.001963,-0.979242,-0.108816,-0.171009,0.686502,0.084265,-0.783245,144.250137,231.085922,-76.946556,,,,,,
1465827837.25,-1.382554,0.108628,1.076628,-0.003662,-0.092490,0.003100,-0.976544,-0.108414,-0.186030,0.687162,0.082276,-0.767934,144.250137,231.085922,-76.946556,,,,,,
1465827837.26,-1.367523,0.108189,1.074861,-0.003686,-0.104058,0.002109,-0.973685,-0.107978,-0.200696,0.680655,0.081962,-0.752230,144.250137,231.085922,-76.946556,,,,,,
1465827837.27,-1.352776,0.107673,1.073129,-0.002639,-0.108199,0.002138,-0.970674,-0.107465,-0.215045,0.671922,0.082883,-0.736310,146.568161,231.328659,-71.654778,,,,,,
1465827837.28,-1.338188,0.107207,1.071426,-0.003716,-0.109155,0.002144,-0.967482,-0.107002,-0.229193,0.671202,0.080604,-0.720865,146.568161,231.328659,-71.654778,,,,,,
1465827837.29,-1.323854,0.106677,1.069749,-0.002677,-0.121789,0.001162,-0.964152,-0.106475,-0.243051,0.666942,0.081481,-0.709739,148.652908,231.542862,-66.481537,,,,,,
1465827837.30,-1.309854,0.106204,1.068109,-0.000581,-0.137616,0.002329,-0.960704,-0.106004,-0.256537,0.663478,0.078401,-0.694772,148.652908,231.542862,-66.481537,,,,,,
1465827837.31,-1.296154,0.105625,1.066500,-0.002737,-0.148134,0.003459,-0.957158,-0.105429,-0.269691,0.658696,0.080481,-0.680062,148.652908,231.542862,-66.481537,,,,,,
1465827837.32,-1.282738,0.105026,1.064896,-0.003814,-0.150153,0.002407,-0.953514,-0.104833,-0.282526,0.647850,0.079336,-0.667273,148.652908,231.542862,-66.481537,,,,,,
1465827837.33,-1.269426,0.104429,1.063332,-0.002760,-0.147932,0.003460,-0.949728,-0.104239,-0.295212,0.648184,0.078620,-0.654098,152.179077,231.909744,-56.470985,,,,,,
1465827837.34,-1.256440,0.103840,1.061780,-0.003864,-0.172251,0.002549,-0.945873,-0.103654,-0.307539,0.644634,0.077347,-0.644106,152.179077,231.909744,-56.470985,,,,,,
1465827837.35,-1.243868,0.103175,1.060260,-0.002833,-0.190204,0.002664,-0.941997,-0.102992,-0.319428,0.636959,0.078593,-0.630356,152.179077,231.909744,-56.470985,,,,,,
1465827837.36,-1.231567,0.102488,1.058773,-0.004973,-0.187986,0.003714,-0.938063,-0.102309,-0.331015,0.626829,0.077300,-0.615107,154.967545,232.176895,-46.995014,,,,,,
,,,,,,,,,,,,,,,,29.719981,-95.399082,10.269065,-1.000000,-1.000000,1465828914.14
1465827837.37,-1.219472,0.101793,1.057326,-0.002857,-0.192136,0.002679,-0.934057,-0.101618,-0.342361,0.619757,0.076486,-0.603120,154.967545,232.176895,-46.995014,,,,,,
1465827837.38,-1.207571,0.101037,1.055906,-0.003919,-0.179303,0.003663,-0.929989,-0.100865,-0.353479,0.605907,0.076695,-0.588950,154.967545,232.176895,-46.995014,,,,,,
1465827837.39,-1.195632,0.100276,1.054509,-0.006033,-0.160094,0.002478,-0.925773,-0.100109,-0.364585,0.601295,0.076259,-0.579797,156.122864,232.269073,-42.500736,,,,,,
1465827837.40,-1.183683,0.099490,1.053141,-0.004966,-0.148326,0.003471,-0.921423,-0.099326,-0.375650,0.600592,0.076118,-0.565619,156.122864,232.269073,-42.500736,,,,,,
1465827837.41,-1.171921,0.098712,1.051800,-0.003914,-0.148239,0.004537,-0.917013,-0.098552,-0.386491,0.591497,0.074412,-0.556944,156.122864,232.269073,-42.500736,,,,,,
1465827837.42,-1.160163,0.097976,1.050479,-0.003906,-0.137526,0.002342,-0.912471,-0.097819,-0.397276,0.590572,0.072932,-0.545870,158.111115,232.372940,-33.664017,,,,,,
1465827837.43,-1.148675,0.097212,1.049184,-0.005943,-0.146965,0.002389,-0.907915,-0.097059,-0.407763,0.583238,0.072568,-0.536314,158.111115,232.372940,-33.664017,,,,,,
,,,,,,,,,,,,,,,,29.719998,-95.399108,10.269065,-1.000000,-1.000000,1465828914.16
1465827837.44,-1.137334,0.096477,1.047907,-0.007015,-0.143701,0.003433,-0.903297,-0.096328,-0.418062,0.580680,0.070403,-0.523070,158.913544,232.413559,-29.325745,,,,,,
1465827837.45,-1.126154,0.095717,1.046646,-0.005978,-0.158486,0.003528,-0.898632,-0.095571,-0.428166,0.580807,0.070654,-0.514735,158.913544,232.413559,-29.325745,,,,,,
1465827837.46,-1.115378,0.094953,1.045418,-0.004957,-0.188134,0.002652,-0.894032,-0.094810,-0.437856,0.577870,0.070671,-0.506144,158.913544,232.413559,-29.325745,,,,,,
1465827837.47,-1.105059,0.094180,1.044210,-0.006066,-0.214602,0.003882,-0.889531,-0.094041,-0.447092,0.569386,0.069398,-0.499396,158.913544,232.413559,-29.325745,,,,,,
1465827837.48,-1.095122,0.093393,1.043029,-0.007153,-0.225142,0.003948,-0.885110,-0.093257,-0.455943,0.560052,0.068645,-0.486059,160.143478,232.461670,-21.100212,,,,,,
1465827837.49,-1.085475,0.092615,1.041872,-0.007197,-0.248434,0.007289,-0.880734,-0.092483,-0.464493,0.556592,0.066421,-0.479309,160.143478,232.461670,-21.100212,,,,,,
1465827837.50,-1.076372,0.091836,1.040733,-0.008326,-0.295073,0.006517,-0.876532,-0.091707,-0.472526,0.556952,0.066500,-0.472817,160.591431,232.463028,-17.346848,,,,,,
,,,,,,,,,,,,,,,,29.719983,-95.399120,10.104038,-1.000000,-1.000000,1465828914.33
1465827837.51,-1.067858,0.091062,1.039622,-0.006272,-0.347030,0.007910,-0.872540,-0.090936,-0.480005,0.556820,0.065592,-0.462652,160.591431,232.463028,-17.346848,,,,,,
1465827837.52,-1.060140,0.090238,1.038532,-0.009570,-0.420223,0.010496,-0.868874,-0.090115,-0.486761,0.557687,0.066021,-0.458292,160.591431,232.463028,-17.346848,,,,,,
1465827837.53,-1.053564,0.089467,1.037476,-0.008632,-0.514651,0.011090,-0.865715,-0.089347,-0.492499,0.555382,0.064002,-0.452997,160.934540,232.456314,-13.918022,,,,,,
1465827837.54,-1.048717,0.088660,1.036493,-0.011934,-0.595278,0.011593,-0.863380,-0.088544,-0.496725,0.547950,0.065488,-0.446268,160.934540,232.456314,-13.918022,,,,,,
1465827837.55,-1.045616,0.087920,1.035586,-0.014180,-0.681224,0.013195,-0.861892,-0.087807,-0.499432,0.538222,0.062050,-0.442264,160.934540,232.456314,-13.918022,,,,,,
1465827837.56,-1.046667,0.087325,1.034967,-0.016429,-0.769317,0.015875,-0.862461,-0.087214,-0.498552,0.541416,0.063029,-0.441908,161.364151,232.392334,-9.218948,,,,,,
1465827837.57,-1.052123,0.086917,1.034633,-0.016579,-0.886099,0.017672,-0.865199,-0.086807,-0.493857,0.547053,0.062714,-0.445657,161.364151,232.392334,-9.218948,,,,,,
1465827837.58,-1.060564,0.086567,1.034438,-0.017838,-1.036870,0.020745,-0.869363,-0.086459,-0.486551,0.551538,0.061801,-0.453848,161.364151,232.392334,-9.218948,,,,,,
1465827837.59,-1.071162,0.086222,1.034283,-0.022274,-1.175962,0.022677,-0.874497,-0.086115,-0.477325,0.536668,0.061656,-0.454057,161.392944,232.341125,-9.974876,,,,,,
1465827837.60,-1.082940,0.085854,1.034147,-0.023416,-1.233302,0.025165,-0.880086,-0.085749,-0.467007,0.511022,0.063517,-0.445896,161.392944,232.341125,-9.974876,,,,,,
1465827837.61,-1.094973,0.085478,1.034004,-0.026651,-1.266212,0.025368,-0.885670,-0.085374,-0.456398,0.488270,0.063950,-0.448036,161.392944,232.341125,-9.974876,,,,,,
1465827837.62,-1.108011,0.085124,1.033907,-0.021419,-1.337359,0.026884,-0.891573,-0.085021,-0.444825,0.530687,0.058944,-0.457229,161.047104,232.201797,-16.605530,,,,,,
1465827837.63,-1.123210,0.084732,1.033792,-0.029180,-1.579452,0.030523,-0.898260,-0.084630,-0.431238,0.538244,0.064428,-0.494345,161.047104,232.201797,-16.605530,,,,,,
1465827837.64,-1.140058,0.084306,1.033656,-0.031482,-1.712185,0.034547,-0.905431,-0.084206,-0.416059,0.514302,0.060524,-0.476565,161.047104,232.201797,-16.605530,,,,,,
1465827837.65,-1.157782,0.083877,1.033514,-0.029447,-1.790754,0.032913,-0.912695,-0.083778,-0.399961,0.495611,0.063347,-0.480975,160.648605,232.119263,-21.029724,,,,,,
1465827837.66,-1.176581,0.083414,1.033337,-0.033872,-1.918177,0.036901,-0.920088,-0.083318,-0.382748,0.498289,0.062764,-0.492649,160.648605,232.119263,-21.029724,,,,,,
1465827837.67,-1.196776,0.082930,1.033154,-0.036168,-2.050901,0.037731,-0.927667,-0.082835,-0.364105,0.492700,0.059626,-0.499497,160.648605,232.119263,-21.029724,,,,,,
1465827837.68,-1.218043,0.082408,1.032947,-0.037361,-2.148595,0.041536,-0.935240,-0.082315,-0.344311,0.464186,0.064172,-0.503147,159.001953,231.930542,-32.498924,,,,,,
1465827837.69,-1.240285,0.081875,1.032732,-0.040689,-2.253715,0.043256,-0.942708,-0.081783,-0.323439,0.468373,0.062786,-0.510926,159.001953,231.930542,-32.498924,,,,,,
1465827837.70,-1.263778,0.081307,1.032478,-0.041924,-2.385384,0.046210,-0.950090,-0.081217,-0.301219,0.462694,0.060816,-0.520710,159.001953,231.930542,-32.498924,,,,,,
1465827837.71,-1.288491,0.080722,1.032215,-0.042061,-2.491570,0.049004,-0.957289,-0.080634,-0.277663,0.435911,0.062980,-0.528703,157.636307,231.823944,-39.217812,,,,,,
1465827837.72,-1.314077,0.080144,1.031898,-0.048570,-2.591370,0.047495,-0.964124,-0.080058,-0.253094,0.434140,0.061686,-0.535923,157.636307,231.823944,-39.217812,,,,,,
1465827837.73,-1.340941,0.079548,1.031559,-0.046602,-2.716670,0.050412,-0.970620,-0.079464,-0.227117,0.420175,0.060879,-0.543361,157.636307,231.823944,-39.217812,,,,,,
1465827837.74,-1.369221,0.078913,1.031202,-0.047879,-2.879137,0.055687,-0.976703,-0.078832,-0.199590,0.423832,0.062047,-0.555934,153.355774,231.608978,-54.487320,,,,,,
1465827837.75,-1.399006,0.078244,1.030806,-0.052302,-3.003377,0.060720,-0.982266,-0.078164,-0.170423,0.390850,0.063088,-0.560397,153.355774,231.608978,-54.487320,,,,,,
1465827837.76,-1.429793,0.077577,1.030369,-0.054566,-3.113798,0.059281,-0.987098,-0.077499,-0.140114,0.377570,0.062866,-0.560661,153.355774,231.608978,-54.487320,,,,,,
1465827837.77,-1.461390,0.076914,1.029911,-0.052511,-3.173260,0.059656,-0.991082,-0.076838,-0.108865,0.338189,0.065165,-0.560874,150.199188,231.496307,-63.081200,,,,,,
1465827837.78,-1.493459,0.076235,1.029414,-0.055792,-3.239095,0.062194,-0.994115,-0.076161,-0.077036,0.323598,0.066533,-0.566519,150.199188,231.496307,-63.081200,,,,,,
1465827837.79,-1.526748,0.075578,1.028905,-0.054905,-3.379256,0.064139,-0.996178,-0.075506,-0.043908,0.320260,0.060537,-0.585685,150.199188,231.496307,-63.081200,,,,,,
1465827837.80,-1.560897,0.074893,1.028342,-0.057105,-3.433409,0.065541,-0.997148,-0.074823,-0.009871,0.279008,0.066049,-0.576433,141.524246,231.295807,-81.257072,,,,,,
1465827837.81,-1.595423,0.074224,1.027740,-0.058235,-3.482256,0.067975,-0.996944,-0.074156,0.024557,0.263332,0.067686,-0.591955,141.524246,231.295807,-81.257072,,,,,,
1465827837.82,-1.631284,0.073596,1.027100,-0.064808,-3.629844,0.068894,-0.995469,-0.073530,0.060287,0.270585,0.052564,-0.603271,141.524246,231.295807,-81.257072,,,,,,
1465827837.83,-1.668756,0.072945,1.026427,-0.060752,-3.793360,0.068859,-0.992559,-0.072881,0.097543,0.261831,0.063283,-0.603708,135.926407,231.210434,-90.528099,,,,,,
1465827837.84,-1.708008,0.072270,1.025608,-0.071631,-3.966449,0.077385,-0.988015,-0.072207,0.136424,0.225885,0.068758,-0.626277,135.926407,231.210434,-90.528099,,,,,,
1465827837.85,-1.748449,0.071623,1.024847,-0.066463,-4.090683,0.078169,-0.981738,-0.071562,0.176266,0.226931,0.060164,-0.592709,135.926407,231.210434,-90.528099,,,,,,
1465827837.86,-1.791555,0.070959,1.023927,-0.081751,-4.387992,0.084276,-0.973276,-0.070899,0.218419,0.220575,0.065574,-0.636464,121.225426,231.100922,-109.664658,,,,,,
1465827837.87,-1.837574,0.070281,1.022965,-0.074693,-4.692750,0.092581,-0.962244,-0.070224,0.262974,0.248850,0.062228,-0.639424,121.225426,231.100922,-109.664658,,,,,,
1465827837.88,-1.888282,0.069596,1.021832,-0.092415,-5.238512,0.097051,-0.947724,-0.069540,0.311423,0.290360,0.060614,-0.627341,121.225426,231.100922,-109.664658,,,,,,
1465827837.89,-1.945463,0.068856,1.020539,-0.099634,-5.875634,0.117006,-0.928424,-0.068801,0.365095,0.289188,0.068099,-0.671904,111.380737,231.076706,-119.697403,,,,,,
1465827837.90,-2.008354,0.068191,1.019026,-0.116334,-6.446893,0.126959,-0.903684,-0.068138,0.422744,0.271222,0.059258,-0.596297,111.380737,231.076706,-119.697403,,,,,,
1465827837.91,-2.077561,0.067511,1.017367,-0.118233,-7.099921,0.138504,-0.872328,-0.067460,0.484246,0.258299,0.068985,-0.594216,98.333344,231.086029,-130.611572,,,,,,
1465827837.92,-2.154144,0.066852,1.015441,-0.129891,-7.882505,0.158303,-0.832759,-0.066802,0.549590,0.278545,0.070540,-0.550948,98.333344,231.086029,-130.611572,,,,,,
1465827837.93,-2.240226,0.066337,1.013271,-0.153525,-8.878500,0.177299,-0.782451,-0.066288,0.619174,0.313151,0.060841,-0.538013,98.333344,231.086029,-130.611572,,,,,,
1465827837.94,-2.335953,0.065954,1.010770,-0.164314,-9.818228,0.197020,-0.719706,-0.065906,0.691144,0.286768,0.073306,-0.440595,57.569935,231.349060,-152.620117,,,,,,
1465827837.95,-2.442089,0.065947,1.007967,-0.199756,-10.912927,0.202785,-0.642438,-0.065899,0.763499,0.291364,0.056317,-0.367091,57.569935,231.349060,-152.620117,,,,,,
1465827837.96,-2.557020,0.066226,1.004938,-0.197513,-11.627598,0.234945,-0.550633,-0.066178,0.832120,0.091344,0.073227,-0.211011,57.569935,231.349060,-152.620117,,,,,,
1465827837.97,-2.675549,0.066890,1.001889,-0.229862,-11.955672,0.234842,-0.448351,-0.066840,0.891355,-0.060682,0.071357,0.045718,57.569935,231.349060,-152.620117,,,,,,
1465827837.98,-2.795959,0.067757,0.998832,-0.184218,-12.053404,0.244016,-0.338015,-0.067705,0.938702,-0.272809,0.124468,0.057956,-9.987625,232.365555,-161.356964,,,,,,
1465827837.99,-2.916146,0.069274,0.995897,-0.237474,-12.061884,0.248274,-0.223005,-0.069219,0.972357,-0.289858,0.066472,0.248530,-9.987625,232.365555,-161.356964,,,,,,
1465827838.00,-3.038094,0.070869,0.993139,-0.207872,-12.240264,0.243035,-0.103055,-0.070809,0.992152,-0.389972,0.108499,0.252172,-9.987625,232.365555,-161.356964,,,,,,
1465827838.01,3.124284,0.073041,0.990621,-0.206536,-12.026836,0.239569,0.017261,-0.072976,0.997184,-0.479847,0.104256,0.416131,-46.979172,233.180603,-153.457962,,,,,,
1465827838.02,3.005702,0.075242,0.988395,-0.229686,-11.810215,0.237123,0.135090,-0.075171,0.987978,-0.577106,0.087958,0.468931,-46.979172,233.180603,-153.457962,,,,,,
1465827838.03,2.891331,0.077685,0.986511,-0.176885,-11.315430,0.229815,0.246911,-0.077607,0.965926,-0.677834,0.130127,0.583788,-46.979172,233.180603,-153.457962,,,,,,
1465827838.04,2.782196,0.080279,0.985022,-0.212424,-10.804654,0.215931,0.350577,-0.080193,0.933094,-0.718558,0.093254,0.606014,-109.509438,235.081711,-113.462990,,,,,,
1465827838.05,2.678328,0.082708,0.983777,-0.166980,-10.233416,0.208136,0.445343,-0.082613,0.891540,-0.788392,0.132326,0.661118,-109.509438,235.081711,-113.462990,,,,,,
1465827838.06,2.580874,0.085238,0.982904,-0.172583,-9.620729,0.195773,0.529864,-0.085135,0.843798,-0.762500,0.099356,0.672803,-109.509438,235.081711,-113.462990,,,,,,
1465827838.07,2.486814,0.087608,0.982222,-0.159459,-9.357385,0.185618,0.606648,-0.087496,0.790141,-0.681477,0.117143,0.674230,-129.936478,235.978775,-86.948868,,,,,,
1465827838.08,2.395295,0.090108,0.981889,-0.163375,-9.085558,0.182845,0.676170,-0.089986,0.731229,-0.643471,0.096563,0.681201,-129.936478,235.978775,-86.948868,,,,,,
1465827838.09,2.306751,0.092464,0.981738,-0.161883,-8.755321,0.174389,0.738024,-0.092332,0.668427,-0.631503,0.113282,0.723907,-129.936478,235.978775,-86.948868,,,,,,
1465827838.10,2.223236,0.094732,0.981866,-0.143085,-8.215905,0.160380,0.791042,-0.094590,0.604404,-0.685299,0.104707,0.778668,-150.610291,237.449585,-32.616104,,,,,,
1465827838.11,2.146296,0.096799,0.982140,-0.144282,-7.479002,0.151500,0.834993,-0.096648,0.541706,-0.742967,0.120146,0.793865,-150.610291,237.449585,-32.616104,,,,,,
1465827838.12,2.078358,0.098625,0.982517,-0.116496,-6.573254,0.129880,0.869685,-0.098466,0.483685,-0.794780,0.109223,0.821551,-150.610291,237.449585,-32.616104,,,,,,
1465827838.13,2.019402,0.100191,0.982963,-0.112125,-5.648402,0.115568,0.896534,-0.100024,0.431535,-0.798908,0.117297,0.790221,-153.073578,237.995392,-7.499725,,,,,,
1465827838.14,1.969569,0.101457,0.983410,-0.081137,-4.738406,0.092861,0.916800,-0.101283,0.386290,-0.783392,0.113902,0.759645,-153.073578,237.995392,-7.499725,,,,,,
1465827838.15,1.931877,0.102471,0.983828,-0.074159,-3.434489,0.075110,0.930608,-0.102292,0.351432,-0.888692,0.104047,0.777123,-153.073578,237.995392,-7.499725,,,,,,
1465827838.16,1.904537,0.103128,0.984065,-0.037838,-2.519183,0.051310,0.939804,-0.102945,0.325839,-0.788086,0.127634,0.729154,-150.045197,238.613449,26.069794,,,,,,
1465827838.17,1.886528,0.103604,0.984346,-0.032321,-1.539101,0.030267,0.945473,-0.103418,0.308847,-0.774620,0.093210,0.657981,-150.045197,238.613449,26.069794,,,,,,
1465827838.18,1.879193,0.103776,0.984407,-0.014971,-0.458162,0.011796,0.947695,-0.103590,0.301899,-0.802645,0.124815,0.701611,-150.045197,238.613449,26.069794,,,,,,
1465827838.19,1.882954,0.103692,0.984401,0.017321,0.644017,-0.011051,0.946562,-0.103507,0.305463,-0.797102,0.101248,0.654406,-148.492142,238.721909,33.038048,,,,,,
1465827838.20,1.895411,0.103393,0.984252,0.018336,1.438272,-0.025611,0.942712,-0.103209,0.317241,-0.739480,0.116880,0.634297,-148.492142,238.721909,33.038048,,,,,,
1465827838.21,1.916096,0.102882,0.984040,0.046029,2.272873,-0.044656,0.935999,-0.102701,0.336688,-0.709161,0.103342,0.607754,-148.492142,238.721909,33.038048,,,,,,
1465827838.22,1.943517,0.102200,0.983786,0.045741,2.877065,-0.058025,0.926480,-0.102022,0.362251,-0.637570,0.105806,0.594887,-149.540466,238.651031,28.511650,,,,,,
1465827838.23,1.977259,0.101330,0.983472,0.066834,3.550264,-0.071807,0.913814,-0.101157,0.393334,-0.645778,0.105536,0.571250,-149.540466,238.651031,28.511650,,,,,,
1465827838.24,2.018515,0.100286,0.983151,0.074213,4.326462,-0.085183,0.896908,-0.100118,0.430735,-0.679821,0.104498,0.596685,-149.540466,238.651031,28.511650,,,,,,
1465827838.25,2.066636,0.099043,0.982782,0.092004,4.916836,-0.096319,0.875259,-0.098881,0.473438,-0.635528,0.106328,0.603756,-151.289307,238.491058,19.056290,,,,,,
1465827838.26,2.117772,0.097722,0.982524,0.088101,5.193980,-0.102319,0.850026,-0.097567,0.517625,-0.538839,0.102068,0.517851,-151.289307,238.491058,19.056290,,,,,,
1465827838.27,2.173172,0.096223,0.982268,0.107842,5.638889,-0.113605,0.820180,-0.096074,0.563981,-0.563542,0.105306,0.545806,-151.289307,238.491058,19.056290,,,,,,
1465827838.28,2.232058,0.094662,0.982155,0.099750,5.970191,-0.121013,0.785685,-0.094520,0.611364,-0.547709,0.100105,0.512462,-152.946716,237.909241,-11.665169,,,,,,
1465827838.29,2.294043,0.092993,0.982052,0.118211,6.257930,-0.122799,0.746422,-0.092859,0.658963,-0.538612,0.107278,0.501422,-152.946716,237.909241,-11.665169,,,,,,
1465827838.30,2.356951,0.091340,0.982145,0.104421,6.291926,-0.127284,0.703626,-0.091213,0.704692,-0.460325,0.097728,0.448446,-152.946716,237.909241,-11.665169,,,,,,
1465827838.31,2.419783,0.089653,0.982308,0.111848,6.272808,-0.126092,0.658091,-0.089533,0.747597,-0.438913,0.102656,0.407692,-150.966751,237.496063,-30.565239,,,,,,
1465827838.32,2.481645,0.088031,0.982577,0.110615,6.142200,-0.123145,0.610702,-0.087917,0.786965,-0.401855,0.093151,0.364189,-150.966751,237.496063,-30.565239,,,,,,
1465827838.33,2.540681,0.086477,0.982917,0.100607,5.813028,-0.114704,0.563282,-0.086369,0.821738,-0.346317,0.098377,0.299584,-150.966751,237.496063,-30.565239,,,,,,
1465827838.34,2.596207,0.085064,0.983335,0.099226,5.471186,-0.111509,0.516872,-0.084962,0.851836,-0.335323,0.088578,0.233308,-139.972336,236.555374,-67.667389,,,,,,
1465827838.35,2.647051,0.083756,0.983795,0.083639,4.940271,-0.100744,0.472964,-0.083658,0.877101,-0.276171,0.096048,0.188084,-139.972336,236.555374,-67.667389,,,,,,
1465827838.36,2.692328,0.082629,0.984235,0.081870,4.392358,-0.088793,0.432822,-0.082535,0.897693,-0.291006,0.088669,0.110501,-139.972336,236.555374,-67.667389,,,,,,
1465827838.37,2.731888,0.081702,0.984717,0.058779,3.815799,-0.080943,0.397010,-0.081611,0.914179,-0.265342,0.086189,0.065741,-132.478027,236.119705,-82.623466,,,,,,
1465827838.38,2.765776,0.080871,0.985078,0.062293,3.245568,-0.062461,0.365833,-0.080783,0.927168,-0.304508,0.093524,0.029100,-132.478027,236.119705,-82.623466,,,,,,
1465827838.39,2.793311,0.080256,0.985458,0.041238,2.592561,-0.055193,0.340184,-0.080169,0.936935,-0.272756,0.080398,-0.021499,-132.478027,236.119705,-82.623466,,,,,,
1465827838.40,2.814220,0.079752,0.985699,0.033980,1.922526,-0.036096,0.320534,-0.079668,0.943881,-0.290291,0.096804,-0.040469,-119.657516,235.514969,-101.707207,,,,,,
1465827838.41,2.828389,0.079452,0.985902,0.023532,1.242959,-0.025457,0.307136,-0.079368,0.948350,-0.283348,0.074409,-0.095842,-119.657516,235.514969,-101.707207,,,,,,
1465827838.42,2.834756,0.079311,0.985979,0.001188,0.427468,-0.006527,0.301095,-0.079228,0.950297,-0.280679,0.077046,-0.138026,-119.657516,235.514969,-101.707207,,,,,,
1465827838.43,2.833494,0.079334,0.985962,0.000260,-0.298828,0.006542,0.302294,-0.079251,0.949915,-0.279146,0.091198,-0.099771,-116.170647,235.370789,-105.993134,,,,,,
1465827838.44,2.825134,0.079589,0.985862,-0.030484,-1.022995,0.022762,0.310218,-0.079505,0.947335,-0.300285,0.082755,-0.118630,-116.170647,235.370789,-105.993134,,,,,,
1465827838.45,2.809497,0.079936,0.985657,-0.027128,-1.732299,0.033601,0.324984,-0.079851,0.942342,-0.330218,0.087938,-0.066457,-116.170647,235.370789,-105.993134,,,,,,
1465827838.46,2.788017,0.080478,0.985403,-0.044869,-2.280206,0.046599,0.345134,-0.080392,0.935104,-0.388164,0.087319,-0.041122,-118.062660,235.455978,-103.688339,,,,,,
1465827838.47,2.761869,0.081058,0.985052,-0.047589,-2.742103,0.054816,0.369446,-0.080970,0.925718,-0.380631,0.088416,0.004870,-118.062660,235.455978,-103.688339,,,,,,
1465827838.48,2.730912,0.081834,0.984716,-0.058853,-3.225233,0.063157,0.397897,-0.081743,0.913781,-0.413446,0.093278,0.025275,-118.062660,235.455978,-103.688339,,,,,,
1465827838.49,2.695612,0.082715,0.984314,-0.066806,-3.608566,0.075133,0.429868,-0.082621,0.899104,-0.430387,0.091441,0.086858,-122.640160,235.655899,-97.751030,,,,,,
1465827838.50,2.657199,0.083676,0.983919,-0.069348,-3.934544,0.079304,0.464042,-0.083578,0.881861,-0.422447,0.093740,0.111547,-122.640160,235.655899,-97.751030,,,,,,
1465827838.51,2.614888,0.084769,0.983547,-0.079429,-4.322115,0.088111,0.500882,-0.084668,0.861364,-0.461744,0.094830,0.160181,-122.640160,235.655899,-97.751030,,,,,,
1465827838.52,2.570096,0.085947,0.983177,-0.080763,-4.531298,0.092615,0.538895,-0.085841,0.837988,-0.452423,0.094584,0.209543,-134.897308,236.276123,-78.140068,,,,,,
1465827838.53,2.523069,0.087194,0.982883,-0.090622,-4.750028,0.095042,0.577630,-0.087084,0.811640,-0.512979,0.101244,0.262365,-134.897308,236.276123,-78.140068,,,,,,
1465827838.54,2.475242,0.088489,0.982621,-0.086411,-4.785075,0.097394,0.615703,-0.088373,0.783007,-0.526378,0.093409,0.306669,-134.897308,236.276123,-78.140068,,,,,,
1465827838.55,2.427475,0.089810,0.982469,-0.090651,-4.773387,0.095188,0.652311,-0.089689,0.752626,-0.549666,0.105757,0.349822,-141.037567,236.654755,-65.057663,,,,,,
1465827838.56,2.380224,0.091085,0.982302,-0.083113,-4.702256,0.096878,0.687053,-0.090959,0.720892,-0.610286,0.100404,0.387461,-141.037567,236.654755,-65.057663,,,,,,
1465827838.57,2.335353,0.092309,0.982247,-0.079523,-4.400682,0.086475,0.718616,-0.092178,0.689270,-0.623325,0.101409,0.430465,-141.037567,236.654755,-65.057663,,,,,,
1465827838.58,2.293485,0.093446,0.982226,-0.075981,-4.126733,0.082631,0.746758,-0.093311,0.658518,-0.627831,0.106204,0.432546,-149.724075,237.389832,-36.855728,,,,,,
1465827838.59,2.254409,0.094523,0.982272,-0.070255,-3.812431,0.076408,0.771835,-0.094382,0.628778,-0.652924,0.100440,0.456945,-149.724075,237.389832,-36.855728,,,,,,
1465827838.60,2.219715,0.095489,0.982360,-0.062199,-3.342039,0.067079,0.793108,-0.095344,0.601572,-0.724795,0.110267,0.490896,-149.724075,237.389832,-36.855728,,,,,,
1465827838.61,2.191028,0.096270,0.982438,-0.051809,-2.710251,0.055676,0.809976,-0.096121,0.578532,-0.709207,0.101889,0.495122,-151.809845,237.683014,-24.292534,,,,,,
1465827838.62,2.167887,0.096903,0.982538,-0.040472,-2.174022,0.043809,0.823095,-0.096752,0.559602,-0.721883,0.106868,0.493057,-151.809845,237.683014,-24.292534,,,,,,
1465827838.63,2.150631,0.097395,0.982633,-0.033322,-1.578334,0.032629,0.832588,-0.097241,0.545290,-0.719399,0.106457,0.494948,-151.809845,237.683014,-24.292534,,,,,,
1465827838.64,2.139337,0.097700,0.982693,-0.019769,-0.975210,0.019280,0.838669,-0.097544,0.535835,-0.701126,0.100428,0.487419,-152.984604,238.036499,-7.995209,,,,,,
1465827838.65,2.133642,0.097861,0.982724,-0.005251,-0.444301,0.010642,0.841694,-0.097705,0.531042,-0.687671,0.109988,0.478052,-152.984604,238.036499,-7.995209,,,,,,
1465827838.66,2.133232,0.097891,0.982749,-0.003483,0.101491,-0.002359,0.841909,-0.097734,0.530695,-0.681585,0.099489,0.475683,-152.984604,238.036499,-7.995209,,,,,,
1465827838.67,2.138322,0.097759,0.982722,0.012112,0.638776,-0.013164,0.839207,-0.097604,0.534981,-0.670811,0.108834,0.475380,-153.015900,238.091202,-5.318947,,,,,,
1465827838.68,2.148407,0.097506,0.982723,0.013811,1.132534,-0.023710,0.833790,-0.097351,0.543430,-0.654057,0.103379,0.462734,-153.015900,238.091202,-5.318947,,,,,,
1465827838.69,2.163181,0.097113,0.982665,0.030358,1.583806,-0.031846,0.825702,-0.096960,0.555710,-0.644459,0.106466,0.455230,-153.015900,238.091202,-5.318947,,,,,,
1465827838.70,2.182175,0.096623,0.982634,0.031960,2.000053,-0.041906,0.815038,-0.096473,0.571319,-0.624105,0.103446,0.444687,-152.932098,237.996704,-9.946075,,,,,,
1465827838.71,2.205090,0.096017,0.982566,0.039904,2.389734,-0.045407,0.801780,-0.095869,0.589879,-0.622688,0.101134,0.437236,-152.932098,237.996704,-9.946075,,,,,,
1465827838.72,2.231587,0.095319,0.982529,0.047800,2.729530,-0.056046,0.785923,-0.095175,0.610956,-0.613239,0.105169,0.422415,-152.932098,237.996704,-9.946075,,,,,,
1465827838.73,2.261726,0.094530,0.982503,0.050423,3.119216,-0.060616,0.767213,-0.094389,0.634409,-0.619279,0.101531,0.426855,-152.577454,237.858994,-16.516548,,,,,,
1465827838.74,2.294792,0.093630,0.982467,0.063487,3.337959,-0.068361,0.745884,-0.093493,0.659482,-0.549289,0.103777,0.375369,-152.577454,237.858994,-16.516548,,,,,,
1465827838.75,2.329098,0.092735,0.982510,0.057252,3.462190,-0.068082,0.722885,-0.092602,0.684735,-0.534363,0.098019,0.362583,-152.577454,237.858994,-16.516548,,,,,,
1465827838.76,2.364032,0.091771,0.982541,0.064765,3.501487,-0.073644,0.698591,-0.091642,0.709628,-0.516157,0.098188,0.330212,-149.920181,237.426514,-35.807373,,,,,,
1465827838.77,2.399774,0.090852,0.982676,0.060614,3.588554,-0.073129,0.672843,-0.090727,0.734201,-0.516532,0.100569,0.319815,-149.920181,237.426514,-35.807373,,,,,,
1465827838.78,2.435477,0.089897,0.982785,0.060584,3.565195,-0.072983,0.646263,-0.089776,0.757815,-0.486839,0.095849,0.284970,-147.347382,237.162018,-46.610146,,,,,,
1465827838.79,2.470463,0.088974,0.982947,0.064700,3.455818,-0.069099,0.619411,-0.088857,0.780022,-0.450344,0.101140,0.246452,-147.347382,237.162018,-46.610146,,,,,,
1465827838.80,2.503111,0.088133,0.983124,0.050534,3.200986,-0.065386,0.593664,-0.088019,0.799885,-0.421697,0.093604,0.204219,-147.347382,237.162018,-46.610146,,,,,,
1465827838.81,2.533380,0.087343,0.983316,0.053430,2.969500,-0.059674,0.569224,-0.087232,0.817542,-0.433863,0.096693,0.184991,-144.012680,236.889420,-57.213093,,,,,,
1465827838.82,2.561088,0.086646,0.983512,0.044569,2.702980,-0.053753,0.546389,-0.086538,0.833049,-0.428835,0.092778,0.155034,-144.012680,236.889420,-57.213093,,,,,,
1465827838.83,2.585861,0.086026,0.983701,0.040973,2.390797,-0.046477,0.525614,-0.085920,0.846373,-0.397685,0.094206,0.122957,-144.012680,236.889420,-57.213093,,,,,,
1465827838.84,2.606418,0.085518,0.983881,0.031884,1.940589,-0.040469,0.508128,-0.085413,0.857036,-0.372675,0.093531,0.089421,-144.012680,236.889420,-57.213093,,,,,,
1465827838.85,2.622432,0.085102,0.984034,0.024920,1.491432,-0.031272,0.494356,-0.084999,0.865094,-0.380815,0.089607,0.072315,-136.981506,236.434189,-73.922394,,,,,,
1465827838.86,2.634085,0.084832,0.984144,0.016913,1.063506,-0.020081,0.484253,-0.084730,0.870816,-0.401856,0.092573,0.063175,-136.981506,236.434189,-73.922394,,,,,,
1465827838.87,2.641927,0.084641,0.984225,0.008984,0.690805,-0.013494,0.477416,-0.084540,0.874601,-0.414672,0.087988,0.058612,-134.361359,236.283524,-79.036026,,,,,,
1465827838.88,2.645843,0.084556,0.984269,0.005276,0.289431,-0.005658,0.473991,-0.084455,0.876470,-0.410011,0.093671,0.056956,-134.361359,236.283524,-79.036026,,,,,,
1465827838.89,2.645731,0.084597,0.984291,-0.008018,-0.113004,0.003239,0.474088,-0.084496,0.876414,-0.413313,0.087700,0.050405,-134.361359,236.283524,-79.036026,,,,,,
1465827838.90,2.641545,0.084713,0.984253,-0.009602,-0.518626,0.011104,0.477748,-0.084612,0.874413,-0.421901,0.095323,0.058113,-132.591888,236.195312,-82.223701,,,,,,
1465827838.91,2.633704,0.084910,0.984179,-0.015372,-0.865848,0.018598,0.484582,-0.084808,0.870625,-0.440301,0.089737,0.069270,-132.591888,236.195312,-82.223701,,,,,,
1465827838.92,2.622716,0.085202,0.984077,-0.021094,-1.176965,0.024801,0.494106,-0.085099,0.865227,-0.450314,0.094804,0.083397,-132.591888,236.195312,-82.223701,,,,,,
1465827838.93,2.608727,0.085594,0.983976,-0.032121,-1.473214,0.030906,0.506144,-0.085490,0.858202,-0.452769,0.092493,0.098265,-133.512939,236.246368,-80.570023,,,,,,
1465827838.94,2.591573,0.086061,0.983829,-0.033601,-1.796016,0.038251,0.520770,-0.085955,0.849359,-0.455767,0.094134,0.110800,-133.512939,236.246368,-80.570023,,,,,,
1465827838.95,2.571556,0.086612,0.983688,-0.040334,-2.066778,0.042072,0.537640,-0.086504,0.838725,-0.468732,0.093172,0.131810,-133.512939,236.246368,-80.570023,,,,,,
1465827838.96,2.549324,0.087202,0.983547,-0.042721,-2.270646,0.044412,0.556124,-0.087091,0.826524,-0.499864,0.096765,0.164519,-133.512939,236.246368,-80.570023,,,,,,
1465827838.97,2.525791,0.087827,0.983412,-0.043919,-2.373646,0.047186,0.575387,-0.087715,0.813164,-0.524606,0.095023,0.187293,-137.947662,236.514252,-71.840240,,,,,,
1465827838.98,2.501484,0.088471,0.983265,-0.044023,-2.453288,0.049814,0.594947,-0.088356,0.798894,-0.533393,0.098289,0.217707,-137.947662,236.514252,-71.840240,,,,,,
1465827838.99,2.476372,0.089167,0.983151,-0.048380,-2.529738,0.051354,0.614781,-0.089048,0.783655,-0.531727,0.096327,0.225607,-137.947662,236.514252,-71.840240,,,,,,
1465827839.01,2.425062,0.090585,0.982964,-0.049459,-2.539297,0.052477,0.654080,-0.090461,0.750997,-0.568173,0.097266,0.279276,-143.680908,236.899506,-58.000031,,,,,,
1465827839.00,2.450601,0.089867,0.983045,-0.048454,-2.587078,0.052778,0.634730,-0.089746,0.767505,-0.548258,0.101129,0.250928,-143.680908,236.899506,-58.000031,,,,,,
1465827839.02,2.400307,0.091254,0.982899,-0.045075,-2.444790,0.048696,0.672427,-0.091128,0.734532,-0.595218,0.102404,0.302074,-146.213287,237.104156,-50.327744,,,,,,
1465827839.03,2.377431,0.091889,0.982839,-0.041610,-2.229246,0.047347,0.689013,-0.091760,0.718917,-0.628908,0.098229,0.327332,-146.213287,237.104156,-50.327744,,,,,,
1465827839.04,2.356729,0.092453,0.982824,-0.037073,-2.018991,0.038582,0.703710,-0.092321,0.704463,-0.616598,0.102209,0.334660,-146.213287,237.104156,-50.327744,,,,,,
1465827839.05,2.338204,0.092972,0.982809,-0.034662,-1.794951,0.037179,0.716605,-0.092838,0.691273,-0.633124,0.099521,0.344020,-148.208862,237.288269,-43.104454,,,,,,
1465827839.06,2.321929,0.093415,0.982805,-0.030107,-1.567713,0.030436,0.727729,-0.093279,0.679492,-0.615715,0.104372,0.345762,-148.208862,237.288269,-43.104454,,,,,,
1465827839.07,2.308022,0.093814,0.982814,-0.026619,-1.333056,0.028968,0.737081,-0.093677,0.669280,-0.625356,0.101886,0.354096,-148.208862,237.288269,-43.104454,,,,,,
1465827839.08,2.296636,0.094129,0.982829,-0.023070,-1.062278,0.019822,0.744631,-0.093990,0.660825,-0.633700,0.102901,0.360339,-150.499054,237.547165,-32.418518,,,,,,
1465827839.09,2.288557,0.094384,0.982858,-0.015197,-0.728873,0.016675,0.749928,-0.094244,0.654772,-0.646580,0.103017,0.373121,-150.499054,237.547165,-32.418518,,,,,,
1465827839.10,2.283613,0.094528,0.982874,-0.011592,-0.411378,0.008300,0.753146,-0.094387,0.651047,-0.644656,0.101559,0.365661,-150.499054,237.547165,-32.418518,,,,,,
1465827839.11,2.281998,0.094594,0.982888,-0.001590,-0.084336,0.002001,0.754191,-0.094453,0.649826,-0.637187,0.105104,0.372955,-151.006424,237.619537,-29.386963,,,,,,
1465827839.12,2.283262,0.094574,0.982895,-0.001227,0.200236,-0.002976,0.753371,-0.094433,0.650780,-0.629836,0.100537,0.361488,-151.006424,237.619537,-29.386963,,,,,,
1465827839.13,2.287612,0.094474,0.982896,0.010880,0.508164,-0.009153,0.750540,-0.094333,0.654057,-0.626425,0.104724,0.364940,-151.006424,237.619537,-29.386963,,,,,,
1465827839.14,2.294775,0.094297,0.982910,0.010173,0.785310,-0.016214,0.745848,-0.094157,0.659428,-0.619582,0.100337,0.353832,-151.006424,237.619537,-29.386963,,,,,,
1465827839.15,2.304557,0.094043,0.982903,0.020072,1.033773,-0.019892,0.739379,-0.093905,0.666708,-0.598709,0.103381,0.348581,-151.023773,237.628616,-29.223976,,,,,,
1465827839.16,2.316149,0.093749,0.982920,0.019220,1.198361,-0.024118,0.731622,-0.093612,0.675253,-0.571664,0.100189,0.326136,-151.023773,237.628616,-29.223976,,,,,,
1465827839.17,2.329106,0.093418,0.982928,0.022570,1.322591,-0.024894,0.722834,-0.093283,0.684697,-0.552424,0.102911,0.317531,-150.583954,237.570786,-31.846077,,,,,,
1465827839.18,2.343000,0.093067,0.982966,0.022690,1.411794,-0.029711,0.713275,-0.092933,0.694696,-0.541583,0.099265,0.305563,-150.583954,237.570786,-31.846077,,,,,,
1465827839.19,2.357808,0.092681,0.982997,0.025998,1.502045,-0.030274,0.702935,-0.092549,0.705207,-0.544244,0.101094,0.299706,-150.583954,237.570786,-31.846077,,,,,,
1465827839.20,2.373613,0.092272,0.983049,0.027201,1.609293,-0.033074,0.691728,-0.092141,0.716255,-0.552919,0.098428,0.295570,-148.919220,237.381973,-40.030640,,,,,,
1465827839.21,2.390221,0.091825,0.983086,0.028343,1.670877,-0.033459,0.679766,-0.091696,0.727674,-0.534914,0.099615,0.281496,-148.919220,237.381973,-40.030640,,,,,,
1465827839.22,2.407186,0.091401,0.983160,0.026265,1.711226,-0.033714,0.667350,-0.091273,0.739130,-0.540793,0.098201,0.266836,-148.919220,237.381973,-40.030640,,,,,,
1465827839.23,2.424773,0.090962,0.983233,0.027406,1.770689,-0.035151,0.654274,-0.090837,0.750782,-0.541023,0.098741,0.262981,-147.697342,237.260788,-44.971039,,,,,,
1465827839.24,2.442237,0.090523,0.983318,0.028418,1.728217,-0.034883,0.641089,-0.090399,0.762124,-0.501517,0.097723,0.241416,-147.697342,237.260788,-44.971039,,,,,,
1465827839.25,2.464131,0.089199,0.982898,0.025053,1.594460,-0.031918,0.624326,-0.089080,0.776068,-0.478177,0.096710,0.210122,-147.697342,237.260788,-44.971039,,,,,,
1465827839.26,2.486318,0.087607,0.982359,0.024903,1.474518,-0.030101,0.607040,-0.087495,0.789840,-0.466171,0.095994,0.197999,-144.330032,236.923294,-56.265175,,,,,,
1465827839.27,2.502419,0.086837,0.982217,0.021510,1.320565,-0.025946,0.594285,-0.086728,0.799565,-0.458070,0.092679,0.184063,-144.330032,236.923294,-56.265175,,,,,,
1465827839.28,2.514991,0.086351,0.982204,0.018033,1.096530,-0.023480,0.584210,-0.086244,0.807007,-0.435834,0.092774,0.165176,-144.330032,236.923294,-56.265175,,,,,,
1465827839.29,2.525158,0.085971,0.982185,0.014565,0.888405,-0.015791,0.575995,-0.085865,0.812931,-0.446204,0.094623,0.155758,-144.330032,236.923294,-56.265175,,,,,,
1465827839.30,2.534048,0.085540,0.982120,0.010068,0.698354,-0.014604,0.568766,-0.085435,0.818050,-0.449549,0.092241,0.155384,-140.938461,236.543289,-65.674973,,,,,,
1465827839.31,2.544416,0.084547,0.981748,0.007681,0.496634,-0.010147,0.560302,-0.084446,0.823973,-0.450347,0.092731,0.145739,-140.938461,236.543289,-65.674973,,,,,,
1465827839.32,2.547877,0.084459,0.981781,0.004234,0.298072,-0.006777,0.557450,-0.084359,0.825913,-0.454865,0.090951,0.143020,-139.754486,236.384201,-68.707901,,,,,,
1465827839.33,2.549439,0.084431,0.981808,0.000792,0.105879,-0.002381,0.556161,-0.084331,0.826785,-0.459436,0.091335,0.142530,-139.754486,236.384201,-68.707901,,,,,,
1465827839.34,2.549041,0.084458,0.981824,-0.004776,-0.085249,0.000941,0.556489,-0.084358,0.826562,-0.461960,0.092704,0.141608,-139.754486,236.384201,-68.707901,,,,,,
1465827839.35,2.546852,0.084543,0.981822,-0.008098,-0.264567,0.007374,0.558293,-0.084443,0.825335,-0.465046,0.092042,0.143628,-139.754486,236.384201,-68.707901,,,,,,
1465827839.37,2.537326,0.084823,0.981776,-0.012769,-0.588424,0.012594,0.566116,-0.084721,0.819960,-0.480941,0.092915,0.154969,-139.601074,236.378113,-69.039902,,,,,,
1465827839.36,2.542859,0.084662,0.981804,-0.008318,-0.441885,0.007421,0.561579,-0.084561,0.823091,-0.469461,0.092511,0.147398,-139.601074,236.378113,-69.039902,,,,,,
1465827839.39,2.522604,0.085251,0.981700,-0.018382,-0.815653,0.016142,0.578105,-0.085147,0.811508,-0.498820,0.094303,0.171387,-140.206253,236.419434,-67.658264,,,,,,
1465827839.38,2.530504,0.085022,0.981734,-0.013990,-0.711595,0.014429,0.571687,-0.084919,0.816066,-0.491929,0.091069,0.162664,-140.206253,236.419434,-67.658264,,,,,,
1465827839.40,2.513723,0.085500,0.981642,-0.016380,-0.912286,0.019943,0.585276,-0.085396,0.806325,-0.503062,0.093178,0.177288,-140.206253,236.419434,-67.658264,,,,,,
1465827839.41,2.503901,0.085781,0.981602,-0.020757,-1.006785,0.020532,0.593153,-0.085675,0.800518,-0.500822,0.093991,0.186146,-141.114258,236.483154,-65.513870,,,,,,
1465827839.42,2.493336,0.086072,0.981559,-0.020833,-1.067308,0.020911,0.601563,-0.085966,0.794186,-0.515763,0.094267,0.196216,-141.114258,236.483154,-65.513870,,,,,,
1465827839.43,2.482695,0.086384,0.981521,-0.020833,-1.065187,0.021962,0.609962,-0.086276,0.787720,-0.532188,0.094669,0.214691,-141.114258,236.483154,-65.513870,,,,,,
1465827839.44,2.471997,0.086688,0.981480,-0.021907,-1.071560,0.023066,0.618338,-0.086579,0.781129,-0.534308,0.093629,0.217681,-143.419159,236.649948,-59.643257,,,,,,
1465827839.45,2.461327,0.086979,0.981424,-0.018700,-1.063064,0.021951,0.626622,-0.086869,0.774467,-0.537923,0.096558,0.227700,-143.419159,236.649948,-59.643257,,,,,,
1465827839.46,2.455678,0.086598,0.980983,-0.019706,-1.018438,0.020606,0.631008,-0.086490,0.770940,-0.544521,0.095447,0.230097,-143.419159,236.649948,-59.643257,,,,,,
1465827839.47,2.448138,0.086580,0.980790,-0.017453,-0.926042,0.016836,0.636803,-0.086471,0.766162,-0.558892,0.096268,0.244229,-144.554901,236.737656,-56.468956,,,,,,
1465827839.48,2.442133,0.086508,0.980587,-0.016204,-0.781622,0.014867,0.641397,-0.086400,0.762329,-0.576196,0.097508,0.251282,-144.554901,236.737656,-56.468956,,,,,,
1465827839.49,2.439893,0.086153,0.980203,-0.009577,-0.595779,0.011579,0.643122,-0.086046,0.760914,-0.583277,0.092409,0.256573,-144.554901,236.737656,-56.468956,,,,,,
1465827839.50,2.450153,0.084340,0.978911,-0.010427,-0.427927,0.010527,0.635380,-0.084240,0.767591,-0.573872,0.095608,0.256655,-145.643799,236.719589,-53.677765,,,,,,
1465827839.51,2.481527,0.080378,0.976084,-0.008044,-0.238719,0.006152,0.611189,-0.080292,0.787402,-0.545103,0.084701,0.221921,-145.643799,236.719589,-53.677765,,,,,,
1465827839.52,2.512938,0.075973,0.973534,-0.003573,-0.083499,0.001991,0.586361,-0.075899,0.806486,-0.512188,0.087252,0.217592,-145.643799,236.719589,-53.677765,,,,,,
1465827839.53,2.543130,0.072183,0.971337,-0.000168,0.075946,-0.000067,0.561906,-0.072120,0.824051,-0.485795,0.076851,0.180450,-143.374802,236.248459,-61.318035,,,,,,
1465827839.55,2.599688,0.064880,0.967878,0.004492,0.375683,-0.006197,0.514683,-0.064834,0.854926,-0.438725,0.070739,0.150873,-143.374802,236.248459,-61.318035,,,,,,
1465827839.54,2.571942,0.068219,0.969465,0.001099,0.226884,-0.003140,0.538083,-0.068166,0.840131,-0.459134,0.080312,0.181369,-143.374802,236.248459,-61.318035,,,,,,
1465827839.56,2.625850,0.061493,0.966579,0.005741,0.511727,-0.010241,0.492249,-0.061454,0.868282,-0.410981,0.073356,0.147160,-135.425171,234.719009,-81.832703,,,,,,
1465827839.57,2.650170,0.058631,0.965520,0.010143,0.621198,-0.010922,0.471070,-0.058597,0.880147,-0.386933,0.065922,0.125132,-135.425171,234.719009,-81.832703,,,,,,
1465827839.58,2.668032,0.056670,0.964953,0.009189,0.703027,-0.013565,0.455325,-0.056639,0.888522,-0.362460,0.067107,0.125211,-135.425171,234.719009,-81.832703,,,,,,
1465827839.59,2.686003,0.054755,0.964441,0.010298,0.734943,-0.013763,0.439332,-0.054728,0.896656,-0.337327,0.062464,0.103115,-135.425171,234.719009,-81.832703,,,,,,
1465827839.60,2.703124,0.052823,0.964000,0.010297,0.729694,-0.014794,0.423962,-0.052799,0.904140,-0.308407,0.061176,0.091923,-128.207397,233.541992,-95.658615,,,,,,
1465827839.61,2.719623,0.050896,0.963585,0.011295,0.675595,-0.013389,0.409028,-0.050874,0.911103,-0.281815,0.056733,0.078796,-128.207397,233.541992,-95.658615,,,,,,
1465827839.62,2.732469,0.049429,0.963344,0.008021,0.610862,-0.011922,0.397320,-0.049409,0.916349,-0.261532,0.057069,0.067385,-128.207397,233.541992,-95.658615,,,,,,
1465827839.63,2.737912,0.049317,0.963415,0.006842,0.521668,-0.010299,0.392329,-0.049297,0.918503,-0.255778,0.055309,0.065155,-125.111000,233.053360,-100.811470,,,,,,
1465827839.64,2.742505,0.049221,0.963471,0.006735,0.437783,-0.008709,0.388107,-0.049201,0.920300,-0.255615,0.057059,0.061786,-125.111000,233.053360,-100.811470,,,,,,
1465827839.65,2.746133,0.049148,0.963512,0.004476,0.337969,-0.005956,0.384767,-0.049129,0.921705,-0.251207,0.056712,0.060564,-125.111000,233.053360,-100.811470,,,,,,
1465827839.66,2.748779,0.049104,0.963548,0.002223,0.241343,-0.004288,0.382328,-0.049084,0.922722,-0.254169,0.056393,0.058418,-122.536362,232.808060,-104.474075,,,,,,
1465827839.67,2.750459,0.049073,0.963565,0.002097,0.142592,-0.002604,0.380777,-0.049054,0.923365,-0.254618,0.054928,0.058462,-122.536362,232.808060,-104.474075,,,,,,
1465827839.68,2.751157,0.049061,0.963583,-0.001218,0.045970,-0.002001,0.380133,-0.049042,0.923631,-0.254874,0.056702,0.057815,-122.536362,232.808060,-104.474075,,,,,,
1465827839.69,2.750911,0.049071,0.963581,-0.000277,-0.049599,0.000728,0.380361,-0.049051,0.923537,-0.257665,0.056818,0.057909,-122.100945,232.793457,-105.014999,,,,,,
1465827839.70,2.749741,0.049126,0.963568,-0.005717,-0.138793,0.003411,0.381440,-0.049106,0.923088,-0.258927,0.055286,0.059028,-122.100945,232.793457,-105.014999,,,,,,
1465827839.71,2.747764,0.049206,0.963555,-0.007945,-0.215245,0.004952,0.383262,-0.049186,0.922329,-0.264244,0.057075,0.062077,-122.057114,232.791931,-105.069344,,,,,,
1465827839.72,2.745107,0.049288,0.963538,-0.006960,-0.278954,0.005353,0.385710,-0.049268,0.921304,-0.268721,0.057111,0.062705,-122.057114,232.791931,-105.069344,,,,,,
1465827839.73,2.754181,0.047018,0.962919,-0.009143,-0.324541,0.006701,0.377376,-0.047001,0.924867,-0.269099,0.054325,0.061965,-122.057114,232.791931,-105.069344,,,,,,
1465827839.74,2.762342,0.044950,0.962354,-0.009171,-0.351018,0.006868,0.369850,-0.044935,0.928004,-0.267174,0.052000,0.060353,-121.754196,232.544769,-105.964294,,,,,,
1465827839.75,2.769897,0.042969,0.961831,-0.010241,-0.359447,0.006920,0.362860,-0.042956,0.930853,-0.264197,0.051730,0.062418,-121.754196,232.544769,-105.964294,,,,,,
1465827839.76,2.777055,0.041158,0.961333,-0.007037,-0.353017,0.007948,0.356216,-0.041147,0.933497,-0.262847,0.048898,0.063054,-121.754196,232.544769,-105.964294,,,,,,
1465827839.77,2.783888,0.039378,0.960886,-0.008068,-0.331718,0.006749,0.349854,-0.039367,0.935977,-0.258835,0.049728,0.060651,-120.185455,232.038239,-108.826881,,,,,,
1465827839.78,2.799655,0.036218,0.960131,-0.005894,-0.302939,0.006571,0.335093,-0.036210,0.941489,-0.247553,0.044572,0.059472,-120.185455,232.038239,-108.826881,,,,,,
1465827839.80,2.812283,0.033485,0.959451,-0.005740,-0.188160,0.004787,0.323209,-0.033479,0.945735,-0.241620,0.043550,0.058171,-120.185455,232.038239,-108.826881,,,,,,
1465827839.79,2.805843,0.034877,0.959769,-0.003698,-0.252984,0.006260,0.329277,-0.034870,0.943589,-0.245140,0.040928,0.056792,-120.185455,232.038239,-108.826881,,,,,,
1465827839.81,2.819097,0.032165,0.959166,-0.003512,-0.115904,0.002208,0.316770,-0.032160,0.947957,-0.237776,0.041529,0.057246,-116.372910,231.005783,-114.992416,,,,,,
1465827839.82,2.826283,0.030934,0.958924,-0.003405,-0.037279,-0.000414,0.309962,-0.030929,0.950246,-0.231318,0.039688,0.055553,-116.372910,231.005783,-114.992416,,,,,,
1465827839.83,2.833866,0.029814,0.958709,-0.002236,0.043461,-0.000919,0.302758,-0.029809,0.952601,-0.223443,0.036599,0.052373,-114.907364,230.649826,-117.160278,,,,,,
1465827839.84,2.841618,0.028693,0.958534,0.001051,0.111461,-0.003471,0.295374,-0.028689,0.954951,-0.211680,0.036013,0.046560,-114.907364,230.649826,-117.160278,,,,,,
1465827839.85,2.849475,0.027550,0.958379,0.003261,0.173081,-0.003855,0.287872,-0.027546,0.957273,-0.199295,0.036427,0.042849,-114.907364,230.649826,-117.160278,,,,,,
1465827839.86,2.857286,0.026497,0.958248,0.002254,0.218770,-0.003078,0.280394,-0.026494,0.959519,-0.184950,0.034398,0.040877,-111.431450,230.022797,-121.663940,,,,,,
1465827839.87,2.864828,0.025423,0.958145,0.003355,0.242165,-0.005352,0.273156,-0.025420,0.961634,-0.170801,0.034896,0.035482,-111.431450,230.022797,-121.663940,,,,,,
1465827839.88,2.871857,0.024452,0.958062,0.002287,0.241125,-0.003218,0.266397,-0.024450,0.963553,-0.154931,0.032445,0.028192,-111.431450,230.022797,-121.663940,,,,,,
1465827839.89,2.878293,0.023526,0.958002,0.001201,0.218859,-0.005208,0.260195,-0.023524,0.965269,-0.144213,0.031275,0.024172,-109.632950,229.723083,-123.844673,,,,,,
1465827839.90,2.884079,0.022669,0.957951,0.001161,0.187024,-0.003944,0.254612,-0.022668,0.966778,-0.134129,0.029748,0.020756,-109.632950,229.723083,-123.844673,,,,,,
1465827839.91,2.889229,0.021854,0.957892,0.001108,0.144571,-0.002613,0.249634,-0.021852,0.968094,-0.128281,0.029085,0.019852,-109.632950,229.723083,-123.844673,,,,,,
1465827839.92,2.893697,0.021058,0.957834,0.001047,0.095745,-0.001243,0.245310,-0.021057,0.969216,-0.123422,0.028472,0.018791,-106.727768,229.207611,-127.289536,,,,,,
1465827839.93,2.897461,0.020287,0.957782,0.000982,0.040553,-0.001961,0.241664,-0.020285,0.970148,-0.119182,0.028189,0.015249,-106.727768,229.207611,-127.289536,,,,,,
1465827839.94,2.900644,0.019610,0.957727,-0.002273,-0.006152,0.000458,0.238578,-0.019609,0.970925,-0.117911,0.026323,0.015479,-106.727768,229.207611,-127.289536,,,,,,
1465827839.95,2.903214,0.018944,0.957667,-0.003397,-0.054977,0.000763,0.236085,-0.018942,0.971548,-0.115526,0.026419,0.016612,-105.738945,228.980255,-128.518082,,,,,,
1465827839.96,2.905393,0.018322,0.957600,-0.003449,-0.094251,0.003138,0.233970,-0.018321,0.972071,-0.118110,0.025706,0.017080,-105.738945,228.980255,-128.518082,,,,,,
1465827839.97,2.907284,0.017718,0.957537,-0.005614,-0.126083,0.002271,0.232134,-0.017718,0.972522,-0.121737,0.026446,0.017727,-105.738945,228.980255,-128.518082,,,,,,
1465827839.98,2.908978,0.017167,0.957473,-0.005633,-0.140933,0.003428,0.230489,-0.017166,0.972924,-0.123464,0.024704,0.019203,-104.553925,228.611099,-130.134613,,,,,,
1465827839.99,2.910685,0.016624,0.957399,-0.004569,-0.143038,0.003443,0.228829,-0.016624,0.973325,-0.127160,0.024665,0.021487,-104.553925,228.611099,-130.134613,,,,,,
1465827840.00,2.912494,0.016085,0.957328,-0.003484,-0.130276,0.002299,0.227071,-0.016085,0.973745,-0.129002,0.024187,0.023325,-104.553925,228.611099,-130.134613,,,,,,
1465827840.01,2.914552,0.015559,0.957273,-0.003447,-0.103709,0.001068,0.225068,-0.015558,0.974219,-0.131669,0.023646,0.022775,-104.137482,228.455780,-130.739883,,,,,,
1465827840.02,2.916917,0.015047,0.957216,-0.002338,-0.069713,0.000856,0.222765,-0.015046,0.974756,-0.131960,0.023164,0.024527,-104.137482,228.455780,-130.739883,,,,,,
1465827840.03,2.919690,0.014585,0.957188,-0.003339,-0.024031,-0.001560,0.220063,-0.014584,0.975377,-0.132355,0.021802,0.023769,-104.137482,228.455780,-130.739883,,,,,,
1465827840.04,2.922770,0.014122,0.957151,-0.002223,0.017394,-0.000755,0.217059,-0.014121,0.976056,-0.128634,0.021400,0.021899,-103.011948,228.162201,-132.136765,,,,,,
1465827840.05,2.926177,0.013624,0.957124,-0.002164,0.063069,-0.001041,0.213733,-0.013624,0.976797,-0.124652,0.022657,0.023890,-103.011948,228.162201,-132.136765,,,,,,
1465827840.06,2.929757,0.013142,0.957096,0.000012,0.098123,-0.001259,0.210236,-0.013142,0.977562,-0.116807,0.021657,0.022178,-103.011948,228.162201,-132.136765,,,,,,
1465827840.07,2.933421,0.012685,0.957082,0.001111,0.122562,-0.002476,0.206655,-0.012685,0.978332,-0.108998,0.020360,0.019135,-102.185318,228.021042,-133.019318,,,,,,
1465827840.08,2.937067,0.012236,0.957085,0.000070,0.138506,-0.003641,0.203088,-0.012235,0.979084,-0.101403,0.020185,0.017086,-102.185318,228.021042,-133.019318,,,,,,
1465827840.09,2.940541,0.011764,0.957082,0.001132,0.135333,-0.003620,0.199687,-0.011764,0.979789,-0.094294,0.020553,0.012230,-102.185318,228.021042,-133.019318,,,,,,
1465827840.10,2.943721,0.011339,0.957089,0.000055,0.124727,-0.003555,0.196570,-0.011338,0.980424,-0.086112,0.018800,0.009749,-100.339737,227.741241,-134.890472,,,,,,
1465827840.11,2.946540,0.010956,0.957094,-0.001038,0.102437,-0.002352,0.193806,-0.010956,0.980979,-0.079198,0.017563,0.010126,-100.339737,227.741241,-134.890472,,,,,,
1465827840.12,2.948954,0.010538,0.957085,-0.000013,0.071651,-0.001093,0.191439,-0.010538,0.981448,-0.074556,0.019525,0.007535,-100.339737,227.741241,-134.890472,,,,,,
1465827840.14,2.952672,0.009794,0.957057,-0.002225,0.006894,0.001440,0.187790,-0.009794,0.982160,-0.072297,0.016721,0.006060,-99.566895,227.617371,-135.670013,,,,,,
1465827840.13,2.950992,0.010133,0.957078,-0.001117,0.038745,-0.000888,0.189439,-0.010133,0.981840,-0.073518,0.018617,0.006060,-99.566895,227.617371,-135.670013,,,,,,
1465827840.15,2.953986,0.009445,0.957031,-0.002268,-0.028136,0.001659,0.186500,-0.009445,0.982410,-0.071952,0.017593,0.004758,-99.566895,227.617371,-135.670013,,,,,,
1465827840.16,2.955009,0.009103,0.957015,-0.001229,-0.051485,0.000742,0.185495,-0.009103,0.982603,-0.069925,0.017328,0.012545,-98.604172,227.391266,-136.747971,,,,,,
1465827840.17,2.955830,0.008801,0.956992,-0.004452,-0.073775,0.001943,0.184689,-0.008801,0.982758,-0.073925,0.015759,0.002930,-98.604172,227.391266,-136.747971,,,,,,
1465827840.18,2.956685,0.008496,0.956967,-0.004452,-0.074827,0.001950,0.183849,-0.008495,0.982918,-0.077419,0.016888,0.014290,-98.604172,227.391266,-136.747971,,,,,,
1465827840.19,2.957567,0.008187,0.956942,-0.003390,-0.080123,0.000920,0.182982,-0.008187,0.983082,-0.082122,0.016121,0.007183,-98.370132,227.295700,-137.075058,,,,,,
1465827840.21,2.959771,0.007612,0.956889,-0.003347,-0.046128,0.001771,0.180816,-0.007612,0.983487,-0.083663,0.016065,0.013064,-98.370132,227.295700,-137.075058,,,,,,
1465827840.20,2.958566,0.007914,0.956911,-0.003372,-0.063130,0.002942,0.182001,-0.007914,0.983266,-0.082605,0.015681,0.014017,-98.370132,227.295700,-137.075058,,,,,,
1465827840.22,2.961186,0.007365,0.956869,-0.001184,-0.021695,0.000555,0.179425,-0.007365,0.983744,-0.084378,0.013728,0.012945,-97.854973,227.121109,-137.731598,,,,,,
1465827840.23,2.962924,0.007068,0.956856,-0.001146,0.009105,0.001426,0.177715,-0.007068,0.984057,-0.084332,0.015933,0.017088,-97.854973,227.121109,-137.731598,,,,,,
1465827840.24,2.964846,0.006780,0.956852,-0.002172,0.035666,-0.000870,0.175824,-0.006780,0.984398,-0.082104,0.015890,0.011924,-97.854973,227.121109,-137.731598,,,,,,
1465827840.25,2.966991,0.006531,0.956852,-0.000006,0.063281,-0.001041,0.173712,-0.006531,0.984775,-0.078405,0.013046,0.013745,-97.434868,227.040161,-138.162216,,,,,,
1465827840.26,2.969151,0.006233,0.956853,0.001079,0.077096,-0.002191,0.171585,-0.006233,0.985150,-0.072128,0.014778,0.008381,-97.434868,227.040161,-138.162216,,,,,,
1465827840.27,2.971397,0.005950,0.956861,0.001095,0.090905,-0.001214,0.169372,-0.005950,0.985534,-0.067886,0.014083,0.013382,-97.434868,227.040161,-138.162216,,,,,,
1465827840.28,2.973513,0.005647,0.956861,-0.001036,0.089848,-0.000145,0.167286,-0.005647,0.985892,-0.061421,0.015336,0.006433,-96.304886,226.868271,-139.232651,,,,,,
1465827840.29,2.975517,0.005358,0.956864,0.001088,0.083486,-0.001167,0.165311,-0.005358,0.986227,-0.058057,0.014177,0.008921,-96.304886,226.868271,-139.232651,,,,,,
1465827840.30,2.977301,0.005115,0.956876,-0.001057,0.069690,-0.001083,0.163552,-0.005115,0.986521,-0.053917,0.012637,0.005666,-96.304886,226.868271,-139.232651,,,,,,
1465827840.31,2.978862,0.004865,0.956878,-0.001078,0.053766,0.000081,0.162012,-0.004865,0.986777,-0.050150,0.013623,0.005029,-95.753380,226.777054,-139.760620,,,,,,
1465827840.33,2.981155,0.004422,0.956860,-0.002203,0.005994,0.001444,0.159749,-0.004422,0.987148,-0.047002,0.012631,0.002659,-95.753380,226.777054,-139.760620,,,,,,
1465827840.32,2.980149,0.004648,0.956870,-0.002174,0.028289,0.000240,0.160742,-0.004648,0.986986,-0.048865,0.012384,0.002852,-95.753380,226.777054,-139.760620,,,,,,
1465827840.34,2.981985,0.004243,0.956851,-0.003289,-0.013110,0.000498,0.158930,-0.004243,0.987281,-0.047831,0.010896,0.004342,-94.996826,226.633499,-140.507767,,,,,,
1465827840.35,2.982675,0.004038,0.956840,-0.002248,-0.031158,0.001677,0.158248,-0.004038,0.987391,-0.050307,0.012338,0.004415,-94.996826,226.633499,-140.507767,,,,,,
1465827840.36,2.983223,0.003818,0.956833,-0.001193,-0.041768,0.000680,0.157707,-0.003818,0.987479,-0.050560,0.012531,0.004556,-94.996826,226.633499,-140.507767,,,,,,
1465827840.37,2.983701,0.003610,0.956821,-0.002171,-0.047091,0.000701,0.157236,-0.003610,0.987554,-0.049463,0.012491,0.005549,-94.792450,226.575745,-140.738770,,,,,,
1465827840.38,2.984277,0.003404,0.956820,-0.002166,-0.043900,0.000681,0.156667,-0.003404,0.987646,-0.055242,0.012132,0.002604,-94.792450,226.575745,-140.738770,,,,,,
1465827840.39,2.984966,0.003198,0.956807,-0.002152,-0.032217,0.001672,0.155986,-0.003198,0.987754,-0.055660,0.012093,0.011605,-94.792450,226.575745,-140.738770,,,,,,
1465827840.40,2.985819,0.003033,0.956808,-0.003199,-0.020527,0.000533,0.155144,-0.003033,0.987887,-0.058693,0.010373,0.007749,-94.492111,226.448669,-141.144684,,,,,,
1465827840.41,2.986801,0.002837,0.956808,-0.001044,-0.000348,0.000409,0.154173,-0.002837,0.988040,-0.055586,0.011504,0.008970,-94.492111,226.448669,-141.144684,,,,,,
1465827840.42,2.988009,0.002661,0.956815,-0.002083,0.017712,-0.000770,0.152980,-0.002661,0.988226,-0.058146,0.010672,0.008692,-94.492111,226.448669,-141.144684,,,,,,
1465827840.43,2.989291,0.002459,0.956827,-0.000994,0.034709,-0.001940,0.151713,-0.002459,0.988422,-0.052332,0.011111,0.009320,-94.245674,226.392929,-141.398621,,,,,,
1465827840.44,2.990743,0.002285,0.956840,0.000090,0.050638,-0.000974,0.150277,-0.002285,0.988641,-0.052713,0.009700,0.006201,-94.245674,226.392929,-141.398621,,,,,,
1465827840.45,2.992220,0.002098,0.956835,-0.000963,0.061259,0.000022,0.148818,-0.002098,0.988862,-0.047377,0.011009,0.006896,-94.245674,226.392929,-141.398621,,,,,,
1465827840.46,2.993700,0.001901,0.956838,0.000109,0.064451,-0.001061,0.147354,-0.001901,0.989082,-0.045334,0.010400,0.006676,-93.509087,226.277084,-142.071533,,,,,,
1465827840.47,2.995107,0.001723,0.956854,0.000111,0.063397,-0.002119,0.145962,-0.001723,0.989289,-0.041500,0.010237,0.005142,-93.509087,226.277084,-142.071533,,,,,,
1465827840.48,2.996343,0.001562,0.956868,0.000099,0.054903,-0.001001,0.144739,-0.001562,0.989469,-0.036462,0.008704,0.002856,-93.509087,226.277084,-142.071533,,,,,,
1465827840.49,2.997417,0.001367,0.956875,0.000083,0.042165,-0.000922,0.143677,-0.001367,0.989624,-0.034119,0.010369,0.002381,-93.114975,226.217789,-142.424316,,,,,,
1465827840.50,2.998331,0.001202,0.956885,-0.002061,0.029428,-0.000844,0.142772,-0.001202,0.989755,-0.032299,0.009869,0.001792,-93.114975,226.217789,-142.424316,,,,,,
1465827840.51,2.999075,0.001081,0.956890,-0.003147,0.013502,0.000319,0.142035,-0.001081,0.989861,-0.032004,0.008131,0.001121,-93.114975,226.217789,-142.424316,,,,,,
1465827840.52,2.999674,0.000939,0.956900,-0.002097,-0.000296,-0.000658,0.141442,-0.000939,0.989946,-0.031671,0.009026,0.001952,-92.577972,226.115982,-142.935165,,,,,,
1465827840.53,3.000189,0.000777,0.956892,-0.002114,-0.010916,0.001538,0.140933,-0.000777,0.990019,-0.033999,0.010253,0.002108,-92.577972,226.115982,-142.935165,,,,,,
1465827840.54,3.000564,0.000652,0.956884,-0.001060,-0.021528,0.000541,0.140561,-0.000652,0.990072,-0.032026,0.008236,0.001170,-92.577972,226.115982,-142.935165,,,,,,
1465827840.55,3.000946,0.000522,0.956882,-0.004256,-0.023647,0.000551,0.140183,-0.000522,0.990125,-0.035172,0.008823,0.001909,-92.428795,226.068771,-143.106277,,,,,,
1465827840.56,3.001314,0.000422,0.956880,-0.002130,-0.025771,0.001631,0.139819,-0.000422,0.990177,-0.035601,0.007228,0.004772,-92.428795,226.068771,-143.106277,,,,,,
1465827840.57,3.001755,0.000289,0.956871,-0.002118,-0.018331,0.000520,0.139382,-0.000289,0.990239,-0.037057,0.008513,0.005031,-92.428795,226.068771,-143.106277,,,,,,
1465827840.58,3.002297,0.000142,0.956869,-0.001046,-0.013019,0.000487,0.138845,-0.000142,0.990314,-0.038412,0.009252,0.006588,-92.215317,225.994736,-143.360687,,,,,,
1465827840.59,3.003005,-0.000006,0.956867,-0.003156,0.001852,0.000392,0.138145,0.000006,0.990412,-0.039985,0.009592,0.005346,-92.215317,225.994736,-143.360687,,,,,,
1465827840.60,3.003805,-0.000139,0.956878,-0.003138,0.013538,-0.000746,0.137352,0.000139,0.990522,-0.038993,0.008971,0.004366,-92.215317,225.994736,-143.360687,,,,,,
1465827840.61,3.004712,-0.000264,0.956884,-0.002059,0.026280,0.000240,0.136453,0.000264,0.990646,-0.038309,0.008311,0.004242,-92.044403,225.949417,-143.541870,,,,,,
1465827840.62,3.005689,-0.000364,0.956891,-0.003108,0.036906,-0.000892,0.135485,0.000364,0.990779,-0.034793,0.007174,0.005849,-92.044403,225.949417,-143.541870,,,,,,
1465827840.63,3.006679,-0.000487,0.956895,-0.000970,0.043279,-0.000930,0.134505,0.000487,0.990913,-0.032714,0.006914,0.003335,-92.044403,225.949417,-143.541870,,,,,,
1465827840.64,3.007682,-0.000629,0.956899,0.000101,0.047529,-0.000956,0.133511,0.000629,0.991047,-0.030041,0.008007,0.003887,-91.537170,225.872910,-143.985962,,,,,,
1465827840.66,3.009545,-0.000825,0.956902,-0.000971,0.042223,0.000141,0.131664,0.000825,0.991294,-0.024913,0.006178,0.002480,-91.537170,225.872910,-143.985962,,,,,,
1465827840.65,3.008668,-0.000732,0.956901,-0.002030,0.047530,0.000106,0.132534,0.000732,0.991178,-0.027904,0.007034,0.000674,-91.537170,225.872910,-143.985962,,,,,,
1465827840.67,3.010325,-0.000927,0.956908,-0.002044,0.033734,-0.000872,0.130891,0.000927,0.991396,-0.023866,0.006611,0.000349,-91.259415,225.834366,-144.222534,,,,,,
1465827840.68,3.011005,-0.001036,0.956912,0.000077,0.026303,-0.000823,0.130217,0.001036,0.991485,-0.022047,0.006456,0.004883,-91.259415,225.834366,-144.222534,,,,,,
1465827840.69,3.011552,-0.001152,0.956915,-0.001007,0.012499,0.000327,0.129674,0.001152,0.991556,-0.022573,0.006874,0.001455,-91.259415,225.834366,-144.222534,,,,,,
1465827840.70,3.012005,-0.001240,0.956914,0.000053,0.008254,0.000354,0.129225,0.001240,0.991615,-0.022017,0.005626,-0.003333,-90.858467,225.768295,-144.578690,,,,,,
