timestamp,attitude_roll,attitude_pitch,attitude_yaw,rotation_rate_x,rotation_rate_y,rotation_rate_z,gravity_x,gravity_y,gravity_z,user_acc_x,user_acc_y,user_acc_z,magnetic_field_x,magnetic_field_y,magnetic_field_z,latitude(degree),longitude(degree),altitude(meter),speed(m/s),course(degree),timestamp
1467746736.41,2.445706,-0.156161,-0.024857,-0.007127,-0.291537,0.004150,0.633266,0.155527,0.758146,-0.770885,-0.133432,-1.758116,23.353180,47.294861,-0.559956,,,,,,
1467746736.42,2.442522,-0.156036,-0.024836,-0.010355,-0.317022,0.005371,0.635689,0.155403,0.756141,-0.812340,-0.137978,-1.754921,23.353180,47.294861,-0.559956,,,,,,
1467746736.43,2.439920,-0.155965,-0.024835,-0.003867,-0.239511,0.003827,0.637661,0.155333,0.754493,-0.821240,-0.127074,-1.719550,23.353180,47.294861,-0.559956,,,,,,
1467746736.44,2.437842,-0.155920,-0.024838,-0.003818,-0.202345,0.002529,0.639232,0.155289,0.753172,-0.836681,-0.137024,-1.733778,23.354168,47.292652,-0.690357,,,,,,
1467746736.46,2.435122,-0.155870,-0.024872,0.000597,-0.078116,0.001754,0.641283,0.155239,0.751436,-0.847231,-0.139477,-1.722445,23.354279,47.290943,-0.795494,,,,,,
1467746736.45,2.436113,-0.155885,-0.024853,-0.000572,-0.158815,0.003324,0.640537,0.155254,0.752070,-0.840961,-0.129314,-1.725947,23.354168,47.292652,-0.690357,,,,,,
1467746736.47,2.434799,-0.155881,-0.024894,0.001737,-0.019714,0.000325,0.641525,0.155250,0.751228,-0.849380,-0.133354,-1.723747,23.354279,47.290943,-0.795494,,,,,,
1467746736.48,2.434908,-0.155893,-0.024907,0.001786,0.019572,0.000079,0.641442,0.155263,0.751296,-0.838646,-0.141087,-1.733398,23.354279,47.290943,-0.795494,,,,,,
,,,,,,,,,,,,,,,,29.719968,-95.399050,9.682452,-1.000000,-1.000000,1467746765.23
,,,,,,,,,,,,,,,,29.719967,-95.399048,9.682452,-1.000000,-1.000000,1467746735.76
1467746736.49,2.435224,-0.155911,-0.024922,0.002870,0.033378,-0.001071,0.641203,0.155280,0.751496,-0.827070,-0.134681,-1.736207,23.009476,44.177341,3.434082,,,,,,
1467746736.50,2.435461,-0.155928,-0.024930,0.001783,0.017449,0.000092,0.641023,0.155297,0.751646,-0.816026,-0.139168,-1.743712,23.009476,44.177341,3.434082,,,,,,
,,,,,,,,,,,,,,,,29.719968,-95.399050,9.682452,-1.000000,-1.000000,1467746765.23
1467746736.51,2.435400,-0.155935,-0.024940,0.000682,-0.012281,0.000277,0.641068,0.155304,0.751607,-0.815613,-0.134064,-1.743169,23.009476,44.177341,3.434082,,,,,,
1467746736.52,2.435326,-0.155942,-0.024935,-0.000370,-0.003783,-0.000842,0.641123,0.155311,0.751558,-0.825022,-0.135078,-1.738054,23.007351,44.177593,3.445057,,,,,,
1467746736.53,2.435596,-0.155966,-0.024942,0.002803,0.038850,-0.001094,0.640918,0.155335,0.751728,-0.835315,-0.130920,-1.728855,23.007351,44.177593,3.445057,,,,,,
1467746736.54,2.436357,-0.156017,-0.024968,0.006060,0.090874,-0.000353,0.640340,0.155385,0.752210,-0.843206,-0.135640,-1.727003,23.007351,44.177593,3.445057,,,,,,
1467746736.55,2.437750,-0.156079,-0.024998,0.008275,0.155649,-0.002886,0.639286,0.155446,0.753094,-0.840885,-0.132283,-1.724697,23.002939,44.178585,3.461756,,,,,,
1467746736.56,2.439673,-0.156166,-0.025032,0.009397,0.201306,-0.003171,0.637827,0.155532,0.754312,-0.831049,-0.135543,-1.730890,23.002939,44.178585,3.461756,,,,,,
1467746736.57,2.441819,-0.156259,-0.025068,0.008355,0.219357,-0.003285,0.636198,0.155624,0.755668,-0.825208,-0.135864,-1.740760,23.002939,44.178585,3.461756,,,,,,
,,,,,,,,,,,,,,,,29.719968,-95.399050,9.682452,-1.000000,-1.000000,1467746765.38
1467746736.58,2.444207,-0.156343,-0.025116,0.009452,0.248019,-0.001335,0.634383,0.155707,0.757175,-0.822051,-0.137625,-1.739872,22.989170,44.180244,3.531389,,,,,,
1467746736.59,2.446932,-0.156451,-0.025152,0.011627,0.277761,-0.005777,0.632307,0.155813,0.758888,-0.810697,-0.136679,-1.741584,22.989170,44.180244,3.531389,,,,,,
1467746736.60,2.429386,-0.164194,-0.028409,0.009533,0.269136,-0.005739,0.644716,0.163457,0.746742,-0.815142,-0.146031,-1.735587,22.989170,44.180244,3.531389,,,,,,
1467746736.61,2.411540,-0.172165,-0.031864,0.009558,0.254133,-0.003531,0.657050,0.171315,0.734123,-0.821616,-0.150228,-1.724953,22.902214,44.268494,2.942018,,,,,,
1467746736.62,2.393331,-0.179998,-0.035531,0.011743,0.256128,-0.005685,0.669374,0.179028,0.721032,-0.823824,-0.157192,-1.710794,22.902214,44.268494,2.942018,,,,,,
1467746736.63,2.374547,-0.187278,-0.039393,0.009581,0.196526,-0.002134,0.681877,0.186185,0.707375,-0.831581,-0.166974,-1.712456,22.902214,44.268494,2.942018,,,,,,
1467746736.64,2.355058,-0.194208,-0.043423,0.005328,0.160297,-0.002990,0.694602,0.192989,0.693025,-0.840979,-0.177090,-1.695146,22.902214,44.268494,2.942018,,,,,,
1467746736.65,2.335754,-0.201705,-0.047570,0.006447,0.164410,-0.003030,0.706786,0.200340,0.678467,-0.856475,-0.180550,-1.669342,22.575821,44.532982,-0.111485,,,,,,
1467746736.66,2.316164,-0.208574,-0.051889,0.006467,0.140918,-0.002897,0.718913,0.207065,0.663543,-0.868144,-0.192843,-1.661208,22.575821,44.532982,-0.111485,,,,,,
1467746736.67,2.296634,-0.215797,-0.056289,0.003312,0.133355,-0.002867,0.730596,0.214126,0.648367,-0.885198,-0.197280,-1.644323,22.575821,44.532982,-0.111485,,,,,,
1467746736.68,2.276910,-0.222865,-0.060888,0.005493,0.133224,-0.003943,0.742071,0.221025,0.632834,-0.890737,-0.203645,-1.625754,22.336861,44.622692,-1.657307,,,,,,
1467746736.69,2.256830,-0.229769,-0.065663,0.003376,0.106541,-0.001664,0.753429,0.227753,0.616825,-0.898479,-0.209457,-1.617191,22.336861,44.622692,-1.657307,,,,,,
1467746736.70,2.236235,-0.236502,-0.070648,0.004459,0.080923,-0.001517,0.764748,0.234304,0.600218,-0.902672,-0.214742,-1.599806,22.336861,44.622692,-1.657307,,,,,,
,,,,,,,,,,,,,,,,29.719968,-95.399050,9.682452,-1.000000,-1.000000,1467746765.40
1467746736.71,2.215254,-0.243049,-0.075773,0.003396,0.041504,-0.001286,0.775930,0.240664,0.583107,-0.914327,-0.222048,-1.585686,21.673355,44.726849,-4.758264,,,,,,
1467746736.72,2.215413,-0.243074,-0.075797,0.002293,0.010712,-0.001094,0.775832,0.240688,0.583228,-0.913741,-0.220546,-1.584738,21.673355,44.726849,-4.758264,,,,,,
1467746736.73,2.194056,-0.249956,-0.081063,0.004474,0.011639,-0.001112,0.786747,0.247361,0.565546,-0.933765,-0.227876,-1.559839,21.673355,44.726849,-4.758264,,,,,,
1467746736.74,2.172943,-0.256868,-0.086441,0.003479,0.027433,-0.001227,0.797083,0.254052,0.547829,-0.949488,-0.234582,-1.538460,21.475624,44.732525,-5.537634,,,,,,
1467746736.75,2.151752,-0.263376,-0.092004,0.004595,0.029420,-0.000189,0.807113,0.260342,0.529897,-0.958175,-0.243176,-1.522314,21.475624,44.732525,-5.537634,,,,,,
1467746736.76,2.130422,-0.269494,-0.097715,0.002520,0.030353,-0.001277,0.816866,0.266244,0.511708,-0.967638,-0.251763,-1.507451,21.475624,44.732525,-5.537634,,,,,,
1467746736.77,2.109159,-0.275847,-0.103568,0.005771,0.035527,-0.001321,0.826092,0.272362,0.493347,-0.976940,-0.253624,-1.485932,20.474577,44.707081,-8.656524,,,,,,
1467746736.78,2.087742,-0.281765,-0.109584,0.003691,0.033271,-0.001324,0.835051,0.278052,0.474738,-0.983245,-0.261740,-1.468299,20.474577,44.707081,-8.656524,,,,,,
1467746736.79,2.065991,-0.287685,-0.115783,0.004778,0.011898,-0.000140,0.843716,0.283733,0.455674,-0.984677,-0.262585,-1.452790,20.474577,44.707081,-8.656524,,,,,,
,,,,,,,,,,,,,,,,29.719970,-95.399155,9.664897,-1.000000,-1.000000,1467746765.62
1467746736.80,2.043299,-0.292615,-0.122210,0.001561,-0.047699,0.001279,0.852582,0.288457,0.435771,-0.979810,-0.272618,-1.442530,19.893944,44.650013,-10.172218,,,,,,
1467746736.81,2.019895,-0.297456,-0.128756,-0.000588,-0.106231,0.001629,0.861279,0.293089,0.415088,-0.984539,-0.274794,-1.424929,19.893944,44.650013,-10.172218,,,,,,
1467746736.82,1.996021,-0.302235,-0.135373,-0.002735,-0.160520,0.003016,0.869656,0.297655,0.393827,-0.998395,-0.280001,-1.400144,19.893944,44.650013,-10.172218,,,,,,
1467746736.84,1.946400,-0.311084,-0.148899,-0.005972,-0.279708,0.003730,0.885635,0.306091,0.349227,-1.012206,-0.288787,-1.356643,18.595270,44.419472,-13.190645,,,,,,
1467746736.83,1.971519,-0.306804,-0.142096,-0.001689,-0.220112,0.002311,0.877782,0.302014,0.371869,-1.005239,-0.284313,-1.378781,18.595270,44.419472,-13.190645,,,,,,
1467746736.85,1.920899,-0.315233,-0.155723,-0.008113,-0.328686,0.005085,0.893051,0.310038,0.326092,-1.025879,-0.293330,-1.332684,18.595270,44.419472,-13.190645,,,,,,
1467746736.86,1.895210,-0.319445,-0.162553,-0.010240,-0.368104,0.005315,0.899886,0.314040,0.302628,-1.043044,-0.296660,-1.304291,17.821655,44.262585,-14.699616,,,,,,
1467746736.87,1.869539,-0.323908,-0.169443,-0.010179,-0.360801,0.004190,0.906009,0.318274,0.279014,-1.064975,-0.300269,-1.270866,17.821655,44.262585,-14.699616,,,,,,
1467746736.88,1.844395,-0.328647,-0.176389,-0.007943,-0.315276,0.003892,0.911276,0.322763,0.255737,-1.088415,-0.304360,-1.236923,17.821655,44.262585,-14.699616,,,,,,
1467746736.89,1.820038,-0.333532,-0.183384,-0.007808,-0.244270,0.004497,0.915694,0.327382,0.233076,-1.106765,-0.307714,-1.208998,15.944746,43.912540,-17.615913,,,,,,
1467746736.90,1.796843,-0.338833,-0.190460,-0.002306,-0.141405,0.002779,0.919150,0.332387,0.211383,-1.127539,-0.309270,-1.176700,15.944746,43.912540,-17.615913,,,,,,
1467746736.91,1.796182,-0.338826,-0.190461,-0.000054,-0.046900,0.000059,0.919291,0.332380,0.210777,-1.124782,-0.310743,-1.172782,15.944746,43.912540,-17.615913,,,,,,
1467746736.92,1.795954,-0.338836,-0.190504,0.005307,-0.017172,-0.000122,0.919336,0.332390,0.210566,-1.112772,-0.311241,-1.187250,14.870894,43.732346,-18.952702,,,,,,
1467746736.93,1.795656,-0.338839,-0.190515,-0.000042,-0.037344,-0.000000,0.919398,0.332392,0.210292,-1.088648,-0.312815,-1.201991,14.870894,43.732346,-18.952702,,,,,,
1467746736.94,1.794718,-0.338831,-0.190521,-0.002269,-0.113795,0.001541,0.919597,0.332385,0.209430,-1.068630,-0.317096,-1.212176,14.870894,43.732346,-18.952702,,,,,,
1467746736.95,1.792816,-0.338798,-0.190486,-0.005595,-0.218912,0.002197,0.920005,0.332353,0.207683,-1.057136,-0.317278,-1.220622,14.831603,43.731068,-18.986412,,,,,,
1467746736.96,1.789813,-0.338746,-0.190425,-0.008933,-0.330406,0.005022,0.920641,0.332304,0.204923,-1.052081,-0.315657,-1.223462,14.831603,43.731068,-18.986412,,,,,,
1467746736.97,1.785690,-0.338668,-0.190299,-0.014405,-0.448263,0.005756,0.921504,0.332231,0.201131,-1.046031,-0.316576,-1.217610,14.831603,43.731068,-18.986412,,,,,,
1467746736.98,1.779287,-0.338517,-0.190145,-0.020077,-0.717973,0.012764,0.922822,0.332088,0.195237,-1.020753,-0.311275,-1.233109,14.740476,43.732170,-19.054714,,,,,,
1467746736.99,1.770589,-0.338331,-0.189886,-0.029907,-0.915463,0.013993,0.924546,0.331913,0.187215,-1.031815,-0.316120,-1.234670,14.740476,43.732170,-19.054714,,,,,,
1467746737.00,1.760438,-0.338120,-0.189617,-0.030093,-1.061995,0.015976,0.926467,0.331714,0.177834,-1.047789,-0.312687,-1.196297,14.740476,43.732170,-19.054714,,,,,,
1467746737.01,1.748855,-0.337878,-0.189264,-0.037723,-1.201090,0.017905,0.928543,0.331486,0.167105,-1.074601,-0.315800,-1.181235,14.189831,43.742363,-19.445332,,,,,,
1467746737.02,1.736575,-0.337618,-0.188899,-0.037784,-1.246754,0.020320,0.930610,0.331241,0.155704,-1.116310,-0.307910,-1.150730,14.189831,43.742363,-19.445332,,,,,,
1467746737.03,1.724363,-0.337371,-0.188553,-0.034561,-1.228696,0.017017,0.932523,0.331008,0.144341,-1.153516,-0.309127,-1.118096,14.189831,43.742363,-19.445332,,,,,,
1467746737.04,1.711585,-0.337144,-0.188184,-0.037872,-1.320012,0.018651,0.934366,0.330793,0.132424,-1.137750,-0.312574,-1.107965,13.733891,43.751926,-19.748819,,,,,,
1467746737.05,1.697982,-0.336887,-0.187758,-0.045406,-1.381599,0.021158,0.936165,0.330551,0.119713,-1.164543,-0.311691,-1.110588,13.733891,43.751926,-19.748819,,,,,,
1467746737.06,1.684251,-0.336625,-0.187329,-0.043288,-1.390094,0.021214,0.937807,0.330303,0.106858,-1.186037,-0.307552,-1.071702,13.247791,43.761715,-20.056787,,,,,,
1467746737.07,1.669733,-0.336350,-0.186875,-0.047687,-1.500522,0.022966,0.939349,0.330044,0.093240,-1.182025,-0.310223,-1.064386,13.247791,43.761715,-20.056787,,,,,,
1467746737.08,1.653824,-0.336075,-0.186370,-0.051049,-1.636429,0.022751,0.940804,0.329784,0.078293,-1.184457,-0.307796,-1.059250,13.247791,43.761715,-20.056787,,,,,,
1467746737.09,1.637700,-0.335788,-0.185840,-0.051023,-1.612013,0.024727,0.942039,0.329513,0.063120,-1.233436,-0.307953,-1.018107,12.095823,43.787796,-20.716816,,,,,,
1467746737.10,1.622584,-0.335535,-0.185361,-0.044499,-1.506892,0.021945,0.942968,0.329274,0.048878,-1.277350,-0.303242,-0.966435,12.095823,43.787796,-20.716816,,,,,,
1467746737.11,1.607627,-0.335289,-0.184866,-0.047715,-1.522820,0.023106,0.943675,0.329042,0.034772,-1.278590,-0.304078,-0.959363,12.095823,43.787796,-20.716816,,,,,,
1467746737.12,1.592689,-0.335045,-0.184380,-0.045544,-1.489905,0.022902,0.944169,0.328811,0.020674,-1.309556,-0.300415,-0.948088,11.457295,43.802834,-21.045397,,,,,,
1467746737.14,1.564592,-0.334615,-0.183483,-0.043387,-1.467608,0.022764,0.944519,0.328406,-0.005860,-1.307647,-0.309088,-0.914260,11.457295,43.802834,-21.045397,,,,,,
1467746737.13,1.578802,-0.334831,-0.183941,-0.041148,-1.382662,0.021169,0.944436,0.328609,0.007561,-1.324959,-0.297756,-0.907677,11.457295,43.802834,-21.045397,,,,,,
1467746737.15,1.549182,-0.334384,-0.182945,-0.053111,-1.579096,0.024518,0.944392,0.328187,-0.020416,-1.300074,-0.297074,-0.918717,11.457295,43.802834,-21.045397,,,,,,
1467746737.16,1.533397,-0.334146,-0.182431,-0.045683,-1.597153,0.025703,0.944030,0.327963,-0.035323,-1.323623,-0.305868,-0.887727,10.245647,43.831570,-21.602940,,,,,,
1467746737.17,1.517088,-0.333927,-0.181846,-0.058558,-1.677841,0.025132,0.943400,0.327756,-0.050717,-1.324183,-0.299527,-0.856586,10.245647,43.831570,-21.602940,,,,,,
1467746737.18,1.499983,-0.333705,-0.181277,-0.051208,-1.759603,0.025652,0.942467,0.327546,-0.066851,-1.328621,-0.301316,-0.853178,9.581479,43.848068,-21.872564,,,,,,
1467746737.19,1.481354,-0.333468,-0.180627,-0.058874,-1.924188,0.029870,0.941136,0.327322,-0.084403,-1.352314,-0.301306,-0.828424,9.581479,43.848068,-21.872564,,,,,,
1467746737.20,1.461302,-0.333201,-0.179925,-0.063286,-2.039934,0.034849,0.939341,0.327069,-0.103265,-1.369303,-0.289136,-0.762015,9.581479,43.848068,-21.872564,,,,,,
1467746737.21,1.440947,-0.332973,-0.179210,-0.066516,-2.074960,0.030808,0.937119,0.326854,-0.122373,-1.371002,-0.298732,-0.753039,8.015209,43.889023,-22.413761,,,,,,
1467746737.22,1.419220,-0.332731,-0.178433,-0.072066,-2.249104,0.036152,0.934317,0.326626,-0.142715,-1.397726,-0.295040,-0.736756,8.015209,43.889023,-22.413761,,,,,,
1467746737.23,1.396071,-0.332511,-0.177558,-0.078582,-2.352093,0.035727,0.930834,0.326418,-0.164316,-1.442064,-0.292116,-0.658087,8.015209,43.889023,-22.413761,,,,,,
1467746737.24,1.373152,-0.332293,-0.176754,-0.071078,-2.311748,0.035482,0.926894,0.326211,-0.185618,-1.430358,-0.295129,-0.632329,8.015209,43.889023,-22.413761,,,,,,
1467746737.25,1.349389,-0.332098,-0.175889,-0.077638,-2.448718,0.036334,0.922283,0.326027,-0.207604,-1.425961,-0.293938,-0.624000,6.052029,43.943520,-22.917385,,,,,,
1467746737.26,1.323851,-0.331898,-0.174957,-0.082131,-2.630292,0.040662,0.916745,0.325838,-0.231102,-1.393628,-0.292803,-0.596824,6.052029,43.943520,-22.917385,,,,,,
1467746737.27,1.295832,-0.331713,-0.173886,-0.096330,-2.913790,0.043490,0.909969,0.325663,-0.256712,-1.401256,-0.293238,-0.565112,4.936777,43.975502,-23.122496,,,,,,
1467746737.28,1.264946,-0.331534,-0.172746,-0.097750,-3.191990,0.048427,0.901663,0.325494,-0.284707,-1.397711,-0.292947,-0.509925,4.936777,43.975502,-23.122496,,,,,,
1467746737.29,1.231155,-0.331384,-0.171488,-0.118336,-3.468065,0.055460,0.891575,0.325352,-0.315023,-1.369282,-0.290516,-0.460032,4.936777,43.975502,-23.122496,,,,,,
1467746737.30,1.193577,-0.331229,-0.170213,-0.116775,-3.920398,0.059363,0.879158,0.325205,-0.348315,-1.322609,-0.290339,-0.446775,3.593163,44.015968,-23.292706,,,,,,
1467746737.31,1.150302,-0.331184,-0.168485,-0.153723,-4.502271,0.071491,0.863279,0.325163,-0.386028,-1.389830,-0.289992,-0.328297,3.593163,44.015968,-23.292706,,,,,,
1467746737.32,1.103927,-0.331159,-0.166789,-0.144448,-4.752852,0.069878,0.844462,0.325140,-0.425638,-1.431651,-0.279791,-0.197592,3.593163,44.015968,-23.292706,,,,,,
1467746737.33,1.055964,-0.331286,-0.164909,-0.161634,-4.867527,0.073773,0.823049,0.325259,-0.465615,-1.557363,-0.280551,-0.051765,-0.106705,44.130444,-23.352928,,,,,,
1467746737.34,1.008705,-0.331429,-0.163155,-0.148701,-4.746481,0.070898,0.800094,0.325395,-0.503952,-1.566924,-0.274461,0.048127,-0.106705,44.130444,-23.352928,,,,,,
1467746737.35,0.962784,-0.331673,-0.161400,-0.150686,-4.629685,0.071228,0.776052,0.325625,-0.540104,-1.541066,-0.278842,0.099171,-0.106705,44.130444,-23.352928,,,,,,
1467746737.36,0.916009,-0.331918,-0.159710,-0.144494,-4.779414,0.076431,0.749885,0.325856,-0.575751,-1.536796,-0.280889,0.130149,-2.283148,44.204842,-23.099476,,,,,,
1467746737.37,0.868466,-0.332344,-0.157885,-0.157295,-4.803821,0.073378,0.721569,0.326259,-0.610650,-1.550701,-0.271679,0.264718,-2.283148,44.204842,-23.099476,,,,,,
1467746737.38,0.821729,-0.332779,-0.156213,-0.146520,-4.704014,0.071698,0.692147,0.326670,-0.643598,-1.527841,-0.268657,0.333341,-2.283148,44.204842,-23.099476,,,,,,
1467746737.39,0.775031,-0.333320,-0.154504,-0.156165,-4.751793,0.073053,0.661225,0.327182,-0.675080,-1.498551,-0.277652,0.360078,-6.433271,44.354145,-22.004299,,,,,,
1467746737.40,0.727063,-0.333918,-0.152800,-0.154195,-4.877090,0.074905,0.627965,0.327747,-0.705862,-1.506963,-0.259678,0.472525,-6.433271,44.354145,-22.004299,,,,,,
1467746737.41,0.679497,-0.334651,-0.151086,-0.162564,-4.753925,0.077318,0.593542,0.328440,-0.734735,-1.570989,-0.280313,0.595438,-6.433271,44.354145,-22.004299,,,,,,
1467746737.42,0.635006,-0.335304,-0.149603,-0.129129,-4.420521,0.069938,0.560148,0.329056,-0.760234,-1.502104,-0.248230,0.692470,-8.434765,44.431705,-21.155251,,,,,,
1467746737.43,0.591643,-0.336075,-0.148133,-0.148263,-4.393969,0.070817,0.526524,0.329784,-0.783591,-1.479863,-0.283626,0.649771,-8.434765,44.431705,-21.155251,,,,,,
1467746737.44,0.548050,-0.336847,-0.146750,-0.132295,-4.403522,0.066635,0.491743,0.330513,-0.805574,-1.408095,-0.253060,0.765138,-8.434765,44.431705,-21.155251,,,,,,
1467746737.45,0.504404,-0.337743,-0.145356,-0.148277,-4.406708,0.069832,0.455982,0.331358,-0.826003,-1.388523,-0.289885,0.772521,-11.955947,44.576992,-19.047672,,,,,,
1467746737.46,0.460727,-0.338645,-0.144025,-0.134471,-4.440684,0.066866,0.419349,0.332209,-0.844857,-1.297721,-0.249857,0.865899,-11.955947,44.576992,-19.047672,,,,,,
1467746737.47,0.415290,-0.339685,-0.142640,-0.154940,-4.615897,0.077524,0.380402,0.333190,-0.862716,-1.300507,-0.293029,0.875564,-11.955947,44.576992,-19.047672,,,,,,
1467746737.48,0.369418,-0.340722,-0.141324,-0.139014,-4.661545,0.071440,0.340316,0.334167,-0.878929,-1.192535,-0.243439,0.988427,-13.520623,44.646545,-17.797337,,,,,,
1467746737.49,0.321757,-0.341914,-0.139992,-0.160546,-4.835696,0.082090,0.297929,0.335291,-0.893766,-1.187974,-0.298014,1.013304,-13.520623,44.646545,-17.797337,,,,,,
1467746737.50,0.273265,-0.343195,-0.138707,-0.153200,-4.931245,0.076310,0.254139,0.336497,-0.906743,-1.095356,-0.245891,1.107503,-13.520623,44.646545,-17.797337,,,,,,
1467746737.51,0.223017,-0.344605,-0.137453,-0.171517,-5.095829,0.082646,0.208170,0.337825,-0.917900,-1.069086,-0.296046,1.149406,-16.466011,44.791031,-14.679932,,,,,,
1467746737.52,0.171674,-0.346108,-0.136284,-0.165249,-5.201996,0.076932,0.160702,0.339239,-0.926872,-1.040462,-0.244634,1.257744,-16.466011,44.791031,-14.679932,,,,,,
1467746737.53,0.120500,-0.347642,-0.135187,-0.170467,-5.109631,0.081670,0.113017,0.340682,-0.933361,-1.068843,-0.289947,1.341274,-16.466011,44.791031,-14.679932,,,,,,
1467746737.54,0.072111,-0.349216,-0.134207,-0.162770,-4.791691,0.069083,0.067700,0.342161,-0.937199,-1.013989,-0.251402,1.427968,-16.466011,44.791031,-14.679932,,,,,,
1467746737.55,0.026182,-0.350630,-0.133369,-0.144398,-4.561312,0.076172,0.024586,0.343489,-0.938835,-1.015370,-0.292189,1.455543,-18.913839,44.931980,-10.781940,,,,,,
1467746737.56,-0.016878,-0.352088,-0.132588,-0.141873,-4.256558,0.067876,-0.015842,0.344859,-0.938521,-0.950116,-0.249537,1.511275,-18.913839,44.931980,-10.781940,,,,,,
1467746737.57,-0.056585,-0.353373,-0.131943,-0.124394,-3.899807,0.067785,-0.053060,0.346064,-0.936709,-0.914393,-0.295710,1.529040,-19.731655,44.988583,-8.919404,,,,,,
1467746737.58,-0.093234,-0.354635,-0.131396,-0.118719,-3.634333,0.056546,-0.087306,0.347248,-0.933701,-0.792882,-0.258472,1.522980,-19.731655,44.988583,-8.919404,,,,,,
1467746737.59,-0.129290,-0.355839,-0.130899,-0.116599,-3.633287,0.061864,-0.120853,0.348377,-0.929531,-0.724300,-0.294986,1.488049,-19.731655,44.988583,-8.919404,,,,,,
1467746737.60,-0.165276,-0.357112,-0.130446,-0.118676,-3.597176,0.058442,-0.154144,0.349570,-0.924143,-0.608337,-0.265311,1.531290,-20.296810,45.033840,-7.270427,,,,,,
1467746737.61,-0.201909,-0.358354,-0.130041,-0.118850,-3.728851,0.063525,-0.187801,0.350733,-0.917452,-0.503529,-0.295725,1.492357,-20.296810,45.033840,-7.270427,,,,,,
1467746737.62,-0.241737,-0.359751,-0.129675,-0.129948,-4.095156,0.061554,-0.224065,0.352041,-0.908770,-0.390574,-0.270605,1.488008,-20.296810,45.033840,-7.270427,,,,,,
1467746737.63,-0.284966,-0.361282,-0.129348,-0.143104,-4.378683,0.075028,-0.262976,0.353474,-0.897719,-0.405114,-0.308155,1.554793,-21.025818,45.111362,-3.968170,,,,,,
1467746737.64,-0.328420,-0.362832,-0.129104,-0.136649,-4.342555,0.064163,-0.301548,0.354924,-0.884928,-0.346523,-0.267720,1.635401,-21.025818,45.111362,-3.968170,,,,,,
1467746737.65,-0.371932,-0.364445,-0.129056,-0.141937,-4.306468,0.069253,-0.339548,0.356431,-0.870439,-0.391257,-0.300889,1.663805,-21.025818,45.111362,-3.968170,,,,,,
1467746737.66,-0.412522,-0.365953,-0.129001,-0.131886,-3.944377,0.059541,-0.374373,0.357839,-0.855451,-0.385179,-0.273626,1.751828,-21.223164,45.148914,-2.004812,,,,,,
1467746737.67,-0.448301,-0.367251,-0.128977,-0.115309,-3.463386,0.055477,-0.404533,0.359051,-0.841092,-0.370156,-0.295956,1.756909,-21.223164,45.148914,-2.004812,,,,,,
1467746737.68,-0.479872,-0.368436,-0.128976,-0.100963,-3.064150,0.050858,-0.430684,0.360156,-0.827525,-0.283122,-0.281848,1.738628,-21.223164,45.148914,-2.004812,,,,,,
1467746737.69,-0.509456,-0.369545,-0.129124,-0.089036,-2.893208,0.049797,-0.454778,0.361191,-0.814075,-0.155894,-0.299088,1.683368,-21.160990,45.199516,1.443178,,,,,,
1467746737.70,-0.539916,-0.370901,-0.129585,-0.095497,-2.957972,0.047003,-0.479108,0.362455,-0.799426,-0.042437,-0.290632,1.623416,-21.160990,45.199516,1.443178,,,,,,
1467746737.71,-0.571221,-0.372149,-0.129865,-0.098889,-3.107702,0.053260,-0.503651,0.363618,-0.783657,0.040379,-0.306917,1.618740,-21.160990,45.199516,1.443178,,,,,,
1467746737.72,-0.604033,-0.373411,-0.130140,-0.105511,-3.297758,0.052316,-0.528827,0.364794,-0.766334,0.124835,-0.296053,1.596900,-21.001564,45.209278,2.814533,,,,,,
1467746737.73,-0.639465,-0.374790,-0.130526,-0.112205,-3.530313,0.061218,-0.555341,0.366077,-0.746715,0.152830,-0.314411,1.613521,-21.001564,45.209278,2.814533,,,,,,
1467746737.74,-0.685059,-0.378802,-0.134371,-0.112242,-3.572836,0.059344,-0.587864,0.369808,-0.719485,0.190723,-0.300899,1.632403,-21.001564,45.209278,2.814533,,,,,,
1467746737.75,-0.723027,-0.380643,-0.135432,-0.113343,-3.603640,0.059534,-0.614300,0.371517,-0.696140,0.273571,-0.313763,1.621951,-20.314116,45.187141,6.190767,,,,,,
1467746737.76,-0.762055,-0.382361,-0.136387,-0.121006,-3.770351,0.061634,-0.640552,0.373112,-0.671178,0.335300,-0.315541,1.604634,-20.314116,45.187141,6.190767,,,,,,
1467746737.77,-0.802252,-0.384018,-0.137304,-0.127595,-3.931748,0.062639,-0.666562,0.374649,-0.644464,0.398602,-0.313934,1.582620,-20.314116,45.187141,6.190767,,,,,,
1467746737.78,-0.845731,-0.386479,-0.139122,-0.136207,-4.002915,0.067330,-0.693251,0.376930,-0.614269,0.501372,-0.323814,1.587155,-19.733753,45.178703,7.894915,,,,,,
1467746737.79,-0.888972,-0.388031,-0.139958,-0.138802,-4.374548,0.069658,-0.718702,0.378367,-0.583358,0.593397,-0.318537,1.517669,-19.733753,45.178703,7.894915,,,,,,
1467746737.80,-0.936252,-0.389935,-0.141151,-0.156173,-4.633640,0.076586,-0.744888,0.380129,-0.548311,0.674621,-0.335817,1.522264,-19.733753,45.178703,7.894915,,,,,,
1467746737.81,-0.986036,-0.391936,-0.142415,-0.159763,-4.950062,0.078566,-0.770615,0.381978,-0.510142,0.854660,-0.333608,1.482951,-17.929829,45.150017,11.526647,,,,,,
1467746737.83,-1.104333,-0.396110,-0.145473,-0.210335,-6.194524,0.103350,-0.824006,0.385833,-0.414907,1.024933,-0.344924,1.423452,-17.929829,45.150017,11.526647,,,,,,
1467746737.82,-1.041976,-0.393837,-0.143713,-0.191622,-5.712458,0.096088,-0.797304,0.383735,-0.465891,0.943483,-0.347587,1.394098,-17.929829,45.150017,11.526647,,,,,,
1467746737.84,-1.169465,-0.397935,-0.147062,-0.210770,-6.536433,0.108687,-0.848614,0.387515,-0.360121,1.084225,-0.352252,1.449095,-16.528320,45.132133,13.519302,,,,,,
1467746737.85,-1.238255,-0.399760,-0.148960,-0.232502,-6.883634,0.111907,-0.870690,0.389197,-0.300707,1.147469,-0.348319,1.383639,-16.528320,45.132133,13.519302,,,,,,
1467746737.86,-1.310331,-0.401554,-0.151063,-0.241424,-7.201118,0.117083,-0.889408,0.390849,-0.237045,1.251667,-0.351054,1.365142,-16.528320,45.132133,13.519302,,,,,,
1467746737.87,-1.385263,-0.403277,-0.153372,-0.247087,-7.469753,0.119826,-0.903995,0.392434,-0.169672,1.309909,-0.348809,1.304712,-12.144703,45.051929,17.767838,,,,,,
1467746737.88,-1.461776,-0.404832,-0.155856,-0.250391,-7.558940,0.119318,-0.913712,0.393864,-0.100010,1.334229,-0.355961,1.289326,-12.144703,45.051929,17.767838,,,,,,
1467746737.89,-1.537569,-0.406231,-0.158461,-0.244911,-7.432591,0.119596,-0.918110,0.395150,-0.030518,1.326770,-0.352792,1.240067,-12.144703,45.051929,17.767838,,,,,,
1467746737.90,-1.610757,-0.407384,-0.161076,-0.234929,-7.121476,0.113396,-0.917427,0.396209,0.036680,1.306191,-0.362609,1.190966,-9.236713,44.985313,19.592623,,,,,,
1467746737.91,-1.679457,-0.408326,-0.163616,-0.219439,-6.652173,0.112598,-0.912374,0.397074,0.099531,1.308141,-0.360697,1.105685,-9.236713,44.985313,19.592623,,,,,,
1467746737.92,-1.743441,-0.409045,-0.166043,-0.207133,-6.194516,0.100159,-0.903861,0.397733,0.157616,1.338386,-0.367048,0.995155,-9.236713,44.985313,19.592623,,,,,,
1467746737.93,-1.802441,-0.409570,-0.168353,-0.193671,-5.658295,0.090423,-0.892791,0.398215,0.210591,1.291152,-0.360679,0.902233,-3.255289,44.821365,21.755802,,,,,,
1467746737.94,-1.853931,-0.409964,-0.170347,-0.157515,-4.851330,0.081141,-0.880619,0.398576,0.256217,1.262440,-0.367723,0.857827,-3.255289,44.821365,21.755802,,,,,,
1467746737.95,-1.897461,-0.410190,-0.172035,-0.136328,-4.100626,0.069002,-0.868550,0.398784,0.294266,1.232365,-0.357249,0.755035,-3.255289,44.821365,21.755802,,,,,,
1467746737.96,-1.932510,-0.410346,-0.173401,-0.104332,-3.221446,0.055005,-0.857647,0.398927,0.324499,1.207851,-0.364122,0.698847,-0.785419,44.745007,22.138973,,,,,,
1467746737.97,-1.958234,-0.410418,-0.174382,-0.074408,-2.306148,0.035456,-0.848990,0.398992,0.346441,1.221670,-0.361334,0.636026,-0.785419,44.745007,22.138973,,,,,,
1467746737.98,-1.975646,-0.410464,-0.175009,-0.046802,-1.532084,0.022114,-0.842812,0.399035,0.361163,1.236947,-0.366030,0.558545,-0.785419,44.745007,22.138973,,,,,,
1467746737.99,-1.985269,-0.410468,-0.175388,-0.023429,-0.735723,0.009691,-0.839296,0.399038,0.369256,1.210710,-0.362921,0.531027,1.963001,44.658150,22.241016,,,,,,
1467746738.00,-1.985523,-0.410484,-0.175360,0.012910,0.211407,-0.003664,-0.839197,0.399054,0.369466,1.200967,-0.365332,0.559992,1.963001,44.658150,22.241016,,,,,,
1467746738.01,-1.976463,-0.410476,-0.174990,0.038537,1.107577,-0.016710,-0.842512,0.399046,0.361850,1.216322,-0.364332,0.552884,1.963001,44.658150,22.241016,,,,,,
1467746738.02,-1.959358,-0.410469,-0.174270,0.066114,1.861461,-0.027797,-0.848581,0.399040,0.347387,1.267190,-0.366783,0.554483,2.186089,44.651474,22.233616,,,,,,
1467746738.03,-1.935710,-0.410401,-0.173296,0.086060,2.468828,-0.041166,-0.856583,0.398977,0.327234,1.314637,-0.369802,0.559744,2.186089,44.651474,22.233616,,,,,,
1467746738.04,-1.905993,-0.410304,-0.172084,0.106012,3.087864,-0.050351,-0.865964,0.398888,0.301651,1.300504,-0.366387,0.610488,2.186089,44.651474,22.233616,,,,,,
1467746738.05,-1.869316,-0.410125,-0.170582,0.132444,3.774861,-0.063149,-0.876512,0.398724,0.269715,1.316499,-0.368969,0.695601,0.390171,44.713799,22.212391,,,,,,
1467746738.06,-1.826337,-0.409855,-0.168857,0.149172,4.371598,-0.071132,-0.887395,0.398476,0.231834,1.330891,-0.364007,0.753350,0.390171,44.713799,22.212391,,,,,,
1467746738.07,-1.778886,-0.409465,-0.166968,0.162430,4.748543,-0.077741,-0.897545,0.398119,0.189513,1.377556,-0.365694,0.792115,0.390171,44.713799,22.212391,,,,,,
1467746738.08,-1.727346,-0.408977,-0.164929,0.178954,5.182824,-0.084706,-0.906308,0.397671,0.143053,1.371594,-0.364376,0.890318,-1.403002,44.772957,22.051764,,,,,,
1467746738.09,-1.672338,-0.408331,-0.162792,0.188916,5.478012,-0.090805,-0.913058,0.397078,0.093033,1.412096,-0.365507,0.950821,-1.403002,44.772957,22.051764,,,,,,
1467746738.10,-1.616260,-0.407562,-0.160660,0.187902,5.520482,-0.090008,-0.917141,0.396372,0.041726,1.414959,-0.364832,0.981575,-1.403002,44.772957,22.051764,,,,,,
1467746738.11,-1.559477,-0.406684,-0.158579,0.191239,5.628792,-0.093877,-0.918379,0.395566,-0.010396,1.392637,-0.366116,1.067601,-6.020010,44.913662,20.961611,,,,,,
1467746738.12,-1.501865,-0.405680,-0.156480,0.197687,5.679750,-0.092062,-0.916652,0.394643,-0.063286,1.376827,-0.359640,1.134010,-6.020010,44.913662,20.961611,,,,,,
1467746738.13,-1.445430,-0.404586,-0.154518,0.187886,5.508799,-0.088870,-0.912051,0.393638,-0.114943,1.380923,-0.362938,1.149611,-6.020010,44.913662,20.961611,,,,,,
1467746738.14,-1.391766,-0.403471,-0.152739,0.175802,5.221041,-0.081756,-0.905004,0.392613,-0.163777,1.363073,-0.357182,1.177464,-8.412677,44.979527,19.973368,,,,,,
1467746738.15,-1.341829,-0.402334,-0.151141,0.164642,4.810133,-0.080254,-0.896135,0.391567,-0.208848,1.361269,-0.360576,1.188173,-8.412677,44.979527,19.973368,,,,,,
1467746738.16,-1.296915,-0.401252,-0.149757,0.145896,4.305768,-0.070723,-0.886262,0.390571,-0.248988,1.326478,-0.355720,1.192347,-8.412677,44.979527,19.973368,,,,,,
1467746738.17,-1.258164,-0.400243,-0.148554,0.131246,3.667620,-0.062477,-0.876325,0.389642,-0.283257,1.285977,-0.353006,1.180947,-12.371490,45.074127,17.553791,,,,,,
1467746738.19,-1.198983,-0.398650,-0.146842,0.084925,2.412554,-0.040815,-0.858614,0.388174,-0.334817,1.227236,-0.350790,1.191842,-12.371490,45.074127,17.553791,,,,,,
1467746738.18,-1.225229,-0.399382,-0.147599,0.107112,3.113350,-0.051574,-0.866837,0.388849,-0.312073,1.247300,-0.363153,1.208298,-12.371490,45.074127,17.553791,,,,,,
1467746738.20,-1.180243,-0.398126,-0.146310,0.058422,1.670340,-0.026606,-0.852377,0.387691,-0.350925,1.188437,-0.357570,1.174564,-13.632017,45.100819,16.521219,,,,,,
1467746738.21,-1.168149,-0.397780,-0.145975,0.038469,1.049184,-0.018473,-0.848194,0.387373,-0.361261,1.139286,-0.352018,1.200632,-13.632017,45.100819,16.521219,,,,,,
1467746738.22,-1.161795,-0.397593,-0.145777,0.019640,0.480046,-0.007471,-0.845948,0.387200,-0.366672,1.113953,-0.353829,1.216815,-13.632017,45.100819,16.521219,,,,,,
1467746738.23,-1.161893,-0.397580,-0.145748,-0.001429,-0.179340,0.003030,-0.845989,0.387188,-0.366590,1.108074,-0.347454,1.197004,-14.684824,45.121624,15.532589,,,,,,
1467746738.24,-1.168352,-0.397741,-0.145891,-0.023495,-0.785633,0.012133,-0.848281,0.387337,-0.361094,1.095275,-0.352028,1.199351,-14.684824,45.121624,15.532589,,,,,,
1467746738.25,-1.180355,-0.398043,-0.146187,-0.040141,-1.318659,0.018653,-0.852446,0.387615,-0.350842,1.087416,-0.347729,1.203702,-14.684824,45.121624,15.532589,,,,,,
1467746738.26,-1.197279,-0.398490,-0.146616,-0.058848,-1.791172,0.029049,-0.858100,0.388027,-0.336302,1.089652,-0.351726,1.217009,-14.579052,45.120594,15.634876,,,,,,
1467746738.27,-1.219122,-0.399063,-0.147198,-0.074390,-2.291286,0.036427,-0.865032,0.388555,-0.317404,1.123424,-0.354620,1.196707,-14.579052,45.120594,15.634876,,,,,,
1467746738.28,-1.246394,-0.399755,-0.147937,-0.093174,-2.827501,0.045094,-0.873110,0.389193,-0.293612,1.158633,-0.352739,1.178881,-14.579052,45.120594,15.634876,,,,,,
1467746738.29,-1.278474,-0.400551,-0.148844,-0.106532,-3.284081,0.052202,-0.881782,0.389925,-0.265366,1.183692,-0.351839,1.167329,-13.270075,45.097233,16.822931,,,,,,
1467746738.30,-1.314354,-0.401427,-0.149921,-0.120798,-3.614310,0.059581,-0.890402,0.390733,-0.233477,1.185904,-0.353761,1.176547,-13.270075,45.097233,16.822931,,,,,,
1467746738.31,-1.353428,-0.402339,-0.151095,-0.128690,-3.959401,0.064931,-0.898495,0.391572,-0.198440,1.247494,-0.352586,1.154647,-12.058685,45.072338,17.774670,,,,,,
1467746738.32,-1.396066,-0.403283,-0.152433,-0.142923,-4.266263,0.070034,-0.905772,0.392440,-0.159896,1.242168,-0.358840,1.125198,-12.058685,45.072338,17.774670,,,,,,
1467746738.33,-1.440264,-0.404171,-0.153847,-0.142020,-4.398983,0.068739,-0.911607,0.393257,-0.119674,1.278672,-0.354530,1.115005,-12.058685,45.072338,17.774670,,,,,,
1467746738.34,-1.485404,-0.405041,-0.155329,-0.145304,-4.463763,0.073400,-0.915737,0.394056,-0.078388,1.271588,-0.362165,1.103000,-10.521886,45.038628,18.806343,,,,,,
1467746738.35,-1.530387,-0.405853,-0.156869,-0.146306,-4.419158,0.069925,-0.918016,0.394803,-0.037117,1.270555,-0.356686,1.059852,-10.521886,45.038628,18.806343,,,,,,
1467746738.36,-1.574028,-0.406571,-0.158411,-0.140776,-4.255641,0.067841,-0.918477,0.395463,0.002969,1.275167,-0.359879,1.050315,-10.521886,45.038628,18.806343,,,,,,
1467746738.38,-1.652895,-0.407697,-0.161260,-0.120841,-3.650408,0.058743,-0.914944,0.396496,0.075285,1.271344,-0.360577,0.972124,-6.926022,44.949348,20.602251,,,,,,
1467746738.37,-1.615055,-0.407189,-0.159876,-0.129754,-3.962580,0.062821,-0.917338,0.396030,0.040626,1.252864,-0.357395,1.008553,-6.926022,44.949348,20.602251,,,,,,
1467746738.39,-1.687052,-0.408147,-0.162541,-0.107576,-3.262854,0.055261,-0.911662,0.396909,0.106466,1.257213,-0.358549,0.920038,-6.926022,44.949348,20.602251,,,,,,
1467746738.40,-1.717572,-0.408481,-0.163674,-0.096497,-2.930495,0.045736,-0.907858,0.397216,0.134217,1.306280,-0.361922,0.870742,-5.245165,44.903210,21.190950,,,,,,
1467746738.41,-1.744592,-0.408768,-0.164710,-0.086440,-2.552498,0.043376,-0.903788,0.397479,0.158675,1.268992,-0.359104,0.815858,-5.245165,44.903210,21.190950,,,,,,
1467746738.42,-1.766118,-0.408975,-0.165510,-0.063329,-1.968491,0.030156,-0.900082,0.397669,0.178076,1.256619,-0.364817,0.819269,-5.245165,44.903210,21.190950,,,,,,
1467746738.43,-1.782143,-0.409122,-0.166112,-0.047776,-1.457763,0.023775,-0.897056,0.397804,0.192464,1.256019,-0.360908,0.788737,-2.763859,44.831089,21.803688,,,,,,
1467746738.44,-1.792713,-0.409199,-0.166509,-0.028940,-0.883316,0.012740,-0.894942,0.397875,0.201928,1.229414,-0.365053,0.763327,-2.763859,44.831089,21.803688,,,,,,
1467746738.45,-1.796379,-0.409229,-0.166624,-0.003571,-0.189957,0.003095,-0.894184,0.397902,0.205205,1.219715,-0.359373,0.778849,-2.763859,44.831089,21.803688,,,,,,
1467746738.46,-1.793509,-0.409204,-0.166461,0.018519,0.432269,-0.008237,-0.894779,0.397880,0.202640,1.228000,-0.363883,0.772961,-2.172926,44.813507,21.906487,,,,,,
1467746738.47,-1.784594,-0.409142,-0.166078,0.038434,1.023695,-0.016184,-0.896574,0.397823,0.194661,1.231260,-0.358684,0.765453,-2.172926,44.813507,21.906487,,,,,,
1467746738.48,-1.769929,-0.409016,-0.165455,0.058304,1.573720,-0.027065,-0.899381,0.397706,0.181501,1.260053,-0.365953,0.785250,-2.172926,44.813507,21.906487,,,,,,
1467746738.49,-1.750786,-0.408831,-0.164670,0.070517,1.967651,-0.032717,-0.902763,0.397537,0.164265,1.300605,-0.361420,0.782542,-2.678930,44.832417,21.811565,,,,,,
1467746738.50,-1.728558,-0.408583,-0.163806,0.077285,2.263903,-0.038826,-0.906288,0.397309,0.144176,1.324440,-0.367326,0.789830,-2.678930,44.832417,21.811565,,,,,,
1467746738.51,-1.702860,-0.408303,-0.162801,0.090508,2.616421,-0.043152,-0.909804,0.397052,0.120856,1.319289,-0.365421,0.830514,-2.678930,44.832417,21.811565,,,,,,
1467746738.52,-1.674391,-0.407950,-0.161690,0.098262,2.848963,-0.048861,-0.913015,0.396729,0.094924,1.349752,-0.364334,0.862978,-3.594372,44.860912,21.620491,,,,,,
1467746738.53,-1.644834,-0.407559,-0.160561,0.100333,2.928989,-0.048254,-0.915576,0.396370,0.067911,1.358477,-0.364876,0.869864,-3.594372,44.860912,21.620491,,,,,,
1467746738.54,-1.613534,-0.407113,-0.159389,0.108070,3.151970,-0.051774,-0.917429,0.395960,0.039232,1.320368,-0.361796,0.921751,-3.594372,44.860912,21.620491,,,,,,
1467746738.55,-1.579904,-0.406594,-0.158125,0.114706,3.344162,-0.056166,-0.918435,0.395483,0.008365,1.325463,-0.364890,0.989133,-6.088964,44.934624,20.896660,,,,,,
1467746738.56,-1.546144,-0.406035,-0.156881,0.114670,3.320793,-0.052826,-0.918415,0.394970,-0.022645,1.330448,-0.360363,0.993440,-6.088964,44.934624,20.896660,,,,,,
1467746738.57,-1.512036,-0.405430,-0.155653,0.116871,3.372829,-0.056343,-0.917347,0.394414,-0.053966,1.304752,-0.362401,1.029796,-6.088964,44.934624,20.896660,,,,,,
1467746738.58,-1.478208,-0.404800,-0.154459,0.113591,3.305934,-0.054863,-0.915244,0.393835,-0.084984,1.317512,-0.356909,1.066536,-7.507957,44.974472,20.341927,,,,,,
1467746738.59,-1.446311,-0.404176,-0.153368,0.103733,3.091446,-0.050334,-0.912312,0.393261,-0.114160,1.307957,-0.360363,1.059839,-7.507957,44.974472,20.341927,,,,,,
1467746738.60,-1.416570,-0.403545,-0.152344,0.100269,2.878023,-0.047934,-0.908759,0.392681,-0.141276,1.305136,-0.359097,1.086894,-7.507957,44.974472,20.341927,,,,,,
1467746738.61,-1.389413,-0.402984,-0.151433,0.089262,2.600880,-0.039821,-0.904804,0.392165,-0.165941,1.291981,-0.362303,1.102785,-10.121206,45.042145,19.016649,,,,,,
1467746738.62,-1.366361,-0.402451,-0.150674,0.074863,2.158113,-0.035994,-0.900943,0.391675,-0.186794,1.308338,-0.354993,1.083370,-10.121206,45.042145,19.016649,,,,,,
1467746738.63,-1.347637,-0.402013,-0.150061,0.061577,1.758870,-0.029245,-0.897455,0.391272,-0.203667,1.271204,-0.361059,1.091302,-10.121206,45.042145,19.016649,,,,,,
1467746738.64,-1.332327,-0.401646,-0.149554,0.051556,1.414842,-0.023904,-0.894371,0.390934,-0.217418,1.254876,-0.357410,1.116420,-11.084976,45.065598,18.414173,,,,,,
1467746738.65,-1.321976,-0.401382,-0.149197,0.033832,0.874378,-0.015210,-0.892173,0.390690,-0.226689,1.268760,-0.354436,1.101795,-11.084976,45.065598,18.414173,,,,,,
1467746738.66,-1.317388,-0.401246,-0.149035,0.012897,0.320113,-0.006433,-0.891175,0.390566,-0.230792,1.264802,-0.359453,1.071781,-11.084976,45.065598,18.414173,,,,,,
1467746738.67,-1.317820,-0.401241,-0.149010,-0.001565,-0.166200,0.001925,-0.891276,0.390561,-0.230408,1.263103,-0.359601,1.086472,-11.997231,45.087543,17.777685,,,,,,
1467746738.68,-1.323392,-0.401328,-0.149164,-0.018178,-0.683281,0.001958,-0.892514,0.390641,-0.225430,1.246548,-0.359696,1.067761,-11.997231,45.087543,17.777685,,,,,,
1467746738.69,-1.333741,-0.401547,-0.149337,-0.028324,-1.123939,0.010034,-0.894716,0.390842,-0.216162,1.257692,-0.420582,1.119162,-11.997231,45.087543,17.777685,,,,,,
1467746738.70,-1.347858,-0.401897,-0.149848,-0.047995,-1.485016,0.038890,-0.897544,0.391165,-0.203479,1.228019,-0.221854,1.010593,-11.888941,45.085716,17.854902,,,,,,
1467746738.71,-1.365728,-0.402283,-0.150324,-0.071819,-1.827925,0.026115,-0.900889,0.391520,-0.187378,1.235164,-0.429636,1.200501,-11.888941,45.085716,17.854902,,,,,,
1467746738.72,-1.384510,-0.402807,-0.151015,-0.059184,-1.886424,0.060557,-0.904048,0.392002,-0.170388,1.221278,-0.284275,1.079094,-11.888941,45.085716,17.854902,,,,,,
1467746738.73,-1.405563,-0.403254,-0.151837,-0.094576,-2.134792,0.034403,-0.907261,0.392414,-0.151289,1.200703,-0.354862,0.996504,-10.738322,45.061760,18.627731,,,,,,
1467746738.74,-1.429021,-0.403801,-0.152695,-0.074694,-2.388614,0.050917,-0.910348,0.392917,-0.129937,1.270806,-0.337619,1.072961,-10.738322,45.061760,18.627731,,,,,,
1467746738.75,-1.455206,-0.404382,-0.153750,-0.106887,-2.601997,0.043708,-0.913211,0.393451,-0.106031,1.190814,-0.371554,0.992170,-10.738322,45.061760,18.627731,,,,,,
1467746738.76,-1.480894,-0.404858,-0.154580,-0.083331,-2.500070,0.040963,-0.915446,0.393889,-0.082523,1.290324,-0.394819,1.157108,-9.876936,45.037395,19.155825,,,,,,
1467746738.77,-1.506044,-0.405288,-0.155458,-0.087552,-2.487297,0.030234,-0.917063,0.394283,-0.059465,1.247141,-0.391430,0.995546,-9.876936,45.037395,19.155825,,,,,,
1467746738.78,-1.531781,-0.405732,-0.156208,-0.067435,-2.570139,0.035032,-0.918115,0.394691,-0.035839,1.217767,-0.336463,0.974987,-8.844611,45.009514,19.717581,,,,,,
1467746738.79,-1.557347,-0.406198,-0.157183,-0.087555,-2.477761,0.037626,-0.918547,0.395120,-0.012355,1.246778,-0.358987,1.005473,-8.844611,45.009514,19.717581,,,,,,
1467746738.80,-1.580196,-0.406567,-0.157946,-0.070099,-2.156020,0.027110,-0.918443,0.395459,0.008633,1.250627,-0.342373,1.015903,-8.844611,45.009514,19.717581,,,,,,
1467746738.81,-1.599104,-0.406847,-0.158561,-0.049427,-1.797153,0.029137,-0.918005,0.395716,0.025994,1.257727,-0.346292,0.956001,-6.795420,44.958088,20.626661,,,,,,
1467746738.82,-1.616638,-0.407070,-0.159189,-0.061036,-1.711146,0.030715,-0.917320,0.395920,0.042081,1.243050,-0.342423,0.923099,-6.795420,44.958088,20.626661,,,,,,
1467746738.83,-1.632547,-0.407321,-0.159833,-0.058635,-1.488181,0.033577,-0.916436,0.396150,0.056663,1.237923,-0.345598,0.891640,-6.795420,44.958088,20.626661,,,,,,
1467746738.84,-1.644365,-0.407508,-0.160361,-0.041031,-1.046459,0.023373,-0.915628,0.396322,0.067483,1.243463,-0.352392,0.929328,-6.024734,44.938103,20.907799,,,,,,
1467746738.85,-1.652212,-0.407636,-0.160706,-0.026739,-0.696057,0.015868,-0.915019,0.396441,0.074662,1.237941,-0.410524,0.930648,-6.024734,44.938103,20.907799,,,,,,
1467746738.86,-1.657730,-0.407708,-0.160827,-0.009414,-0.487914,0.000742,-0.914565,0.396506,0.079707,1.270477,-0.380530,0.898717,-6.024734,44.938103,20.907799,,,,,,
1467746738.87,-1.659974,-0.407720,-0.160887,-0.000450,-0.130093,-0.000429,-0.914379,0.396517,0.081759,1.259075,-0.361453,0.859037,-5.140079,44.911503,21.199133,,,,,,
1467746738.88,-1.658645,-0.407653,-0.160684,0.020230,0.209705,-0.014248,-0.914514,0.396455,0.080546,1.287118,-0.348848,0.896749,-5.140079,44.911503,21.199133,,,,,,
1467746738.89,-1.654159,-0.407548,-0.160485,0.022712,0.499562,-0.010742,-0.914907,0.396359,0.076446,1.256826,-0.362103,0.868409,-5.140079,44.911503,21.199133,,,,,,
1467746738.90,-1.647630,-0.407453,-0.160128,0.032538,0.690687,-0.014059,-0.915425,0.396272,0.070474,1.273884,-0.335206,0.872245,-5.140079,44.911503,21.199133,,,,,,
1467746738.91,-1.638016,-0.407333,-0.159800,0.035077,1.027260,-0.009781,-0.916107,0.396162,0.061673,1.257629,-0.356611,0.891528,-5.361708,44.923000,21.119722,,,,,,
1467746738.92,-1.625942,-0.407196,-0.159359,0.034292,1.241759,-0.016449,-0.916839,0.396037,0.050611,1.292327,-0.337595,0.882235,-5.361708,44.923000,21.119722,,,,,,
1467746738.93,-1.612123,-0.407054,-0.158924,0.046187,1.392520,-0.014190,-0.917507,0.395906,0.037939,1.282604,-0.366548,0.894205,-5.825296,44.935768,20.969234,,,,,,
1467746738.94,-1.597141,-0.406879,-0.158447,0.044221,1.512523,-0.021331,-0.918042,0.395745,0.024191,1.312024,-0.356636,0.927454,-5.825296,44.935768,20.969234,,,,,,
1467746738.95,-1.580833,-0.406648,-0.157855,0.056080,1.626136,-0.024161,-0.918406,0.395533,0.009218,1.295923,-0.370173,0.926268,-5.825296,44.935768,20.969234,,,,,,
1467746738.96,-1.564166,-0.406395,-0.157308,0.051865,1.655877,-0.027545,-0.918532,0.395301,-0.006090,1.276930,-0.366263,0.972262,-6.434512,44.950798,20.757872,,,,,,
1467746738.97,-1.546228,-0.406098,-0.156689,0.059509,1.806652,-0.029547,-0.918392,0.395028,-0.022568,1.283260,-0.376351,0.992188,-6.434512,44.950798,20.757872,,,,,,
1467746738.98,-1.527677,-0.405770,-0.156023,0.062724,1.818339,-0.032811,-0.917945,0.394726,-0.039605,1.300132,-0.370022,0.989480,-6.434512,44.950798,20.757872,,,,,,
1467746738.99,-1.509832,-0.405439,-0.155342,0.064755,1.746124,-0.028098,-0.917222,0.394422,-0.055987,1.274354,-0.368391,0.997134,-7.885866,44.988770,20.166561,,,,,,
1467746739.00,-1.492306,-0.405084,-0.154674,0.062592,1.713221,-0.032151,-0.916240,0.394096,-0.072064,1.304179,-0.364250,1.019009,-7.885866,44.988770,20.166561,,,,,,
1467746739.01,-1.475961,-0.404735,-0.154066,0.057075,1.565621,-0.026973,-0.915076,0.393775,-0.087043,1.277518,-0.357627,1.000739,-7.885866,44.988770,20.166561,,,,,,
1467746739.02,-1.461243,-0.404431,-0.153529,0.051564,1.418031,-0.024989,-0.913815,0.393496,-0.100514,1.278531,-0.348986,1.021092,-8.609949,45.009319,19.821613,,,,,,
1467746739.03,-1.447786,-0.404156,-0.153053,0.045005,1.288482,-0.019925,-0.912487,0.393242,-0.112815,1.272259,-0.346688,1.024589,-8.609949,45.009319,19.821613,,,,,,
1467746739.04,-1.436403,-0.403945,-0.152708,0.028756,1.068694,-0.017498,-0.911226,0.393049,-0.123205,1.270876,-0.347227,1.022588,-8.609949,45.009319,19.821613,,,,,,
1467746739.05,-1.427312,-0.403784,-0.152449,0.024206,0.841462,-0.012885,-0.910131,0.392900,-0.131493,1.266012,-0.358660,1.041131,-8.609949,45.009319,19.821613,,,,,,
1467746739.06,-1.420455,-0.403661,-0.152269,0.016478,0.626973,-0.008354,-0.909256,0.392787,-0.137738,1.258469,-0.360317,1.049237,-9.728989,45.038166,19.229591,,,,,,
1467746739.07,-1.415714,-0.403571,-0.152123,0.013014,0.413549,-0.005954,-0.908628,0.392705,-0.142053,1.265439,-0.370213,1.053048,-9.728989,45.038166,19.229591,,,,,,
1467746739.08,-1.413600,-0.403517,-0.152038,0.007335,0.132171,-0.003131,-0.908346,0.392655,-0.143977,1.271444,-0.371430,1.044779,-10.041080,45.044369,19.053814,,,,,,
1467746739.09,-1.414488,-0.403512,-0.152014,0.001638,-0.160892,0.001895,-0.908476,0.392650,-0.143170,1.267591,-0.372295,1.046201,-10.041080,45.044369,19.053814,,,,,,
1467746739.10,-1.418123,-0.403692,-0.152033,-0.008334,-0.437015,0.024906,-0.908920,0.392816,-0.139856,1.355148,-0.387964,0.991404,-10.041080,45.044369,19.053814,,,,,,
1467746739.11,-1.428261,-0.404665,-0.152895,-0.133071,-1.301459,0.102585,-0.909912,0.393711,-0.130580,2.245362,-0.386448,0.422450,-10.080855,45.049000,19.021843,,,,,,
1467746739.12,-1.476944,-0.406084,-0.155018,-0.244864,-6.413947,0.120700,-0.914632,0.395015,-0.086093,3.782063,-0.378169,-0.152234,-10.080855,45.049000,19.021843,,,,,,
1467746739.13,-1.599104,-0.407828,-0.160563,-0.604409,-13.764668,0.181344,-0.917617,0.396617,0.025983,3.670958,-0.452281,-0.109860,-10.080855,45.049000,19.021843,,,,,,
1467746739.14,-1.771951,-0.409546,-0.169080,-0.791307,-17.497019,0.279077,-0.898806,0.398192,0.183277,1.945040,-0.366210,1.103878,-8.872608,45.009869,19.704189,,,,,,
1467746739.15,-1.928617,-0.410557,-0.178217,-0.729419,-13.833046,0.357283,-0.858825,0.399120,0.321128,-2.105211,-0.256221,2.779274,-8.872608,45.009869,19.704189,,,,,,
1467746739.16,-1.954207,-0.413358,-0.180709,0.155506,2.490521,0.310077,-0.849286,0.401687,0.342579,-3.256747,-0.210052,4.997311,-8.872608,45.009869,19.704189,,,,,,
1467746739.17,-1.816019,-0.414977,-0.175006,0.589894,15.478216,-0.133921,-0.887748,0.403169,0.222167,3.344856,-0.316148,1.858201,1.641647,44.566795,22.449326,,,,,,
1467746739.18,-1.744411,-0.413684,-0.171763,0.084812,2.277326,-0.144241,-0.901881,0.401985,0.158172,3.866359,-0.527611,-2.555343,1.641647,44.566795,22.449326,,,,,,
1467746739.19,-1.810683,-0.412780,-0.175084,-0.375697,-7.389282,-0.017015,-0.889779,0.401158,0.217637,1.965798,-0.488087,-0.414750,1.641647,44.566795,22.449326,,,,,,
1467746739.20,-1.842804,-0.411869,-0.175965,0.021638,-1.336072,-0.080129,-0.882682,0.400323,0.246198,0.714713,-0.452096,2.028689,-3.038990,44.743195,21.947159,,,,,,
1467746739.21,-1.818045,-0.411725,-0.173515,0.238987,3.096721,-0.061941,-0.888563,0.400191,0.224285,0.689741,-0.400984,1.352604,-3.038990,44.743195,21.947159,,,,,,
1467746739.22,-1.791549,-0.411923,-0.171221,0.188568,2.002992,-0.020005,-0.894115,0.400372,0.200648,2.032330,-0.437115,0.212026,-3.038990,44.743195,21.947159,,,,,,
1467746739.23,-1.801377,-0.412205,-0.170713,-0.006116,-2.066880,0.034065,-0.891990,0.400630,0.209400,2.347267,-0.394435,-0.323414,-2.078402,44.741646,22.062000,,,,,,
1467746739.24,-1.840406,-0.412595,-0.171997,-0.116271,-4.107689,0.075495,-0.882990,0.400988,0.244004,1.708002,-0.370379,0.241088,-2.078402,44.741646,22.062000,,,,,,
1467746739.25,-1.872886,-0.413034,-0.172994,-0.052764,-2.718868,0.061526,-0.874432,0.401390,0.272497,1.136700,-0.337624,0.906931,-2.078402,44.741646,22.062000,,,,,,
1467746739.26,-1.884719,-0.413344,-0.173129,0.008315,-0.746008,0.026860,-0.871028,0.401674,0.282786,1.074123,-0.324144,0.875234,-0.967880,44.731266,22.159500,,,,,,
1467746739.27,-1.886645,-0.413563,-0.173164,-0.001540,-0.114230,0.022888,-0.870398,0.401874,0.284436,1.270697,-0.341495,0.547000,-0.967880,44.731266,22.159500,,,,,,
1467746739.28,-1.888930,-0.413765,-0.173574,-0.039007,-0.262884,0.031234,-0.869669,0.402060,0.286399,1.421747,-0.392004,0.428506,-0.967880,44.731266,22.159500,,,,,,
1467746739.29,-1.891760,-0.413944,-0.174180,-0.049590,-0.206612,0.034064,-0.868786,0.402223,0.288836,1.376095,-0.395601,0.501065,0.163937,44.708710,22.225445,,,,,,
1467746739.30,-1.890416,-0.414094,-0.174677,-0.029796,0.286069,0.025672,-0.869116,0.402361,0.287649,1.346198,-0.403322,0.604364,0.163937,44.708710,22.225445,,,,,,
1467746739.31,-1.884615,-0.414250,-0.174881,-0.010150,0.660891,0.018018,-0.870711,0.402503,0.282584,1.384459,-0.386268,0.574472,0.163937,44.708710,22.225445,,,,,,
1467746739.32,-1.877627,-0.414357,-0.174906,0.007995,0.681082,0.008330,-0.872623,0.402601,0.276479,1.495258,-0.391630,0.511729,0.215252,44.689560,22.263498,,,,,,
1467746739.33,-1.872214,-0.414476,-0.174925,-0.003959,0.495261,0.013741,-0.874061,0.402710,0.271737,1.491371,-0.382019,0.454963,0.215252,44.689560,22.263498,,,,,,
1467746739.34,-1.867841,-0.414679,-0.175021,0.001277,0.442139,0.024724,-0.875163,0.402897,0.267888,1.445186,-0.377094,0.485987,0.215252,44.689560,22.263498,,,,,,
1467746739.36,-1.859306,-0.415305,-0.175156,-0.002092,0.317883,0.035080,-0.877176,0.403469,0.260338,1.504953,-0.383236,0.460976,-0.261326,44.686848,22.268452,,,,,,
1467746739.35,-1.863000,-0.414974,-0.175061,0.005585,0.489903,0.029751,-0.876336,0.403166,0.263614,1.478600,-0.393584,0.517880,-0.261326,44.686848,22.268452,,,,,,
1467746739.37,-1.857616,-0.415639,-0.175411,-0.012948,0.156486,0.039274,-0.877485,0.403774,0.258816,1.447554,-0.389706,0.495517,-0.261326,44.686848,22.268452,,,,,,
1467746739.38,-1.854744,-0.415951,-0.175596,-0.005218,0.368857,0.032628,-0.878104,0.404060,0.256260,1.385428,-0.385459,0.576152,-0.424210,44.688457,22.262711,,,,,,
1467746739.39,-1.849058,-0.416207,-0.175673,0.001499,0.620519,0.024670,-0.879447,0.404294,0.251234,1.392967,-0.379941,0.580263,-0.424210,44.688457,22.262711,,,,,,
1467746739.40,-1.842645,-0.416418,-0.175714,0.002594,0.637519,0.020306,-0.880958,0.404487,0.245567,1.410057,-0.390953,0.542657,-0.424210,44.688457,22.262711,,,,,,
1467746739.41,-1.836131,-0.416605,-0.175651,0.013277,0.657703,0.014868,-0.882466,0.404658,0.239803,1.423146,-0.392986,0.554432,-0.746048,44.685085,22.261017,,,,,,
1467746739.42,-1.829231,-0.416786,-0.175511,0.016514,0.691679,0.014658,-0.884029,0.404824,0.233689,1.421962,-0.396233,0.555709,-0.746048,44.685085,22.261017,,,,,,
1467746739.43,-1.822413,-0.416964,-0.175405,0.011156,0.664074,0.014826,-0.885532,0.404987,0.227639,1.437396,-0.390613,0.542747,-0.746048,44.685085,22.261017,,,,,,
1467746739.44,-1.816640,-0.417086,-0.175374,0.005689,0.541984,0.010264,-0.886783,0.405098,0.222511,1.453724,-0.384804,0.537514,-1.028963,44.691509,22.236835,,,,,,
1467746739.45,-1.811904,-0.417198,-0.175270,0.014103,0.453859,0.007632,-0.887783,0.405201,0.218298,1.434994,-0.401630,0.573908,-1.028963,44.691509,22.236835,,,,,,
1467746739.46,-1.807069,-0.417294,-0.175064,0.022667,0.485718,0.004247,-0.888790,0.405288,0.213993,1.425946,-0.398452,0.585811,-1.028963,44.691509,22.236835,,,,,,
1467746739.47,-1.802772,-0.417403,-0.174784,0.028920,0.375290,0.003881,-0.889659,0.405388,0.210162,1.449183,-0.399711,0.556485,-1.499689,44.703564,22.185787,,,,,,
1467746739.49,-1.798314,-0.417683,-0.174199,0.023341,0.175668,0.007257,-0.890476,0.405644,0.206169,1.410617,-0.391301,0.556069,-1.499689,44.703564,22.185787,,,,,,
1467746739.48,-1.800213,-0.417549,-0.174457,0.032960,0.207512,0.009195,-0.890136,0.405521,0.207872,1.437713,-0.400699,0.549773,-1.499689,44.703564,22.185787,,,,,,
1467746739.50,-1.796101,-0.417797,-0.173953,0.024478,0.229826,0.004789,-0.890885,0.405748,0.204188,1.386140,-0.390550,0.590963,-1.640841,44.717022,22.148636,,,,,,
1467746739.51,-1.793249,-0.417898,-0.173715,0.022420,0.288223,0.005485,-0.891424,0.405840,0.201637,1.367254,-0.385607,0.594002,-1.640841,44.717022,22.148636,,,,,,
1467746739.52,-1.789513,-0.418008,-0.173483,0.022551,0.394400,0.005884,-0.892127,0.405940,0.198295,1.357307,-0.381511,0.603325,-1.640841,44.717022,22.148636,,,,,,
1467746739.53,-1.784891,-0.418123,-0.173301,0.017179,0.470137,0.007571,-0.892989,0.406046,0.194160,1.361174,-0.381922,0.594827,-1.857599,44.738903,22.087240,,,,,,
1467746739.54,-1.779620,-0.418255,-0.173169,0.015130,0.541267,0.011381,-0.893947,0.406167,0.189439,1.346797,-0.388635,0.598525,-1.857599,44.738903,22.087240,,,,,,
1467746739.55,-1.773217,-0.418413,-0.173034,0.014219,0.665496,0.011665,-0.895079,0.406311,0.183698,1.359343,-0.393539,0.612429,-1.857599,44.738903,22.087240,,,,,,
1467746739.56,-1.766973,-0.418560,-0.173016,0.003468,0.587981,0.015334,-0.896150,0.406445,0.178094,1.394670,-0.387067,0.566321,-2.065018,44.746620,22.053169,,,,,,
1467746739.57,-1.761787,-0.418729,-0.173002,0.005503,0.513651,0.016867,-0.896994,0.406599,0.173432,1.386252,-0.401732,0.596878,-2.065018,44.746620,22.053169,,,,,,
1467746739.58,-1.756106,-0.418860,-0.172932,0.011980,0.574188,0.010107,-0.897912,0.406720,0.168323,1.412133,-0.389172,0.622861,-2.065018,44.746620,22.053169,,,,,,
1467746739.59,-1.750925,-0.418987,-0.172813,0.012939,0.490305,0.010634,-0.898722,0.406835,0.163660,1.399362,-0.396139,0.605551,-2.556015,44.755173,21.984262,,,,,,
1467746739.60,-1.746302,-0.419135,-0.172681,0.017136,0.442519,0.012002,-0.899409,0.406971,0.159492,1.416606,-0.392277,0.596260,-2.556015,44.755173,21.984262,,,,,,
1467746739.61,-1.742798,-0.419320,-0.172533,0.015897,0.311903,0.018143,-0.899889,0.407139,0.156327,1.406328,-0.400135,0.585921,-2.556015,44.755173,21.984262,,,,,,
1467746739.62,-1.740075,-0.419542,-0.172411,0.014762,0.258808,0.020603,-0.900222,0.407342,0.153861,1.406157,-0.396844,0.590127,-2.758856,44.761818,21.946182,,,,,,
1467746739.63,-1.738041,-0.419750,-0.172340,0.007198,0.167502,0.019039,-0.900449,0.407532,0.152016,1.433546,-0.391388,0.590401,-2.758856,44.761818,21.946182,,,,,,
1467746739.64,-1.737386,-0.419963,-0.172354,0.001714,0.041147,0.020891,-0.900463,0.407727,0.151411,1.410793,-0.395016,0.583208,-2.758856,44.761818,21.946182,,,,,,
1467746739.65,-1.736765,-0.420201,-0.172349,0.004958,0.085733,0.023808,-0.900461,0.407944,0.150836,1.373117,-0.396042,0.615644,-2.917175,44.773537,21.901762,,,,,,
1467746739.66,-1.735237,-0.420455,-0.172280,0.010377,0.163239,0.024392,-0.900588,0.408176,0.149443,1.384094,-0.402057,0.630113,-2.917175,44.773537,21.901762,,,,,,
1467746739.67,-1.734298,-0.420710,-0.172289,-0.000406,0.054940,0.025060,-0.900625,0.408409,0.148580,1.422094,-0.394508,0.581522,-2.917175,44.773537,21.901762,,,,,,
1467746739.68,-1.734505,-0.420952,-0.172397,-0.005827,-0.022569,0.025541,-0.900497,0.408630,0.148750,1.391433,-0.393081,0.569130,-2.942347,44.778152,21.888954,,,,,,
1467746739.69,-1.733512,-0.421167,-0.172458,-0.000271,0.157944,0.021221,-0.900558,0.408826,0.147842,1.358871,-0.400571,0.629288,-2.942347,44.778152,21.888954,,,,,,
1467746739.70,-1.730963,-0.421382,-0.172527,-0.004392,0.272612,0.023691,-0.900845,0.409022,0.145532,1.369503,-0.388514,0.619727,-2.942347,44.778152,21.888954,,,,,,
1467746739.71,-1.728690,-0.421629,-0.172715,-0.015125,0.211021,0.028324,-0.901073,0.409248,0.143468,1.402615,-0.399390,0.572703,-2.995485,44.779385,21.879223,,,,,,
1467746739.73,-1.727669,-0.422197,-0.173295,-0.022801,0.040063,0.033647,-0.900990,0.409765,0.142512,1.413487,-0.400061,0.571676,-2.995485,44.779385,21.879223,,,,,,
1467746739.72,-1.727850,-0.421901,-0.172979,-0.021711,0.057057,0.031412,-0.901084,0.409496,0.142694,1.437262,-0.393093,0.562613,-2.995485,44.779385,21.879223,,,,,,
1467746739.74,-1.727029,-0.422481,-0.173526,-0.015301,0.070863,0.029203,-0.900966,0.410024,0.141917,1.456752,-0.411123,0.616979,-3.041758,44.774025,21.883812,,,,,,
1467746739.75,-1.727946,-0.422732,-0.173789,-0.019825,-0.142554,0.029473,-0.900734,0.410254,0.142727,1.472648,-0.410452,0.552158,-3.041758,44.774025,21.883812,,,,,,
1467746739.76,-1.729933,-0.423044,-0.174017,-0.013493,-0.178673,0.035028,-0.900322,0.410538,0.144496,1.441307,-0.421646,0.568806,-3.041758,44.774025,21.883812,,,,,,
1467746739.77,-1.731614,-0.423359,-0.174133,-0.002836,-0.174425,0.032883,-0.899950,0.410825,0.145989,1.479128,-0.407193,0.607490,-2.948284,44.761307,21.922579,,,,,,
1467746739.78,-1.734192,-0.423670,-0.174275,-0.009343,-0.271043,0.032418,-0.899444,0.411109,0.148288,1.457321,-0.407218,0.569471,-2.948284,44.761307,21.922579,,,,,,
1467746739.79,-1.736998,-0.423983,-0.174454,-0.012538,-0.267862,0.034524,-0.898898,0.411394,0.150789,1.447146,-0.400789,0.547895,-2.948284,44.761307,21.922579,,,,,,
1467746739.80,-1.739518,-0.424294,-0.174698,-0.017823,-0.237067,0.034325,-0.898389,0.411677,0.153032,1.464322,-0.400889,0.573576,-2.827816,44.760311,21.940477,,,,,,
1467746739.81,-1.742435,-0.424576,-0.174968,-0.021096,-0.303953,0.032612,-0.897824,0.411934,0.155633,1.480497,-0.395897,0.547309,-2.827816,44.760311,21.940477,,,,,,
1467746739.82,-1.745715,-0.424881,-0.175304,-0.025362,-0.303960,0.035802,-0.897185,0.412212,0.158554,1.460402,-0.411220,0.537567,-2.827816,44.760311,21.940477,,,,,,
1467746739.83,-1.748561,-0.425231,-0.175607,-0.020000,-0.266811,0.039832,-0.896588,0.412531,0.161082,1.488126,-0.416392,0.575414,-2.523497,44.748104,22.002403,,,,,,
1467746739.84,-1.751740,-0.425590,-0.175902,-0.021137,-0.323089,0.041248,-0.895926,0.412858,0.163904,1.495764,-0.415391,0.543234,-2.523497,44.748104,22.002403,,,,,,
1467746739.85,-1.755298,-0.425957,-0.176219,-0.021155,-0.335834,0.042392,-0.895188,0.413193,0.167064,1.483384,-0.416672,0.525975,-2.523497,44.748104,22.002403,,,,,,
1467746739.86,-1.757478,-0.426317,-0.176463,-0.014535,-0.154263,0.039131,-0.894675,0.413521,0.168987,1.474113,-0.418953,0.607578,-2.360729,44.740990,22.034914,,,,,,
1467746739.87,-1.758149,-0.426622,-0.176717,-0.019713,-0.044883,0.034182,-0.894438,0.413798,0.169564,1.481489,-0.406306,0.546821,-2.360729,44.740990,22.034914,,,,,,
1467746739.88,-1.759412,-0.426934,-0.177105,-0.030489,-0.140451,0.039029,-0.894096,0.414082,0.170669,1.520775,-0.410603,0.513245,-2.360729,44.740990,22.034914,,,,,,
1467746739.89,-1.760565,-0.427303,-0.177535,-0.031455,-0.055518,0.042753,-0.893749,0.414418,0.171671,1.498867,-0.415806,0.559042,-2.134317,44.726120,22.088131,,,,,,
1467746739.90,-1.760890,-0.427625,-0.178043,-0.039936,-0.027904,0.041507,-0.893562,0.414711,0.171937,1.529686,-0.400474,0.493606,-2.134317,44.726120,22.088131,,,,,,
1467746739.91,-1.762075,-0.427983,-0.178651,-0.049618,-0.103293,0.044099,-0.893212,0.415036,0.172967,1.545022,-0.423932,0.537483,-2.134317,44.726120,22.088131,,,,,,
1467746739.92,-1.763319,-0.428308,-0.179199,-0.042150,-0.093738,0.042982,-0.892863,0.415332,0.174052,1.557734,-0.415393,0.562474,-2.072725,44.712204,22.122139,,,,,,
1467746739.93,-1.763513,-0.428614,-0.179723,-0.041983,0.031570,0.036874,-0.892705,0.415611,0.174201,1.529683,-0.432411,0.541222,-2.072725,44.712204,22.122139,,,,,,
1467746739.94,-1.763652,-0.428889,-0.180151,-0.032451,-0.014084,0.033976,-0.892568,0.415861,0.174303,1.584234,-0.421659,0.600142,-2.072725,44.712204,22.122139,,,,,,
1467746739.95,-1.764202,-0.429126,-0.180650,-0.043118,-0.033185,0.031957,-0.892376,0.416076,0.174775,1.562267,-0.419433,0.509261,-1.959141,44.679054,22.199327,,,,,,
1467746739.96,-1.764967,-0.429339,-0.181167,-0.039965,-0.068223,0.031115,-0.892155,0.416270,0.175440,1.595463,-0.421778,0.539419,-1.959141,44.679054,22.199327,,,,,,
1467746739.97,-1.765808,-0.429558,-0.181627,-0.038873,-0.045926,0.030976,-0.891917,0.416469,0.176174,1.581096,-0.417979,0.580845,-1.959141,44.679054,22.199327,,,,,,
1467746739.98,-1.766530,-0.429800,-0.182217,-0.049550,-0.065042,0.034279,-0.891691,0.416689,0.176797,1.592817,-0.427416,0.519690,-1.911648,44.662033,22.237690,,,,,,
