timestamp,attitude_roll,attitude_pitch,attitude_yaw,rotation_rate_x,rotation_rate_y,rotation_rate_z,gravity_x,gravity_y,gravity_z,user_acc_x,user_acc_y,user_acc_z,magnetic_field_x,magnetic_field_y,magnetic_field_z,latitude(degree),longitude(degree),altitude(meter),speed(m/s),course(degree),timestamp
1465825284.88,-0.113929,0.010492,-0.564326,0.000979,0.036471,0.000114,-0.113677,-0.010492,-0.993462,0.032302,0.001169,0.004403,40.388760,2.895300,18.324764,,,,,,
1465825284.89,-0.113941,0.010493,-0.564315,0.004007,-0.093074,0.003058,-0.113688,-0.010493,-0.993461,0.035624,0.001933,0.005088,40.388760,2.895300,18.324764,,,,,,
1465825284.90,-0.115193,0.010511,-0.564277,0.008116,-0.210936,0.004866,-0.114932,-0.010511,-0.993318,0.034473,0.002912,0.007997,40.388760,2.895300,18.324764,,,,,,
1465825284.91,-0.117540,0.010541,-0.564210,0.009060,-0.305437,0.006524,-0.117263,-0.010540,-0.993045,0.030425,0.002560,0.006641,40.351063,2.894386,18.407768,,,,,,
1465825284.92,-0.120764,0.010581,-0.564113,0.010031,-0.376582,0.009100,-0.120464,-0.010581,-0.992661,0.024639,0.002601,0.005662,40.351063,2.894386,18.407768,,,,,,
1465825284.93,-0.124714,0.010736,-0.564000,0.009960,-0.431797,0.010510,-0.124383,-0.010736,-0.992176,0.016107,-0.004019,-0.006710,40.351063,2.894386,18.407768,,,,,,
1465825284.94,-0.129113,0.010831,-0.563861,0.009942,-0.442421,0.012706,-0.128747,-0.010831,-0.991618,0.003503,-0.000445,-0.005360,40.453392,2.889768,18.182507,,,,,,
,,,,,,,,,,,,,,,,29.719995,-95.399135,10.457295,-1.000000,-1.000000,1465825240.44
1465825284.95,-0.133305,0.010934,-0.563735,0.007870,-0.398883,0.011366,-0.132903,-0.010933,-0.991069,-0.002885,-0.001732,-0.005773,40.453392,2.889768,18.182507,,,,,,
1465825284.96,-0.137009,0.010988,-0.563623,0.007950,-0.336235,0.009909,-0.136572,-0.010988,-0.990569,-0.009408,0.000566,-0.004838,40.453392,2.889768,18.182507,,,,,,
1465825284.97,-0.140052,0.011055,-0.563538,0.006970,-0.272522,0.007379,-0.139587,-0.011054,-0.990148,-0.008744,-0.000771,-0.003550,40.744560,2.880495,17.521843,,,,,,
1465825284.98,-0.142418,0.011108,-0.563453,0.007030,-0.224740,0.007080,-0.141928,-0.011108,-0.989815,-0.006097,0.000778,-0.002342,40.744560,2.880495,17.521843,,,,,,
1465825284.99,-0.144412,0.011152,-0.563377,0.006004,-0.193948,0.006886,-0.143902,-0.011152,-0.989529,-0.004277,0.000898,-0.002338,40.744560,2.880495,17.521843,,,,,,
,,,,,,,,,,,,,,,,29.720009,-95.399403,10.457295,-1.000000,-1.000000,1465825285.02
1465825285.00,-0.146326,0.011211,-0.563293,0.007071,-0.191825,0.006873,-0.145795,-0.011211,-0.989251,0.000516,0.002956,-0.002555,40.839149,2.876782,17.300858,,,,,,
1465825285.01,-0.148272,0.011194,-0.563233,0.007052,-0.208810,0.005916,-0.147721,-0.011194,-0.988966,0.006073,0.003824,0.000044,40.839149,2.876782,17.300858,,,,,,
,,,,,,,,,,,,,,,,29.720122,-95.399556,10.457295,-1.000000,-1.000000,1465825285.03
1465825285.02,-0.150516,0.011264,-0.563156,0.008091,-0.228985,0.006043,-0.149939,-0.011264,-0.988631,0.008520,0.001773,-0.000962,40.906826,2.873087,17.140837,,,,,,
1465825285.03,-0.152913,0.011322,-0.563069,0.007005,-0.242793,0.008258,-0.152308,-0.011322,-0.988268,0.008449,0.001525,0.002032,40.906826,2.873087,17.140837,,,,,,
1465825285.04,-0.155454,0.011375,-0.562987,0.005929,-0.255529,0.006207,-0.154819,-0.011374,-0.987877,0.005908,-0.000375,-0.004951,40.906826,2.873087,17.140837,,,,,,
1465825285.05,-0.157938,0.011492,-0.562920,0.007001,-0.251279,0.005117,-0.157272,-0.011491,-0.987489,0.003906,-0.002745,-0.004531,40.906826,2.873087,17.140837,,,,,,
1465825285.06,-0.160314,0.011536,-0.562857,0.004895,-0.231106,0.006053,-0.159618,-0.011536,-0.987112,-0.000768,-0.001617,-0.005808,41.062321,2.865207,16.766273,,,,,,
1465825285.07,-0.162414,0.011586,-0.562789,0.005995,-0.201379,0.006932,-0.161690,-0.011586,-0.986774,-0.003273,-0.001735,-0.004880,41.062321,2.865207,16.766273,,,,,,
1465825285.08,-0.164115,0.011628,-0.562735,0.003920,-0.161024,0.004548,-0.163369,-0.011627,-0.986497,-0.005638,0.000488,-0.002624,41.062321,2.865207,16.766273,,,,,,
1465825285.09,-0.165528,0.011620,-0.562690,0.002897,-0.128108,0.004341,-0.164762,-0.011620,-0.986265,-0.001528,0.002068,-0.003115,41.206539,2.861431,16.409286,,,,,,
1465825285.10,-0.166713,0.011631,-0.562641,0.003979,-0.114305,0.004255,-0.165930,-0.011631,-0.986069,0.000983,0.001118,0.001511,41.206539,2.861431,16.409286,,,,,,
1465825285.11,-0.167752,0.011648,-0.562599,0.003972,-0.119613,0.004289,-0.166955,-0.011647,-0.985896,0.007791,0.000905,0.000193,41.249264,2.857944,16.302202,,,,,,
1465825285.12,-0.168950,0.011619,-0.562555,0.003949,-0.139784,0.003351,-0.168136,-0.011619,-0.985695,0.008758,0.003470,-0.002327,41.249264,2.857944,16.302202,,,,,,
1465825285.13,-0.170381,0.011629,-0.562507,0.007112,-0.162085,0.004558,-0.169546,-0.011629,-0.985454,0.008520,0.002290,-0.000676,41.249264,2.857944,16.302202,,,,,,
1465825285.14,-0.171965,0.011634,-0.562453,0.006036,-0.169520,0.005668,-0.171107,-0.011634,-0.985184,0.006861,0.002509,0.000259,41.285873,2.854406,16.209885,,,,,,
1465825285.15,-0.173578,0.011708,-0.562395,0.006036,-0.171640,0.004617,-0.172695,-0.011708,-0.984906,0.007122,-0.000270,0.000470,41.285873,2.854406,16.209885,,,,,,
1465825285.16,-0.175218,0.011761,-0.562327,0.007088,-0.178017,0.006787,-0.174311,-0.011760,-0.984620,0.007868,0.000743,-0.000167,41.285873,2.854406,16.209885,,,,,,
1465825285.17,-0.177041,0.011837,-0.562267,0.004928,-0.204557,0.005887,-0.176105,-0.011837,-0.984300,0.010517,-0.001667,-0.002592,41.387196,2.848995,15.950389,,,,,,
,,,,,,,,,,,,,,,,29.719955,-95.399105,9.879950,-1.000000,-1.000000,1465825285.20
1465825285.18,-0.179137,0.011882,-0.562200,0.005969,-0.223669,0.006008,-0.178168,-0.011882,-0.983928,0.007452,-0.000081,-0.002598,41.387196,2.848995,15.950389,,,,,,
1465825285.19,-0.181278,0.011958,-0.562126,0.007029,-0.226854,0.006029,-0.180274,-0.011958,-0.983544,0.008841,-0.001500,-0.000846,41.387196,2.848995,15.950389,,,,,,
1465825285.20,-0.183423,0.011963,-0.562049,0.002764,-0.230040,0.007109,-0.182383,-0.011962,-0.983155,0.010340,0.001754,0.003525,41.387196,2.848995,15.950389,,,,,,
1465825285.22,-0.188308,0.011976,-0.561877,0.008010,-0.291625,0.007500,-0.187183,-0.011976,-0.982252,0.015629,0.003004,0.001768,41.517284,2.843069,15.609724,,,,,,
1465825285.21,-0.185712,0.011961,-0.561968,0.006995,-0.252339,0.007253,-0.184633,-0.011961,-0.982735,0.012560,0.002897,0.003746,41.517284,2.843069,15.609724,,,,,,
1465825285.23,-0.191317,0.011994,-0.561777,0.009020,-0.334099,0.008832,-0.190138,-0.011993,-0.981684,0.016295,0.002808,0.002512,41.517284,2.843069,15.609724,,,,,,
1465825285.24,-0.194644,0.012048,-0.561664,0.007899,-0.376572,0.010162,-0.193404,-0.012048,-0.981045,0.023650,0.001275,0.007184,41.593487,2.836841,15.406683,,,,,,
1465825285.26,-0.203120,0.012133,-0.561360,0.011977,-0.515675,0.014232,-0.201711,-0.012133,-0.979370,0.027242,0.001009,0.004623,41.593487,2.836841,15.406683,,,,,,
1465825285.25,-0.198527,0.012058,-0.561518,0.011011,-0.437103,0.013738,-0.197211,-0.012058,-0.980287,0.024100,0.004184,0.006028,41.593487,2.836841,15.406683,,,,,,
1465825285.27,-0.208543,0.012207,-0.561178,0.012906,-0.594285,0.016842,-0.207019,-0.012206,-0.978261,0.026477,0.001647,0.001317,41.818367,2.820822,14.788467,,,,,,
1465825285.28,-0.214693,0.012329,-0.560967,0.013892,-0.653750,0.019345,-0.213032,-0.012329,-0.976968,0.027317,-0.000824,0.004296,41.818367,2.820822,14.788467,,,,,,
1465825285.29,-0.221516,0.012450,-0.560757,0.018077,-0.714272,0.018664,-0.219692,-0.012450,-0.975490,0.024547,0.000380,0.005321,41.818367,2.820822,14.788467,,,,,,
1465825285.30,-0.228934,0.012558,-0.560522,0.015886,-0.762054,0.020026,-0.226922,-0.012558,-0.973832,0.019646,0.000915,0.004289,41.987606,2.810375,14.302928,,,,,,
1465825285.31,-0.236766,0.012647,-0.560273,0.016906,-0.796035,0.021305,-0.234542,-0.012647,-0.972024,0.015227,0.002622,0.002084,41.987606,2.810375,14.302928,,,,,,
1465825285.32,-0.244797,0.012741,-0.560022,0.017969,-0.797097,0.021313,-0.242340,-0.012741,-0.970108,0.005996,0.001724,-0.001465,42.188030,2.798726,13.702875,,,,,,
1465825285.33,-0.252454,0.012829,-0.559788,0.012705,-0.749314,0.021008,-0.249760,-0.012828,-0.968223,0.001545,0.001995,0.000068,42.188030,2.798726,13.702875,,,,,,
1465825285.34,-0.259654,0.012934,-0.559561,0.017018,-0.710023,0.018637,-0.256725,-0.012934,-0.966398,-0.001790,0.001978,0.000273,42.188030,2.798726,13.702875,,,,,,
1465825285.35,-0.266530,0.013046,-0.559340,0.015989,-0.681354,0.018456,-0.263363,-0.013045,-0.964609,-0.001697,0.000747,-0.000159,42.591171,2.770861,12.399436,,,,,,
1465825285.36,-0.273281,0.013128,-0.559127,0.014954,-0.659053,0.017250,-0.269869,-0.013128,-0.962808,-0.004988,0.001302,-0.006476,42.591171,2.770861,12.399436,,,,,,
1465825285.37,-0.279509,0.013233,-0.558926,0.015021,-0.609143,0.014809,-0.275860,-0.013232,-0.961107,-0.005940,0.000110,-0.003752,42.591171,2.770861,12.399436,,,,,,
1465825285.38,-0.285254,0.013331,-0.558723,0.015073,-0.564553,0.016658,-0.281376,-0.013330,-0.959505,-0.002010,0.001139,0.003237,42.757118,2.758805,11.817314,,,,,,
1465825285.39,-0.290792,0.013415,-0.558531,0.014022,-0.553934,0.016590,-0.286685,-0.013414,-0.957931,0.002948,-0.000593,-0.000153,42.757118,2.758805,11.817314,,,,,,
1465825285.40,-0.296368,0.013533,-0.558327,0.014001,-0.568802,0.017748,-0.292021,-0.013533,-0.956316,0.011931,-0.000780,0.002840,42.757118,2.758805,11.817314,,,,,,
1465825285.41,-0.302362,0.013617,-0.558108,0.015010,-0.611277,0.019080,-0.297749,-0.013617,-0.954547,0.021580,0.000510,0.006229,42.757118,2.758805,11.817314,,,,,,
1465825285.42,-0.309095,0.013720,-0.557883,0.017034,-0.697282,0.018557,-0.304168,-0.013719,-0.952519,0.032242,0.002840,0.010274,43.020187,2.737724,10.825885,,,,,,
1465825285.43,-0.316971,0.013819,-0.557622,0.017937,-0.821522,0.022530,-0.311660,-0.013818,-0.950093,0.042220,0.004037,0.009511,43.020187,2.737724,10.825885,,,,,,
1465825285.44,-0.326158,0.013913,-0.557314,0.019883,-0.962751,0.026611,-0.320375,-0.013913,-0.947189,0.043290,0.004635,0.005462,43.155426,2.725106,10.276875,,,,,,
1465825285.45,-0.336620,0.014049,-0.556970,0.024006,-1.068936,0.028346,-0.330266,-0.014048,-0.943783,0.036123,0.002299,0.002804,43.155426,2.725106,10.276875,,,,,,
1465825285.46,-0.347556,0.014169,-0.556624,0.023970,-1.096546,0.029583,-0.340566,-0.014168,-0.940114,0.021917,0.001977,0.002080,43.155426,2.725106,10.276875,,,,,,
1465825285.47,-0.358385,0.014294,-0.556269,0.023999,-1.075307,0.028385,-0.350726,-0.014293,-0.936369,0.014469,0.001506,0.005522,43.521305,2.687602,8.608378,,,,,,
1465825285.48,-0.368888,0.014409,-0.555917,0.024036,-1.043456,0.029250,-0.360541,-0.014409,-0.932632,0.008277,0.001271,0.003860,43.521305,2.687602,8.608378,,,,,,
1465825285.49,-0.379186,0.014514,-0.555568,0.021930,-1.026463,0.028077,-0.370126,-0.014513,-0.928868,0.005364,0.000795,-0.000957,43.521305,2.687602,8.608378,,,,,,
1465825285.50,-0.389389,0.014635,-0.555211,0.024069,-1.019031,0.028033,-0.379583,-0.014634,-0.925042,0.010686,0.002229,0.003991,43.696480,2.666241,7.677237,,,,,,
1465825285.51,-0.399773,0.014722,-0.554852,0.022966,-1.046644,0.030334,-0.389167,-0.014722,-0.921050,0.015021,0.000882,0.002028,43.696480,2.666241,7.677237,,,,,,
1465825285.52,-0.410512,0.014797,-0.554486,0.021852,-1.085930,0.030579,-0.399035,-0.014797,-0.916816,0.016894,0.002788,-0.000023,43.696480,2.666241,7.677237,,,,,,
1465825285.53,-0.421517,0.014897,-0.554118,0.025031,-1.099732,0.029604,-0.409100,-0.014896,-0.912368,0.009258,0.001453,-0.005143,43.981033,2.620772,5.850760,,,,,,
1465825285.54,-0.432209,0.015003,-0.553758,0.024029,-1.050885,0.028232,-0.418830,-0.015002,-0.907941,0.000999,0.003345,-0.004260,43.981033,2.620772,5.850760,,,,,,
1465825285.55,-0.442204,0.015091,-0.553403,0.023053,-0.980806,0.027792,-0.427884,-0.015091,-0.903708,-0.000689,0.002258,0.003042,43.981033,2.620772,5.850760,,,,,,
1465825285.56,-0.451645,0.015149,-0.553075,0.021003,-0.922397,0.024230,-0.436396,-0.015149,-0.899627,-0.003393,0.003537,0.003738,44.099064,2.597847,4.894419,,,,,,
1465825285.57,-0.460663,0.015232,-0.552754,0.022100,-0.894794,0.025123,-0.444491,-0.015231,-0.895654,0.001879,0.002002,-0.002143,44.099064,2.597847,4.894419,,,,,,
1465825285.58,-0.469713,0.015319,-0.552422,0.022075,-0.912848,0.026300,-0.452578,-0.015318,-0.891593,0.013125,0.002562,0.005485,44.099064,2.597847,4.894419,,,,,,
1465825285.59,-0.479332,0.015393,-0.552097,0.021996,-0.977615,0.025642,-0.461132,-0.015393,-0.887198,0.014171,-0.000263,-0.004541,44.254208,2.554341,3.236046,,,,,,
1465825285.60,-0.489126,0.015454,-0.551779,0.019884,-0.965931,0.024502,-0.469799,-0.015454,-0.882638,-0.001133,0.001477,-0.014929,44.254208,2.554341,3.236046,,,,,,
1465825285.61,-0.498091,0.015514,-0.551480,0.020004,-0.871427,0.022845,-0.477692,-0.015514,-0.878390,0.001053,-0.000050,0.001575,44.254208,2.554341,3.236046,,,,,,
1465825285.62,-0.506280,0.015570,-0.551198,0.016894,-0.806653,0.021371,-0.484869,-0.015570,-0.874448,0.000707,0.000998,0.008008,44.309940,2.533029,2.375765,,,,,,
1465825285.63,-0.514310,0.015606,-0.550927,0.016895,-0.803470,0.022416,-0.491875,-0.015606,-0.870526,0.001411,0.000347,-0.001773,44.309940,2.533029,2.375765,,,,,,
1465825285.64,-0.522369,0.015631,-0.550643,0.017968,-0.799221,0.021326,-0.498874,-0.015631,-0.866534,0.000827,0.003973,-0.007535,44.309940,2.533029,2.375765,,,,,,
1465825285.65,-0.530064,0.015689,-0.550383,0.018025,-0.756743,0.018930,-0.505526,-0.015688,-0.862668,0.000628,0.001635,-0.004901,44.366661,2.493883,0.900703,,,,,,
1465825285.66,-0.537202,0.015751,-0.550111,0.018095,-0.699409,0.019635,-0.511671,-0.015750,-0.859037,0.002134,0.004535,0.004927,44.366661,2.493883,0.900703,,,,,,
1465825285.67,-0.544101,0.015805,-0.549850,0.018106,-0.690914,0.019582,-0.517584,-0.015805,-0.855486,0.012473,0.002362,0.008349,44.366661,2.493883,0.900703,,,,,,
1465825285.68,-0.551294,0.015834,-0.549576,0.019104,-0.741884,0.020967,-0.523724,-0.015833,-0.851741,0.019727,0.003230,0.003276,44.376118,2.476431,0.241978,,,,,,
1465825285.69,-0.559213,0.015879,-0.549297,0.019022,-0.807715,0.021380,-0.530452,-0.015879,-0.847566,0.023158,0.002786,0.000475,44.376118,2.476431,0.241978,,,,,,
1465825285.70,-0.567679,0.015913,-0.548995,0.018955,-0.857626,0.023822,-0.537608,-0.015912,-0.843045,0.025767,0.001294,0.002911,44.376118,2.476431,0.241978,,,,,,
1465825285.71,-0.576628,0.015955,-0.548662,0.022082,-0.907538,0.026267,-0.545131,-0.015955,-0.838199,0.034511,0.001901,0.009525,44.365005,2.437722,-1.111382,,,,,,
1465825285.72,-0.586399,0.015994,-0.548285,0.025144,-1.008420,0.030096,-0.553295,-0.015993,-0.832832,0.047649,0.002123,0.015739,44.365005,2.437722,-1.111382,,,,,,
1465825285.73,-0.597778,0.016035,-0.547840,0.029167,-1.187881,0.036548,-0.562735,-0.016034,-0.826482,0.070379,0.002591,0.022268,44.365005,2.437722,-1.111382,,,,,,
1465825285.74,-0.611722,0.016079,-0.547311,0.035190,-1.472459,0.042596,-0.574204,-0.016078,-0.818554,0.095551,0.004680,0.030438,44.337776,2.412596,-1.942291,,,,,,
1465825285.75,-0.629311,0.016108,-0.546698,0.038955,-1.857910,0.050340,-0.588512,-0.016107,-0.808328,0.112789,0.006540,0.024621,44.337776,2.412596,-1.942291,,,,,,
1465825285.76,-0.650432,0.016114,-0.545972,0.045989,-2.181781,0.058765,-0.605452,-0.016114,-0.795719,0.099135,0.005371,0.000934,44.337776,2.412596,-1.942291,,,,,,
1465825285.77,-0.673404,0.016117,-0.545168,0.052195,-2.320892,0.063901,-0.623569,-0.016116,-0.781602,0.086933,0.006518,0.011262,44.337776,2.412596,-1.942291,,,,,,
1465825285.78,-0.697454,0.016097,-0.544304,0.056289,-2.444077,0.070000,-0.642185,-0.016096,-0.766380,0.097202,0.007048,0.069496,44.126991,2.327461,-4.777357,,,,,,
1465825285.79,-0.724082,0.016057,-0.543326,0.061211,-2.752023,0.079387,-0.662363,-0.016057,-0.749011,0.090128,0.003605,0.038424,44.126991,2.327461,-4.777357,,,,,,
1465825285.80,-0.754811,0.015961,-0.542254,0.068128,-3.169333,0.088398,-0.685064,-0.015960,-0.728308,0.077337,0.005050,0.032324,43.856800,2.263666,-6.847513,,,,,,
1465825285.81,-0.788500,0.015823,-0.541078,0.073127,-3.419936,0.095297,-0.709208,-0.015822,-0.704822,0.084086,0.006881,0.066562,43.856800,2.263666,-6.847513,,,,,,
1465825285.82,-0.824053,0.015633,-0.539871,0.075030,-3.597264,0.098540,-0.733815,-0.015633,-0.679170,0.051427,0.003792,0.053193,43.856800,2.263666,-6.847513,,,,,,
1465825285.83,-0.861052,0.015388,-0.538599,0.080189,-3.721509,0.103582,-0.758439,-0.015387,-0.651563,0.054993,0.004111,0.064511,42.649403,2.084519,-12.333477,,,,,,
1465825285.84,-0.899160,0.015107,-0.537301,0.082170,-3.838311,0.105381,-0.782715,-0.015107,-0.622197,0.037751,0.006409,0.052449,42.649403,2.084519,-12.333477,,,,,,
1465825285.85,-0.938555,0.014750,-0.535942,0.087327,-3.961501,0.112546,-0.806617,-0.014750,-0.590890,0.024665,0.000132,0.049142,42.649403,2.084519,-12.333477,,,,,,
1465825285.86,-0.978645,0.014300,-0.534626,0.080870,-4.017770,0.111828,-0.829657,-0.014299,-0.558090,0.016730,0.006639,0.052765,42.649403,2.084519,-12.333477,,,,,,
1465825285.87,-1.018926,0.013850,-0.533286,0.089388,-4.020954,0.109727,-0.851464,-0.013849,-0.524231,0.021981,0.003076,0.062774,40.251114,1.854535,-18.757393,,,,,,
1465825285.88,-1.059611,0.013295,-0.531966,0.087207,-4.062365,0.109985,-0.872088,-0.013295,-0.489168,-0.020994,0.012593,0.028857,40.251114,1.854535,-18.757393,,,,,,
1465825285.89,-1.100376,0.012719,-0.530676,0.082943,-4.064489,0.111058,-0.891306,-0.012719,-0.453224,-0.033117,0.001107,0.025185,40.251114,1.854535,-18.757393,,,,,,
1465825285.90,-1.139860,0.012112,-0.529470,0.084232,-3.892466,0.105723,-0.908508,-0.012111,-0.417691,-0.039078,0.009319,0.042630,38.606926,1.730364,-21.953190,,,,,,
1465825285.91,-1.176761,0.011492,-0.528323,0.074986,-3.629125,0.100869,-0.923307,-0.011491,-0.383892,-0.035541,0.009752,0.052074,38.606926,1.730364,-21.953190,,,,,,
1465825285.92,-1.212435,0.010864,-0.527238,0.077217,-3.551609,0.098256,-0.936418,-0.010863,-0.350719,-0.089492,-0.006745,-0.026295,38.606926,1.730364,-21.953190,,,,,,
1465825285.93,-1.246307,0.010214,-0.526242,0.071144,-3.305259,0.093511,-0.947764,-0.010214,-0.318809,-0.063192,0.008291,0.038520,34.822945,1.494768,-27.578243,,,,,,
1465825285.94,-1.276906,0.009593,-0.525321,0.067296,-2.989881,0.084078,-0.957080,-0.009593,-0.289665,-0.048566,-0.001516,0.009575,34.822945,1.494768,-27.578243,,,,,,
1465825285.95,-1.305406,0.008979,-0.524482,0.065405,-2.802997,0.080776,-0.964951,-0.008979,-0.262276,-0.046661,0.003806,0.022606,34.822945,1.494768,-27.578243,,,,,,
1465825285.96,-1.332664,0.008358,-0.523669,0.061272,-2.704244,0.079088,-0.971746,-0.008358,-0.235880,-0.011301,0.002605,0.011790,32.976990,1.392694,-29.765919,,,,,,
1465825285.97,-1.359739,0.007735,-0.522914,0.060205,-2.709547,0.076991,-0.977781,-0.007735,-0.209488,-0.006457,0.001739,0.005890,32.976990,1.392694,-29.765919,,,,,,
1465825285.98,-1.386819,0.007087,-0.522148,0.062338,-2.703183,0.079082,-0.983099,-0.007087,-0.182937,0.003515,0.006721,0.030028,32.976990,1.392694,-29.765919,,,,,,
1465825285.99,-1.413819,0.006413,-0.521405,0.063408,-2.701057,0.078005,-0.987684,-0.006413,-0.156331,0.029539,0.001102,0.031453,29.517754,1.214501,-33.206303,,,,,,
1465825286.00,-1.441322,0.005725,-0.520687,0.062248,-2.775386,0.079535,-0.991614,-0.005725,-0.129111,0.013541,0.011020,0.025442,29.517754,1.214501,-33.206303,,,,,,
1465825286.01,-1.469930,0.004991,-0.519971,0.062113,-2.879448,0.082316,-0.994905,-0.004991,-0.100694,0.004793,-0.003264,0.008608,27.667091,1.127648,-34.766243,,,,,,
1465825286.02,-1.498425,0.004238,-0.519266,0.065365,-2.834851,0.080975,-0.997373,-0.004238,-0.072307,0.039045,0.015377,0.059002,27.667091,1.127648,-34.766243,,,,,,
1465825286.03,-1.527037,0.003441,-0.518538,0.067427,-2.883704,0.084477,-0.999037,-0.003441,-0.043745,0.035002,0.000618,0.031340,27.667091,1.127648,-34.766243,,,,,,
1465825286.04,-1.557056,0.002598,-0.517841,0.068285,-3.045104,0.087619,-0.999902,-0.002598,-0.013740,0.018259,0.009998,0.019737,25.639790,1.039457,-36.289837,,,,,,
1465825286.05,-1.588444,0.001672,-0.517140,0.068139,-3.153423,0.093621,-0.999843,-0.001672,0.017646,0.026607,-0.003898,0.025399,25.639790,1.039457,-36.289837,,,,,,
1465825286.06,-1.619916,0.000718,-0.516452,0.074535,-3.147055,0.093587,-0.998794,-0.000718,0.049100,0.045318,0.016022,0.066195,25.639790,1.039457,-36.289837,,,,,,
1465825286.07,-1.652105,-0.000279,-0.515782,0.072272,-3.250055,0.096360,-0.996696,0.000279,0.081219,0.048820,-0.001515,0.043964,21.056225,0.851607,-39.132362,,,,,,
1465825286.08,-1.686188,-0.001323,-0.515123,0.079449,-3.468792,0.098803,-0.993349,0.001323,0.115136,0.023439,0.011189,0.020240,21.056225,0.851607,-39.132362,,,,,,
1465825286.10,-1.757779,-0.003624,-0.513870,0.081462,-3.551632,0.105711,-0.982563,0.003624,0.185894,0.057347,0.014763,0.085163,21.056225,0.851607,-39.132362,,,,,,
1465825286.09,-1.722103,-0.002451,-0.514485,0.076068,-3.611084,0.103950,-0.988572,0.002451,0.150730,0.016679,-0.001474,0.027081,21.056225,0.851607,-39.132362,,,,,,
1465825286.11,-1.793910,-0.004854,-0.513273,0.084523,-3.652513,0.109540,-0.975202,0.004854,0.221265,0.056455,0.007643,0.064288,15.481312,0.653691,-41.657330,,,,,,
1465825286.12,-1.832474,-0.006189,-0.512713,0.087345,-3.938160,0.118786,-0.965939,0.006189,0.258696,0.046261,0.008811,0.041902,15.481312,0.653691,-41.657330,,,,,,
1465825286.13,-1.874037,-0.007611,-0.512180,0.090185,-4.218481,0.121611,-0.954346,0.007611,0.298606,0.049531,0.007892,0.044442,12.330517,0.550776,-42.697617,,,,,,
1465825286.14,-1.918603,-0.009107,-0.511721,0.093163,-4.384140,0.126911,-0.940084,0.009106,0.340823,0.016118,0.000369,0.044187,12.330517,0.550776,-42.697617,,,,,,
1465825286.15,-1.962577,-0.010668,-0.511322,0.095304,-4.370347,0.130020,-0.924178,0.010668,0.381813,0.022689,0.011244,0.087425,12.330517,0.550776,-42.697617,,,,,,
1465825286.16,-2.006434,-0.012272,-0.510927,0.100610,-4.380975,0.132221,-0.906533,0.012272,0.421957,0.018578,0.002407,0.074671,8.612702,0.446031,-43.601078,,,,,,
1465825286.17,-2.051232,-0.013915,-0.510643,0.098322,-4.502028,0.136171,-0.886708,0.013914,0.462121,0.010899,0.005968,0.052833,8.612702,0.446031,-43.601078,,,,,,
1465825286.18,-2.097353,-0.015641,-0.510412,0.102443,-4.610340,0.137919,-0.864437,0.015641,0.502498,0.047497,0.011062,0.088872,8.612702,0.446031,-43.601078,,,,,,
1465825286.19,-2.145221,-0.017422,-0.510245,0.108541,-4.835458,0.143595,-0.839378,0.017422,0.543269,0.032996,0.005100,0.070836,0.724241,0.246185,-44.439240,,,,,,
1465825286.20,-2.195679,-0.019265,-0.510222,0.103942,-5.097735,0.150557,-0.810881,0.019264,0.584894,0.011824,0.006615,0.054938,0.724241,0.246185,-44.439240,,,,,,
1465825286.21,-2.247564,-0.021162,-0.510266,0.113389,-5.202865,0.153355,-0.779427,0.021161,0.626136,0.021477,0.006717,0.100167,0.724241,0.246185,-44.439240,,,,,,
1465825286.22,-2.300577,-0.023050,-0.510397,0.114298,-5.323916,0.156244,-0.745123,0.023048,0.666529,-0.042017,0.001671,0.058141,-3.641350,0.155776,-44.296135,,,,,,
1465825286.23,-2.353985,-0.024933,-0.510673,0.105775,-5.329218,0.155204,-0.708447,0.024930,0.705323,-0.093280,0.006518,0.017363,-3.641350,0.155776,-44.296135,,,,,,
1465825286.24,-2.405053,-0.026732,-0.511016,0.105135,-4.998982,0.147810,-0.671489,0.026729,0.740533,-0.097600,-0.002132,0.049598,-3.641350,0.155776,-44.296135,,,,,,
1465825286.25,-2.451564,-0.028348,-0.511424,0.095090,-4.536002,0.134252,-0.636303,0.028344,0.770918,-0.109806,0.007911,0.067568,-12.767411,0.014520,-42.572578,,,,,,
1465825286.26,-2.494420,-0.029839,-0.511841,0.088027,-4.215336,0.122643,-0.602665,0.029834,0.797436,-0.124492,0.000149,0.012012,-12.767411,0.014520,-42.572578,,,,,,
1465825286.27,-2.534708,-0.031213,-0.512286,0.085159,-3.963672,0.115739,-0.570034,0.031207,0.821028,-0.163868,0.001340,-0.026381,-12.767411,0.014520,-42.572578,,,,,,
1465825286.28,-2.571198,-0.032444,-0.512753,0.072952,-3.522994,0.104448,-0.539680,0.032438,0.841245,-0.175560,-0.001829,-0.032621,-16.515018,-0.025419,-41.263603,,,,,,
1465825286.29,-2.601742,-0.033473,-0.513158,0.063120,-2.898605,0.084555,-0.513720,0.033467,0.857305,-0.176877,0.000057,-0.020955,-16.515018,-0.025419,-41.263603,,,,,,
1465825286.30,-2.625799,-0.034265,-0.513514,0.045867,-2.246608,0.065547,-0.492936,0.034258,0.869391,-0.183684,-0.000597,-0.033835,-16.515018,-0.025419,-41.263603,,,,,,
1465825286.31,-2.643648,-0.034875,-0.513774,0.037064,-1.646646,0.047937,-0.477330,0.034868,0.878032,-0.186671,0.000837,-0.053798,-21.776375,-0.063431,-38.745537,,,,,,
1465825286.32,-2.655642,-0.035277,-0.513952,0.023986,-1.060486,0.030410,-0.466758,0.035269,0.883681,-0.185357,-0.002707,-0.068786,-21.776375,-0.063431,-38.745537,,,,,,
1465825286.33,-2.661429,-0.035483,-0.514039,0.010945,-0.443533,0.012690,-0.461633,0.035476,0.886361,-0.172491,0.000855,-0.056237,-21.776375,-0.063431,-38.745537,,,,,,
1465825286.34,-2.654411,-0.035404,-0.513794,-0.002118,0.158584,-0.002808,-0.467844,0.035396,0.883102,-0.157904,-0.001415,-0.055969,-22.922287,-0.070009,-38.078804,,,,,,
1465825286.35,-2.648589,-0.035227,-0.513699,-0.014164,0.719260,-0.020174,-0.472980,0.035220,0.880369,-0.145184,0.001172,-0.052076,-22.922287,-0.070009,-38.078804,,,,,,
1465825286.36,-2.637459,-0.034902,-0.513510,-0.022004,1.239582,-0.036219,-0.482755,0.034894,0.875060,-0.143465,-0.001966,-0.050963,-22.875591,-0.078932,-38.106857,,,,,,
1465825286.37,-2.621180,-0.034378,-0.513256,-0.036236,1.756723,-0.052250,-0.496944,0.034371,0.867101,-0.130131,0.001060,-0.040930,-22.875591,-0.078932,-38.106857,,,,,,
1465825286.38,-2.599690,-0.033716,-0.512930,-0.043022,2.273850,-0.065080,-0.515474,0.033710,0.856242,-0.105040,-0.001270,-0.009639,-22.875591,-0.078932,-38.106857,,,,,,
1465825286.39,-2.573801,-0.032897,-0.512548,-0.051010,2.679492,-0.078276,-0.537481,0.032891,0.842634,-0.089488,0.004737,-0.001265,-22.875591,-0.078932,-38.106857,,,,,,
1465825286.40,-2.544630,-0.031951,-0.512159,-0.060189,2.990623,-0.086624,-0.561846,0.031945,0.826625,-0.071043,-0.002496,-0.001567,-20.758188,-0.073039,-39.300430,,,,,,
1465825286.41,-2.512820,-0.030874,-0.511771,-0.066260,3.233796,-0.094541,-0.587872,0.030869,0.808365,-0.066776,0.007370,0.009262,-20.758188,-0.073039,-39.300430,,,,,,
1465825286.42,-2.478457,-0.029714,-0.511392,-0.073355,3.508825,-0.102660,-0.615319,0.029710,0.787718,-0.049293,0.002776,0.028475,-20.758188,-0.073039,-39.300430,,,,,,
1465825286.43,-2.441222,-0.028473,-0.511039,-0.074074,3.782773,-0.105443,-0.644240,0.028469,0.764294,-0.008699,0.007068,0.080372,-15.854815,-0.039657,-41.521736,,,,,,
1465825286.45,-2.364712,-0.025851,-0.510437,-0.075167,3.755176,-0.108465,-0.700824,0.025848,0.712866,0.023746,0.006302,0.053065,-15.854815,-0.039657,-41.521736,,,,,,
1465825286.44,-2.402608,-0.027159,-0.510718,-0.076090,3.864547,-0.111280,-0.673289,0.027155,0.738880,0.023707,0.007680,0.072735,-15.854815,-0.039657,-41.521736,,,,,,
1465825286.46,-2.328055,-0.024550,-0.510200,-0.075313,3.635198,-0.109841,-0.726503,0.024547,0.686725,0.033586,0.008763,0.059415,-12.663621,-0.006607,-42.603569,,,,,,
1465825286.47,-2.292058,-0.023267,-0.510036,-0.074305,3.600140,-0.103234,-0.750770,0.023264,0.660154,0.029731,0.003210,0.066195,-12.663621,-0.006607,-42.603569,,,,,,
1465825286.48,-2.255574,-0.021988,-0.509918,-0.072107,3.653232,-0.104629,-0.774372,0.021986,0.632348,0.083958,0.014009,0.128043,-12.663621,-0.006607,-42.603569,,,,,,
1465825286.49,-2.220292,-0.020777,-0.509871,-0.070236,3.458901,-0.095957,-0.796217,0.020776,0.604654,0.112638,0.006553,0.119192,-6.286394,0.081700,-43.998932,,,,,,
1465825286.50,-2.188579,-0.019706,-0.509829,-0.056911,3.058574,-0.085982,-0.815007,0.019705,0.579117,0.163594,0.008905,0.106156,-6.286394,0.081700,-43.998932,,,,,,
1465825286.51,-2.162411,-0.018779,-0.509828,-0.050235,2.454378,-0.072606,-0.829895,0.018778,0.557603,0.167999,0.011053,0.085936,-6.286394,0.081700,-43.998932,,,,,,
1465825286.52,-2.142328,-0.018048,-0.509835,-0.039265,1.880967,-0.057290,-0.840936,0.018047,0.540833,0.151544,0.005177,0.045730,-3.327066,0.130677,-44.320934,,,,,,
1465825286.53,-2.126393,-0.017463,-0.509840,-0.029104,1.507184,-0.046420,-0.849456,0.017463,0.527370,0.166671,0.014871,0.090596,-3.327066,0.130677,-44.320934,,,,,,
1465825286.54,-2.113995,-0.017049,-0.509844,-0.022123,1.149320,-0.032460,-0.855935,0.017048,0.516802,0.169275,0.009151,0.091978,-3.327066,0.130677,-44.320934,,,,,,
1465825286.55,-2.105813,-0.016761,-0.509848,-0.013122,0.699088,-0.021111,-0.860139,0.016760,0.509784,0.167604,0.012293,0.069837,-0.015594,0.192290,-44.445408,,,,,,
1465825286.56,-2.102443,-0.016637,-0.509865,-0.005232,0.216993,-0.006371,-0.861854,0.016636,0.506883,0.159797,0.006054,0.050734,-0.015594,0.192290,-44.445408,,,,,,
1465825286.57,-2.103655,-0.016677,-0.509849,0.005904,-0.228993,0.004953,-0.861239,0.016677,0.507927,0.159136,0.007051,0.054436,-0.015594,0.192290,-44.445408,,,,,,
1465825286.58,-2.108998,-0.016864,-0.509816,0.013893,-0.633573,0.018142,-0.858510,0.016863,0.512520,0.154378,0.009306,0.055946,0.497776,0.202524,-44.442577,,,,,,
1465825286.60,-2.131463,-0.017698,-0.509735,0.029915,-1.411936,0.042200,-0.846768,0.017697,0.531668,0.135495,0.010440,0.048196,0.497776,0.202524,-44.442577,,,,,,
1465825286.59,-2.118293,-0.017215,-0.509776,0.022960,-1.026477,0.032325,-0.853704,0.017214,0.520474,0.144704,0.006056,0.052875,0.497776,0.202524,-44.442577,,,,,,
1465825286.61,-2.148288,-0.018306,-0.509709,0.036905,-1.768725,0.051896,-0.837694,0.018305,0.545833,0.119555,0.005957,0.038091,-0.791950,0.173202,-44.438431,,,,,,
1465825286.62,-2.168257,-0.019020,-0.509694,0.043968,-2.068178,0.061232,-0.826617,0.019019,0.562443,0.102344,0.008187,0.039379,-0.791950,0.173202,-44.438431,,,,,,
1465825286.63,-2.190583,-0.019841,-0.509680,0.050084,-2.277371,0.067872,-0.813842,0.019840,0.580748,0.091521,0.004468,0.039064,-2.425951,0.141293,-44.379345,,,,,,
1465825286.64,-2.214806,-0.020729,-0.509685,0.053015,-2.482309,0.072354,-0.799523,0.020728,0.600278,0.107567,0.010095,0.070315,-2.425951,0.141293,-44.379345,,,,,,
1465825286.65,-2.242327,-0.021679,-0.509720,0.056801,-2.850771,0.079991,-0.782686,0.021677,0.622039,0.076631,0.006033,0.025513,-2.425951,0.141293,-44.379345,,,,,,
1465825286.66,-2.272876,-0.022762,-0.509773,0.064995,-3.097134,0.088995,-0.763303,0.022760,0.645640,0.035901,0.001288,-0.003824,-4.488255,0.101745,-44.218513,,,,,,
1465825286.67,-2.304228,-0.023858,-0.509883,0.062817,-3.134299,0.090291,-0.742670,0.023856,0.669232,0.015299,0.006280,0.024738,-4.488255,0.101745,-44.218513,,,,,,
1465825286.68,-2.334944,-0.024938,-0.510042,0.061875,-3.036613,0.089677,-0.721748,0.024935,0.691707,-0.033821,0.001417,0.002156,-4.488255,0.101745,-44.218513,,,,,,
1465825286.69,-2.363393,-0.025944,-0.510213,0.055833,-2.770079,0.081613,-0.701762,0.025941,0.711939,-0.048466,0.001342,0.008734,-9.754877,0.018668,-43.362122,,,,,,
1465825286.70,-2.388884,-0.026852,-0.510395,0.053011,-2.482315,0.074483,-0.683372,0.026849,0.729577,-0.041985,0.001930,0.027397,-9.754877,0.018668,-43.362122,,,,,,
1465825286.71,-2.412650,-0.027709,-0.510575,0.051056,-2.346397,0.071500,-0.665826,0.027705,0.745592,-0.052085,0.002492,-0.004122,-9.754877,0.018668,-43.362122,,,,,,
1465825286.72,-2.435268,-0.028513,-0.510759,0.048013,-2.235950,0.064417,-0.648778,0.028509,0.760443,-0.044932,0.004023,-0.009955,-12.078122,-0.011856,-42.773243,,,,,,
1465825286.73,-2.456794,-0.029271,-0.510958,0.043903,-2.117027,0.063667,-0.632246,0.029267,0.774214,-0.062090,-0.001633,-0.020491,-12.078122,-0.011856,-42.773243,,,,,,
1465825286.74,-2.476375,-0.029935,-0.511141,0.041006,-1.894023,0.053750,-0.616954,0.029931,0.786430,-0.069417,0.005164,-0.028633,-12.078122,-0.011856,-42.773243,,,,,,
1465825286.75,-2.492936,-0.030514,-0.511304,0.032899,-1.574401,0.046415,-0.603835,0.030509,0.796525,-0.092988,-0.002677,-0.028214,-15.768634,-0.054250,-41.554527,,,,,,
1465825286.76,-2.505596,-0.030956,-0.511436,0.027054,-1.157083,0.034212,-0.593695,0.030951,0.804095,-0.100641,0.002908,-0.028506,-15.768634,-0.054250,-41.554527,,,,,,
1465825286.77,-2.513970,-0.031259,-0.511521,0.016958,-0.732331,0.021958,-0.586935,0.031254,0.809030,-0.103281,-0.001820,-0.028772,-15.768634,-0.054250,-41.554527,,,,,,
1465825286.78,-2.518227,-0.031419,-0.511574,0.007903,-0.325632,0.010883,-0.583483,0.031414,0.811517,-0.104490,-0.000454,-0.035913,-16.975683,-0.066456,-41.076187,,,,,,
1465825286.79,-2.513999,-0.031343,-0.511421,-0.000105,0.064106,-0.002214,-0.586910,0.031338,0.809046,-0.096257,-0.001202,-0.033441,-16.975683,-0.066456,-41.076187,,,,,,
1465825286.80,-2.510495,-0.031235,-0.511377,-0.007066,0.445318,-0.012063,-0.589744,0.031230,0.806986,-0.092446,0.000935,-0.029643,-16.975683,-0.066456,-41.076187,,,,,,
1465825286.81,-2.498898,-0.030956,-0.511160,-0.015094,0.822307,-0.022951,-0.599068,0.030951,0.800100,-0.080284,0.000268,-0.025472,-17.176769,-0.075132,-40.992493,,,,,,
1465825286.82,-2.487934,-0.030600,-0.511040,-0.023141,1.184409,-0.033746,-0.607810,0.030595,0.793493,-0.068902,0.000120,-0.013448,-17.176769,-0.075132,-40.992493,,,,,,
1465825286.84,-2.457132,-0.029598,-0.510719,-0.034158,1.719596,-0.048822,-0.631979,0.029594,0.774421,-0.038905,0.000588,0.000619,-16.248058,-0.073356,-41.369392,,,,,,
1465825286.83,-2.473768,-0.030142,-0.510883,-0.028073,1.485982,-0.042029,-0.618998,0.030137,0.784814,-0.049703,0.002730,-0.000802,-16.248058,-0.073356,-41.369392,,,,,,
1465825286.85,-2.438610,-0.029005,-0.510538,-0.033943,1.886308,-0.053061,-0.646224,0.029001,0.762596,-0.010423,0.003134,0.017326,-16.248058,-0.073356,-41.369392,,,,,,
1465825286.86,-2.419043,-0.028342,-0.510369,-0.040217,1.972326,-0.056800,-0.661034,0.028338,0.749821,0.006234,0.005201,0.026928,-16.248058,-0.073356,-41.369392,,,,,,
1465825286.87,-2.399008,-0.027670,-0.510192,-0.038038,2.009491,-0.058095,-0.675936,0.027667,0.736441,0.022646,0.003568,0.024423,-13.362481,-0.047039,-42.389542,,,,,,
1465825286.88,-2.378968,-0.026962,-0.510038,-0.041248,1.993571,-0.060128,-0.690570,0.026958,0.722763,0.030338,0.008412,0.037949,-13.362481,-0.047039,-42.389542,,,,,,
1465825286.89,-2.359004,-0.026273,-0.509899,-0.040173,2.005244,-0.058071,-0.704874,0.026270,0.708846,0.024683,0.000235,0.019700,-13.362481,-0.047039,-42.389542,,,,,,
1465825286.90,-2.338757,-0.025584,-0.509757,-0.039058,2.042413,-0.060432,-0.719094,0.025581,0.694442,0.040535,0.009102,0.053559,-11.653822,-0.027937,-42.890778,,,,,,
1465825286.91,-2.318486,-0.024849,-0.509652,-0.043322,2.038167,-0.060409,-0.733036,0.024847,0.679736,0.027835,-0.000387,0.038068,-11.653822,-0.027937,-42.890778,,,,,,
1465825286.92,-2.297927,-0.024105,-0.509539,-0.040093,2.062592,-0.062688,-0.746868,0.024102,0.664536,0.033351,0.007849,0.038086,-11.653822,-0.027937,-42.890778,,,,,,
1465825286.93,-2.276833,-0.023376,-0.509449,-0.042147,2.124175,-0.062012,-0.760731,0.023374,0.648646,0.041402,0.000216,0.057104,-8.144009,0.018667,-43.693321,,,,,,
1465825286.94,-2.255824,-0.022657,-0.509378,-0.040086,2.076381,-0.057452,-0.774202,0.022655,0.632532,0.078219,0.010746,0.083532,-8.144009,0.018667,-43.693321,,,,,,
1465825286.95,-2.236935,-0.022003,-0.509355,-0.038278,1.826844,-0.051628,-0.786023,0.022002,0.617805,0.100904,0.005601,0.071922,-8.144009,0.018667,-43.693321,,,,,,
1465825286.96,-2.221291,-0.021464,-0.509331,-0.029154,1.474298,-0.040892,-0.795601,0.021462,0.605441,0.109474,0.007728,0.049100,-6.297930,0.045780,-43.997337,,,,,,
1465825286.97,-2.208823,-0.021033,-0.509309,-0.022079,1.181222,-0.033725,-0.803095,0.021031,0.595480,0.112040,0.005092,0.048487,-6.297930,0.045780,-43.997337,,,,,,
1465825286.99,-2.192150,-0.020485,-0.509270,-0.011160,0.570642,-0.016047,-0.812921,0.020484,0.582014,0.150689,0.009515,0.080996,-4.775215,0.071395,-44.188499,,,,,,
1465825286.98,-2.198845,-0.020715,-0.509273,-0.013887,0.931676,-0.025765,-0.809002,0.020713,0.587441,0.137035,0.008874,0.076484,-4.775215,0.071395,-44.188499,,,,,,
1465825287.00,-2.189852,-0.020409,-0.509267,-0.000044,0.110849,-0.003572,-0.814257,0.020407,0.580145,0.153170,0.006875,0.054544,-4.775215,0.071395,-44.188499,,,,,,
1465825287.01,-2.192083,-0.020494,-0.509268,0.005770,-0.329831,0.009842,-0.812959,0.020493,0.581960,0.147859,0.006515,0.045421,-4.775215,0.071395,-44.188499,,,,,,
1465825287.02,-2.198207,-0.020708,-0.509270,0.015933,-0.702553,0.020705,-0.809377,0.020707,0.586925,0.142827,0.007324,0.047581,-3.383940,0.093163,-44.316719,,,,,,
1465825287.03,-2.207762,-0.021047,-0.509266,0.020823,-1.037044,0.030259,-0.803726,0.021046,0.594627,0.130020,0.004772,0.047966,-3.383940,0.093163,-44.316719,,,,,,
1465825287.04,-2.220391,-0.021471,-0.509273,0.027893,-1.335426,0.036395,-0.796145,0.021469,0.604725,0.106555,0.008301,0.036968,-3.383940,0.093163,-44.316719,,,,,,
1465825287.05,-2.235241,-0.021981,-0.509284,0.030847,-1.520193,0.041815,-0.787069,0.021980,0.616473,0.074392,0.002267,0.012922,-4.735504,0.069037,-44.192780,,,,,,
1465825287.06,-2.250892,-0.022553,-0.509284,0.035035,-1.572232,0.045339,-0.777315,0.022551,0.628707,0.061327,0.007020,0.030655,-4.735504,0.069037,-44.192780,,,,,,
1465825287.07,-2.267028,-0.023123,-0.509334,0.031763,-1.630635,0.047831,-0.767060,0.023121,0.641159,0.055603,0.003918,0.035705,-4.735504,0.069037,-44.192780,,,,,,
1465825287.08,-2.284151,-0.023736,-0.509384,0.035878,-1.740012,0.051714,-0.755958,0.023734,0.654190,0.039588,0.004800,0.019089,-6.080938,0.044593,-44.027847,,,,,,
1465825287.09,-2.302066,-0.024366,-0.509440,0.037935,-1.799471,0.051025,-0.744106,0.024364,0.667617,0.012524,0.003911,-0.009490,-6.080938,0.044593,-44.027847,,,,,,
1465825287.10,-2.319476,-0.024967,-0.509510,0.034865,-1.703901,0.048293,-0.732360,0.024964,0.680460,-0.017320,0.004134,-0.014078,-6.080938,0.044593,-44.027847,,,,,,
1465825287.11,-2.334662,-0.025506,-0.509587,0.029869,-1.450116,0.042439,-0.721933,0.025503,0.691493,-0.030234,-0.000036,0.003987,-9.083607,-0.002219,-43.507698,,,,,,
1465825287.12,-2.347314,-0.025963,-0.509648,0.026984,-1.210135,0.036673,-0.713118,0.025960,0.700563,-0.019289,0.005077,0.012190,-9.083607,-0.002219,-43.507698,,,,,,
1465825287.13,-2.358278,-0.026379,-0.509709,0.023972,-1.067846,0.033649,-0.705387,0.026376,0.708332,-0.022641,0.001792,0.010479,-9.083607,-0.002219,-43.507698,,,,,,
1465825287.14,-2.368615,-0.026751,-0.509774,0.021899,-1.028550,0.030207,-0.698020,0.026748,0.715578,-0.008859,0.003053,0.000196,-10.290958,-0.019843,-43.238029,,,,,,
1465825287.15,-2.378872,-0.027115,-0.509821,0.021910,-1.021114,0.029096,-0.690637,0.027111,0.722693,-0.012991,0.004322,-0.016547,-10.290958,-0.019843,-43.238029,,,,,,
1465825287.16,-2.388391,-0.027437,-0.509903,0.017785,-0.915991,0.027368,-0.683720,0.027433,0.729228,-0.029491,-0.000410,-0.014568,-10.290958,-0.019843,-43.238029,,,,,,
1465825287.18,-2.401216,-0.027925,-0.509983,0.010911,-0.470004,0.014984,-0.674303,0.027922,0.737926,-0.031385,0.001390,0.013157,-12.057630,-0.043993,-42.779003,,,,,,
1465825287.17,-2.395977,-0.027723,-0.509946,0.017001,-0.699371,0.021751,-0.678163,0.027719,0.734388,-0.023100,0.004965,-0.018247,-12.057630,-0.043993,-42.779003,,,,,,
1465825287.19,-2.404738,-0.028071,-0.509986,0.011107,-0.320278,0.009787,-0.671697,0.028067,0.740294,-0.014704,0.003976,0.000765,-12.057630,-0.043993,-42.779003,,,,,,
1465825287.20,-2.407293,-0.028175,-0.509989,0.006958,-0.236387,0.007128,-0.669801,0.028171,0.742006,-0.014265,0.000805,-0.007081,-12.605151,-0.052170,-42.620872,,,,,,
1465825287.21,-2.408137,-0.028470,-0.509981,0.003878,-0.148246,0.004444,-0.669169,0.028466,0.742564,-0.007481,0.003531,-0.013515,-12.605151,-0.052170,-42.620872,,,,,,
1465825287.22,-2.408669,-0.028500,-0.509978,0.001915,-0.018699,0.001501,-0.668774,0.028496,0.742920,-0.013599,0.000252,0.006699,-12.605151,-0.052170,-42.620872,,,,,,
1465825287.23,-2.407438,-0.028558,-0.509963,-0.003208,0.134216,-0.003721,-0.669687,0.028555,0.742095,-0.004828,0.001719,-0.000746,-12.922498,-0.065550,-42.525711,,,,,,
1465825287.24,-2.405070,-0.028496,-0.509939,-0.003034,0.269071,-0.006695,-0.671443,0.028492,0.740508,-0.007802,0.001660,0.006608,-12.922498,-0.065550,-42.525711,,,,,,
1465825287.25,-2.401549,-0.028380,-0.509911,-0.007151,0.377386,-0.010572,-0.674048,0.028376,0.738142,-0.000543,0.001913,0.003923,-12.922498,-0.065550,-42.525711,,,,,,
1465825287.26,-2.397110,-0.028231,-0.509869,-0.008102,0.463401,-0.014306,-0.677322,0.028228,0.735145,0.001327,0.003343,0.001381,-12.769406,-0.066931,-42.571930,,,,,,
1465825287.27,-2.391916,-0.028062,-0.509812,-0.009069,0.537734,-0.016902,-0.681134,0.028058,0.731621,0.000058,0.002216,0.002418,-12.769406,-0.066931,-42.571930,,,,,,
1465825287.28,-2.385904,-0.027863,-0.509746,-0.011115,0.623716,-0.019582,-0.685524,0.027859,0.727517,0.001396,0.004688,0.006324,-12.430196,-0.063529,-42.672211,,,,,,
1465825287.29,-2.378909,-0.027622,-0.509684,-0.013116,0.724591,-0.021281,-0.690600,0.027618,0.722709,0.007495,0.003235,0.008278,-12.430196,-0.063529,-42.672211,,,,,,
1465825287.30,-2.371430,-0.027424,-0.509630,-0.015124,0.818035,-0.023998,-0.695990,0.027421,0.717528,0.012839,0.002731,0.020006,-12.430196,-0.063529,-42.672211,,,,,,
1465825287.31,-2.363091,-0.027198,-0.509590,-0.017178,0.879616,-0.023321,-0.701954,0.027194,0.711703,0.029041,0.004483,0.017881,-11.330651,-0.054068,-42.977257,,,,,,
1465825287.32,-2.354494,-0.026935,-0.509544,-0.016123,0.872181,-0.023274,-0.708051,0.026931,0.705647,0.030195,0.003312,0.015391,-11.330651,-0.054068,-42.977257,,,,,,
1465825287.33,-2.346284,-0.026667,-0.509496,-0.017253,0.818033,-0.024000,-0.713826,0.026664,0.699815,0.025014,0.002023,0.006560,-11.330651,-0.054068,-42.977257,,,,,,
1465825287.34,-2.338540,-0.026411,-0.509454,-0.016228,0.786177,-0.023799,-0.719229,0.026408,0.694271,0.021246,0.002798,0.006184,-10.601278,-0.046132,-43.162971,,,,,,
1465825287.35,-2.330889,-0.026191,-0.509417,-0.016185,0.822273,-0.022960,-0.724523,0.026188,0.688752,0.011846,0.002270,0.016295,-10.601278,-0.046132,-43.162971,,,,,,
1465825287.36,-2.323123,-0.025990,-0.509407,-0.019265,0.908284,-0.026696,-0.729854,0.025987,0.683108,0.017605,0.002318,0.018140,-10.601278,-0.046132,-43.162971,,,,,,
1465825287.37,-2.313588,-0.025658,-0.509338,-0.019163,0.984742,-0.030369,-0.736341,0.025655,0.676125,0.011228,0.001689,0.019142,-9.242338,-0.029644,-43.474243,,,,,,
1465825287.38,-2.303398,-0.025296,-0.509289,-0.020176,1.026153,-0.030629,-0.743199,0.025293,0.668592,0.018132,0.003577,0.012102,-9.242338,-0.029644,-43.474243,,,,,,
1465825287.39,-2.292846,-0.024939,-0.509227,-0.019066,1.063313,-0.029797,-0.750219,0.024936,0.660719,0.034002,0.004223,0.028689,-9.242338,-0.029644,-43.474243,,,,,,
1465825287.40,-2.282215,-0.024574,-0.509183,-0.021203,1.055884,-0.030817,-0.757208,0.024572,0.652712,0.053777,0.006907,0.035765,-9.242338,-0.029644,-43.474243,,,,,,
1465825287.41,-2.272499,-0.024249,-0.509147,-0.016029,0.943318,-0.025848,-0.763520,0.024246,0.645329,0.063538,0.004501,0.024211,-7.456892,-0.005642,-43.815819,,,,,,
1465825287.42,-2.264332,-0.023979,-0.509112,-0.014120,0.772358,-0.021580,-0.768770,0.023977,0.639076,0.074357,0.004221,0.028206,-7.456892,-0.005642,-43.815819,,,,,,
1465825287.43,-2.258024,-0.023755,-0.509091,-0.011171,0.582285,-0.017192,-0.772790,0.023753,0.634218,0.083687,0.004262,0.032302,-6.672247,0.005290,-43.942150,,,,,,
1465825287.44,-2.253708,-0.023610,-0.509071,-0.007174,0.381588,-0.010607,-0.775523,0.023608,0.630878,0.083750,0.004041,0.031811,-6.672247,0.005290,-43.942150,,,,,,
1465825287.45,-2.255260,-0.023874,-0.509152,-0.003159,0.191495,-0.006217,-0.774538,0.023872,0.632077,0.080797,0.005486,0.030444,-6.672247,0.005290,-43.942150,,,,,,
1465825287.46,-2.254688,-0.023872,-0.509146,-0.000202,0.013093,0.001292,-0.774899,0.023870,0.631634,0.080975,0.002375,0.028904,-6.205080,0.012237,-44.010544,,,,,,
1465825287.47,-2.255868,-0.023926,-0.509139,0.004895,-0.163178,0.005596,-0.774152,0.023923,0.632548,0.077756,0.005511,0.028631,-6.205080,0.012237,-44.010544,,,,,,
1465825287.48,-2.258823,-0.024035,-0.509140,0.006800,-0.338382,0.008825,-0.772278,0.024033,0.634830,0.072937,0.003662,0.027279,-6.205080,0.012237,-44.010544,,,,,,
1465825287.49,-2.266551,-0.024471,-0.509228,0.010840,-0.502996,0.016249,-0.767341,0.024469,0.640773,0.068061,0.004325,0.021047,-6.430040,0.005098,-43.978245,,,,,,
1465825287.50,-2.272676,-0.024699,-0.509245,0.013848,-0.648471,0.019293,-0.763397,0.024697,0.645457,0.059006,0.005745,0.018209,-6.430040,0.005098,-43.978245,,,,,,
1465825287.51,-2.280662,-0.025019,-0.509259,0.017952,-0.770586,0.021128,-0.758212,0.025017,0.651528,0.047366,0.003029,0.010978,-6.430040,0.005098,-43.978245,,,,,,
1465825287.52,-2.289158,-0.025334,-0.509284,0.015725,-0.844918,0.023721,-0.752643,0.025331,0.657941,0.032551,0.003630,0.005633,-7.038530,-0.006153,-43.884968,,,,,,
1465825287.53,-2.297882,-0.025642,-0.509316,0.017843,-0.852355,0.024834,-0.746869,0.025639,0.664477,0.019376,0.001643,0.007261,-7.038530,-0.006153,-43.884968,,,,,,
1465825287.54,-2.306393,-0.025969,-0.509357,0.017881,-0.821564,0.024641,-0.741181,0.025966,0.670803,0.006287,0.001164,0.002735,-7.038530,-0.006153,-43.884968,,,,,,
1465825287.55,-2.313994,-0.026252,-0.509378,0.015834,-0.761031,0.021066,-0.736055,0.026249,0.676413,-0.011595,0.000622,-0.006979,-8.513792,-0.031060,-43.622768,,,,,,
1465825287.56,-2.320538,-0.026554,-0.509405,0.012782,-0.649535,0.019300,-0.731607,0.026551,0.681209,-0.014090,0.002655,-0.007427,-8.513792,-0.031060,-43.622768,,,,,,
1465825287.57,-2.325520,-0.026748,-0.509402,0.012984,-0.495560,0.014076,-0.728200,0.026744,0.684842,-0.018015,0.000111,-0.002897,-8.513792,-0.031060,-43.622768,,,,,,
1465825287.58,-2.328768,-0.026932,-0.509396,0.008919,-0.345833,0.009940,-0.725968,0.026928,0.687201,-0.016433,0.001056,-0.004263,-9.129930,-0.042653,-43.497978,,,,,,
1465825287.59,-2.330720,-0.027060,-0.509388,0.005885,-0.221592,0.007029,-0.724623,0.027057,0.688614,-0.015092,0.000821,-0.004608,-9.129930,-0.042653,-43.497978,,,,,,
1465825287.60,-2.331681,-0.027140,-0.509369,0.003886,-0.122832,0.003214,-0.723959,0.027137,0.689309,-0.010934,0.000588,-0.006524,-9.129930,-0.042653,-43.497978,,,,,,
1465825287.61,-2.331548,-0.027244,-0.509354,0.001885,-0.021953,0.001515,-0.724049,0.027240,0.689210,-0.013286,0.001919,-0.007554,-9.614143,-0.057494,-43.393505,,,,,,
1465825287.62,-2.330451,-0.027280,-0.509338,-0.002232,0.086364,-0.002361,-0.724804,0.027276,0.688415,-0.011905,0.001380,-0.005614,-9.614143,-0.057494,-43.393505,,,,,,
1465825287.63,-2.328466,-0.027236,-0.509311,-0.003153,0.195740,-0.006241,-0.726170,0.027232,0.686975,-0.008144,0.000554,-0.001398,-9.614143,-0.057494,-43.393505,,,,,,
1465825287.64,-2.325576,-0.027208,-0.509275,-0.004091,0.293434,-0.008984,-0.728153,0.027205,0.684875,-0.005261,0.001695,0.000184,-9.560787,-0.061891,-43.405289,,,,,,
1465825287.65,-2.321840,-0.027034,-0.509245,-0.007167,0.383695,-0.011682,-0.730710,0.027031,0.682153,-0.002826,-0.001183,0.000800,-9.560787,-0.061891,-43.405289,,,,,,
1465825287.66,-2.317463,-0.026878,-0.509212,-0.007072,0.458024,-0.013213,-0.733692,0.026875,0.678950,0.001713,-0.000156,0.002644,-9.560787,-0.061891,-43.405289,,,,,,
1465825287.67,-2.312661,-0.026784,-0.509177,-0.009110,0.525988,-0.016834,-0.736945,0.026781,0.675422,0.008186,0.002379,0.007775,-8.996363,-0.057437,-43.525784,,,,,,
1465825287.68,-2.307453,-0.026627,-0.509153,-0.010108,0.579076,-0.017168,-0.740456,0.026624,0.671577,0.012643,0.001071,0.011407,-8.996363,-0.057437,-43.525784,,,,,,
1465825287.69,-2.302012,-0.026471,-0.509135,-0.011137,0.607742,-0.017348,-0.744102,0.026468,0.667541,0.025398,0.001395,0.012589,-8.996363,-0.057437,-43.525784,,,,,,
1465825287.70,-2.296747,-0.026330,-0.509113,-0.010091,0.593932,-0.016196,-0.747610,0.026327,0.663616,0.037099,0.001642,0.018452,-8.560289,-0.053935,-43.613647,,,,,,
1465825287.71,-2.292136,-0.026193,-0.509112,-0.009126,0.517472,-0.013587,-0.750664,0.026190,0.660165,0.042992,0.001139,0.016730,-8.560289,-0.053935,-43.613647,,,,,,
1465825287.72,-2.288742,-0.026103,-0.509105,-0.007131,0.410224,-0.012912,-0.752902,0.026100,0.657615,0.050494,0.001777,0.010247,-8.560289,-0.053935,-43.613647,,,,,,
1465825287.73,-2.286766,-0.026062,-0.509129,-0.006211,0.299780,-0.009025,-0.754201,0.026059,0.656126,0.048909,0.001728,0.015764,-7.742825,-0.043724,-43.766178,,,,,,
1465825287.74,-2.285922,-0.026103,-0.509154,-0.002086,0.199950,-0.004137,-0.754754,0.026100,0.655489,0.051949,0.002541,0.015211,-7.742825,-0.043724,-43.766178,,,,,,
1465825287.75,-2.286095,-0.026170,-0.509183,-0.002212,0.099072,-0.003504,-0.754639,0.026167,0.655618,0.052857,0.002779,0.015372,-7.742825,-0.043724,-43.766178,,,,,,
1465825287.76,-2.287325,-0.026217,-0.509227,-0.001298,-0.015619,0.000410,-0.753831,0.026214,0.656545,0.049837,0.001450,0.016017,-7.619326,-0.041861,-43.787849,,,,,,
1465825287.77,-2.289530,-0.026356,-0.509249,0.004938,-0.134556,0.003291,-0.752379,0.026353,0.658203,0.049178,0.002394,0.006912,-7.619326,-0.041861,-43.787849,,,,,,
1465825287.78,-2.292735,-0.026499,-0.509275,0.005860,-0.244995,0.006114,-0.750262,0.026496,0.660609,0.042132,0.001427,0.007970,-7.619326,-0.041861,-43.787849,,,,,,
1465825287.79,-2.296738,-0.026649,-0.509309,0.007876,-0.329953,0.009842,-0.747609,0.026645,0.663604,0.036641,0.000607,0.007889,-7.917356,-0.046351,-43.734940,,,,,,
1465825287.80,-2.301139,-0.026903,-0.509327,0.009935,-0.385174,0.011256,-0.744676,0.026900,0.666884,0.031984,0.003480,0.001589,-7.917356,-0.046351,-43.734940,,,,,,
1465825287.81,-2.305755,-0.027090,-0.509343,0.008822,-0.423401,0.011494,-0.741587,0.027087,0.670310,0.020304,0.001203,0.002236,-7.917356,-0.046351,-43.734940,,,,,,
1465825287.82,-2.310379,-0.027299,-0.509350,0.010929,-0.441454,0.011610,-0.738474,0.027296,0.673729,0.015772,0.001345,-0.004249,-8.284578,-0.053651,-43.666855,,,,,,
1465825287.83,-2.314800,-0.027473,-0.509353,0.010937,-0.435083,0.011570,-0.735485,0.027470,0.676983,0.005124,0.000133,-0.005414,-8.284578,-0.053651,-43.666855,,,,,,
1465825287.84,-2.318760,-0.027648,-0.509361,0.008854,-0.397918,0.011335,-0.732795,0.027645,0.679888,-0.000710,0.000691,-0.009340,-8.284578,-0.053651,-43.666855,,,,,,
1465825287.86,-2.324028,-0.027881,-0.509335,0.006948,-0.224831,0.007054,-0.729198,0.027878,0.683734,-0.014866,0.000168,-0.008319,-9.052696,-0.069462,-43.514080,,,,,,
1465825287.85,-2.321883,-0.027776,-0.509350,0.008948,-0.326770,0.008760,-0.730666,0.027772,0.682170,-0.010316,0.000121,-0.011348,-9.052696,-0.069462,-43.514080,,,,,,
1465825287.87,-2.324974,-0.027926,-0.509321,0.004968,-0.109085,0.004197,-0.728550,0.027922,0.684423,-0.015392,-0.000609,-0.009511,-9.052696,-0.069462,-43.514080,,,,,,
1465825287.88,-2.324860,-0.027939,-0.509295,0.000851,-0.002889,-0.000731,-0.728629,0.027936,0.684339,-0.015344,-0.000134,-0.008436,-9.281853,-0.075807,-43.465763,,,,,,
1465825287.89,-2.323812,-0.027925,-0.509269,0.000964,0.085245,-0.002348,-0.729345,0.027921,0.683576,-0.013773,-0.000120,-0.009732,-9.281853,-0.075807,-43.465763,,,,,,
1465825287.90,-2.321987,-0.027884,-0.509246,-0.003187,0.168076,-0.005000,-0.730593,0.027881,0.682244,-0.009687,0.000333,-0.008767,-9.281853,-0.075807,-43.465763,,,,,,
1465825287.92,-2.316454,-0.027712,-0.509201,-0.004064,0.312491,-0.009100,-0.734360,0.027708,0.678194,0.000473,-0.000258,-0.000002,-9.193199,-0.079270,-43.484600,,,,,,
1465825287.91,-2.319504,-0.027809,-0.509223,-0.003082,0.249838,-0.006578,-0.732286,0.027806,0.680429,-0.005919,-0.000309,-0.002100,-9.193199,-0.079270,-43.484600,,,,,,
1465825287.93,-2.313153,-0.027611,-0.509179,-0.006148,0.347534,-0.010387,-0.736597,0.027607,0.675768,0.010217,0.000347,0.001798,-9.193199,-0.079270,-43.484600,,,,,,
1465825287.94,-2.309979,-0.027529,-0.509166,-0.006154,0.344344,-0.009302,-0.738739,0.027526,0.673429,0.019135,0.001267,0.004916,-8.952494,-0.077006,-43.534798,,,,,,
1465825287.95,-2.307214,-0.027443,-0.509153,-0.005145,0.300805,-0.007964,-0.740600,0.027440,0.671385,0.027603,-0.000080,0.001573,-8.952494,-0.077006,-43.534798,,,,,,
1465825287.96,-2.305163,-0.027384,-0.509140,-0.003100,0.233908,-0.007542,-0.741977,0.027380,0.669866,0.030185,0.000177,0.003992,-8.952494,-0.077006,-43.534798,,,,,,
1465825287.97,-2.303883,-0.027355,-0.509141,-0.004254,0.165945,-0.004988,-0.742834,0.027352,0.668916,0.034231,0.000984,0.004149,-8.460463,-0.071777,-43.633091,,,,,,
1465825287.98,-2.303308,-0.027351,-0.509140,0.000978,0.095854,-0.002414,-0.743219,0.027347,0.668489,0.033380,0.000119,0.005965,-8.460463,-0.071777,-43.633091,,,,,,
1465825287.99,-2.303450,-0.027386,-0.509139,0.000889,0.026831,-0.000917,-0.743123,0.027383,0.668594,0.033254,0.001319,0.006073,-8.460463,-0.071777,-43.633091,,,,,,
1465825288.00,-2.304298,-0.027440,-0.509136,0.002921,-0.049625,0.000629,-0.742555,0.027436,0.669223,0.034135,0.001036,0.002133,-8.379477,-0.071015,-43.648720,,,,,,
1465825288.01,-2.305811,-0.027506,-0.509149,0.003894,-0.117592,0.004250,-0.741540,0.027503,0.670345,0.029855,0.000177,0.002492,-8.379477,-0.071015,-43.648720,,,,,,
1465825288.02,-2.307912,-0.027581,-0.509164,0.003817,-0.177059,0.005687,-0.740129,0.027578,0.671900,0.028230,0.000132,0.001623,-8.379477,-0.071015,-43.648720,,,,,,
1465825288.03,-2.310354,-0.027671,-0.509184,0.005885,-0.222725,0.008105,-0.738484,0.027668,0.673703,0.021550,-0.000660,-0.002652,-8.580355,-0.075415,-43.609673,,,,,,
1465825288.04,-2.313041,-0.027797,-0.509195,0.005852,-0.249271,0.008271,-0.736668,0.027794,0.675683,0.015736,0.000771,-0.001931,-8.580355,-0.075415,-43.609673,,,,,,
1465825288.05,-2.315695,-0.027913,-0.509225,-0.001599,-0.254565,0.004039,-0.734870,0.027910,0.677634,0.015616,0.002104,-0.010870,-8.580355,-0.075415,-43.609673,,,,,,
1465825288.06,-2.318105,-0.027910,-0.509191,0.010117,-0.242905,0.009300,-0.733235,0.027906,0.679402,0.009343,-0.005491,-0.015615,-8.803886,-0.079180,-43.565086,,,,,,
1465825288.07,-2.320251,-0.028009,-0.509216,0.001656,-0.202544,0.005845,-0.731773,0.028006,0.680972,-0.008339,0.002634,0.004986,-8.803886,-0.079180,-43.565086,,,,,,
1465825288.08,-2.321626,-0.027887,-0.509184,0.007046,-0.149455,0.005517,-0.730839,0.027884,0.681980,-0.000271,-0.010840,-0.018314,-8.803886,-0.079180,-43.565086,,,,,,
1465825288.09,-2.322459,-0.027949,-0.509184,0.000748,-0.082549,0.001898,-0.730269,0.027946,0.682588,-0.016923,0.002312,0.002974,-9.177561,-0.081688,-43.487896,,,,,,
1465825288.10,-2.322430,-0.027843,-0.509186,-0.001296,-0.015649,0.000411,-0.730291,0.027840,0.682569,-0.007197,-0.006676,-0.017987,-9.177561,-0.081688,-43.487896,,,,,,
1465825288.11,-2.321836,-0.027905,-0.509151,0.005177,0.056542,0.003158,-0.730695,0.027902,0.682134,-0.009112,0.001746,-0.004811,-9.177561,-0.081688,-43.487896,,,,,,
1465825288.12,-2.320608,-0.027851,-0.509164,-0.003254,0.119205,-0.001501,-0.731533,0.027847,0.681237,-0.002948,-0.000977,-0.008431,-9.212557,-0.080601,-43.480499,,,,,,
1465825288.13,-2.318902,-0.027776,-0.509121,0.002129,0.165923,-0.001789,-0.732696,0.027772,0.679989,-0.002182,-0.003755,-0.006603,-9.212557,-0.080601,-43.480499,,,,,,
1465825288.14,-2.317028,-0.027884,-0.509115,-0.002080,0.200973,-0.005206,-0.733967,0.027880,0.678613,0.008778,0.008115,-0.001275,-9.212557,-0.080601,-43.480499,,,,,,
1465825288.15,-2.315007,-0.027794,-0.509111,-0.007389,0.210534,-0.006336,-0.735339,0.027790,0.677130,0.013018,-0.002201,-0.003729,-8.977594,-0.084251,-43.529613,,,,,,
1465825288.16,-2.313222,-0.027947,-0.509098,-0.001022,0.193541,-0.006222,-0.736543,0.027944,0.675813,0.025422,0.010966,-0.005968,-8.977594,-0.084251,-43.529613,,,,,,
1465825288.17,-2.311802,-0.027897,-0.509103,-0.006393,0.152138,-0.008096,-0.737503,0.027893,0.674768,0.020599,0.001526,-0.002404,-8.977594,-0.084251,-43.529613,,,,,,
1465825288.18,-2.310932,-0.027846,-0.509081,-0.000068,0.108588,-0.003559,-0.738091,0.027842,0.674127,0.024071,-0.001246,0.001853,-8.811901,-0.086322,-43.563454,,,,,,
1465825288.19,-2.310576,-0.027779,-0.509084,-0.001194,0.060803,-0.002196,-0.738332,0.027776,0.673865,0.022726,-0.002095,0.004968,-8.811901,-0.086322,-43.563454,,,,,,
1465825288.20,-2.310689,-0.027672,-0.509084,0.000863,0.008763,0.001325,-0.738258,0.027669,0.673950,0.021782,-0.006856,0.002807,-8.811901,-0.086322,-43.563454,,,,,,
1465825288.21,-2.311351,-0.027761,-0.509074,0.006114,-0.047520,0.002748,-0.737810,0.027757,0.674437,0.027407,0.001891,-0.003386,-8.701506,-0.080555,-43.585648,,,,,,
1465825288.22,-2.312422,-0.027749,-0.509099,0.000736,-0.088932,0.004067,-0.737088,0.027746,0.675227,0.020977,-0.003454,-0.000926,-8.701506,-0.080555,-43.585648,,,,,,
1465825288.23,-2.313815,-0.027862,-0.509094,0.007079,-0.123979,0.005357,-0.736144,0.027859,0.676252,0.024672,0.001591,-0.007886,-8.701506,-0.080555,-43.585648,,,,,,
1465825288.24,-2.315444,-0.027901,-0.509097,0.004921,-0.148397,0.004444,-0.735041,0.027898,0.677449,0.014704,-0.001607,-0.001454,-8.777016,-0.081748,-43.570503,,,,,,
1465825288.25,-2.317156,-0.028000,-0.509102,0.004903,-0.159022,0.006639,-0.733878,0.027997,0.678704,0.013297,0.000461,-0.004632,-8.777016,-0.081748,-43.570503,,,,,,
1465825288.26,-2.318799,-0.028136,-0.509118,0.002786,-0.152644,0.004469,-0.732759,0.028132,0.679907,0.011979,0.004171,-0.007177,-8.777016,-0.081748,-43.570503,,,,,,
1465825288.27,-2.320093,-0.028626,-0.509084,0.003910,-0.127126,-0.008462,-0.731868,0.028622,0.680845,0.018825,0.026875,-0.022535,-9.054691,-0.089892,-43.513630,,,,,,
1465825288.28,-2.320860,-0.027965,-0.509152,-0.020590,-0.101668,-0.002270,-0.731359,0.027961,0.681419,-0.001002,-0.033729,-0.029045,-9.054691,-0.089892,-43.513630,,,,,,
1465825288.29,-2.321333,-0.029188,-0.509299,-0.047003,0.015219,-0.030700,-0.731011,0.029184,0.681741,0.039758,0.085028,-0.017724,-9.054691,-0.089892,-43.513630,,,,,,
1465825288.30,-2.319858,-0.028413,-0.509129,-0.021168,0.182008,-0.067911,-0.732032,0.028410,0.680677,0.132728,0.181399,-0.088728,-9.144331,-0.084703,-43.494892,,,,,,
1465825288.31,-2.318423,-0.028135,-0.509170,-0.038428,0.104330,-0.003574,-0.733015,0.028132,0.679631,-0.108050,-0.117823,0.070705,-9.144331,-0.084703,-43.494892,,,,,,
1465825288.32,-2.318243,-0.027893,-0.509121,0.021089,-0.005025,-0.017731,-0.733142,0.027889,0.679504,-0.045255,-0.036052,0.039719,-9.144331,-0.084703,-43.494892,,,,,,
1465825288.33,-2.317717,-0.027087,-0.509269,-0.111737,0.093983,-0.088739,-0.733515,0.027084,0.679133,0.037379,0.018555,-0.021800,-9.030481,-0.084199,-43.518673,,,,,,
1465825288.34,-2.315929,-0.026705,-0.508863,0.042629,0.187157,-0.021044,-0.734736,0.026701,0.677827,0.161311,0.177187,-0.125459,-9.030481,-0.084199,-43.518673,,,,,,
1465825288.35,-2.314000,-0.026231,-0.509135,-0.068129,0.179756,-0.012593,-0.736051,0.026228,0.676418,-0.185686,-0.194639,0.216252,-9.030481,-0.084199,-43.518673,,,,,,
1465825288.36,-2.313683,-0.026029,-0.509097,0.004030,-0.024129,-0.017629,-0.736270,0.026026,0.676188,0.057910,-0.021754,-0.103968,-8.929976,-0.066752,-43.539436,,,,,,
1465825288.37,-2.315393,-0.025875,-0.509033,-0.004751,-0.209981,-0.001570,-0.735115,0.025872,0.677449,0.093132,-0.004006,-0.119343,-8.929976,-0.066752,-43.539436,,,,,,
1465825288.38,-2.316885,-0.025944,-0.509103,0.004966,-0.101685,-0.001175,-0.734102,0.025941,0.678543,-0.135633,-0.077165,0.153793,-8.929976,-0.066752,-43.539436,,,,,,
1465825288.40,-2.316556,-0.026130,-0.509064,0.001868,-0.026292,-0.002715,-0.734322,0.026128,0.678298,0.074624,-0.016118,-0.096801,-8.971308,-0.040157,-43.530972,,,,,,
1465825288.39,-2.316626,-0.026148,-0.509041,0.010469,0.055436,0.006361,-0.734274,0.026145,0.678350,0.000265,-0.003730,0.048579,-8.971308,-0.040157,-43.530972,,,,,,
1465825288.41,-2.318313,-0.026301,-0.509120,0.000525,-0.211110,0.021861,-0.733126,0.026298,0.679584,0.011523,-0.042549,-0.063358,-8.971308,-0.040157,-43.530972,,,,,,
1465825288.42,-2.320284,-0.026412,-0.509062,0.024016,-0.174991,0.011013,-0.731783,0.026409,0.681026,-0.025496,0.053761,0.034428,-8.957016,-0.045923,-43.533905,,,,,,
1465825288.43,-2.320792,-0.026430,-0.509083,-0.013025,-0.012487,-0.000688,-0.731436,0.026427,0.681398,-0.008188,0.009080,0.016494,-8.957016,-0.045923,-43.533905,,,,,,
1465825288.44,-2.320310,-0.026363,-0.509030,0.010492,0.051227,-0.007450,-0.731766,0.026360,0.681046,0.053757,0.015281,-0.052231,-8.957016,-0.045923,-43.533905,,,,,,
1465825288.45,-2.319895,-0.026304,-0.509079,-0.012941,0.043806,-0.007427,-0.732050,0.026301,0.680743,-0.034979,-0.048685,-0.000644,-9.120449,-0.052543,-43.499954,,,,,,
1465825288.46,-2.319174,-0.026349,-0.509029,0.007332,0.085194,-0.003409,-0.732539,0.026346,0.680215,-0.026631,0.023855,0.037650,-9.120449,-0.052543,-43.499954,,,,,,
1465825288.47,-2.317981,-0.026247,-0.509007,-0.006443,0.129812,-0.009025,-0.733352,0.026244,0.679342,0.044280,0.009721,-0.047018,-9.120449,-0.052543,-43.499954,,,,,,
