timestamp,attitude_roll,attitude_pitch,attitude_yaw,rotation_rate_x,rotation_rate_y,rotation_rate_z,gravity_x,gravity_y,gravity_z,user_acc_x,user_acc_y,user_acc_z,magnetic_field_x,magnetic_field_y,magnetic_field_z,latitude(degree),longitude(degree),altitude(meter),speed(m/s),course(degree),timestamp
1466451791.30,0.688878,0.001545,-0.760393,-0.007537,-0.020515,0.000534,0.635671,-0.001545,-0.771959,-0.000066,-0.000500,-0.002608,-9.894596,365.964172,-45.829414,,,,,,
1466451791.31,0.688527,0.001424,-0.760313,-0.010738,-0.025823,0.000564,0.635400,-0.001424,-0.772182,-0.000863,0.001912,-0.005879,-9.841026,365.990662,-45.628418,,,,,,
1466451791.32,0.689154,0.001338,-0.760247,-0.019102,0.089929,-0.004427,0.635884,-0.001338,-0.771784,-0.011220,-0.002630,0.014734,-9.841026,365.990662,-45.628418,,,,,,
,,,,,,,,,,,,,,,,29.719961,-95.399089,9.638813,-1.000000,-1.000000,1466452118.73
1466451791.33,0.690111,0.001166,-0.760161,-0.015872,0.118595,-0.004604,0.636622,-0.001166,-0.771175,-0.018733,-0.000360,0.000393,-9.835329,366.002045,-45.538574,,,,,,
1466451791.34,0.692173,0.001243,-0.760235,0.016237,0.256605,-0.002244,0.638211,-0.001243,-0.769861,-0.007840,-0.001412,0.013696,-9.835329,366.002045,-45.538574,,,,,,
1466451791.35,0.697085,0.001256,-0.760328,0.001728,0.568790,-0.007410,0.641985,-0.001256,-0.766716,-0.042147,0.000478,0.040001,-9.835329,366.002045,-45.538574,,,,,,
1466451791.36,0.703194,0.001170,-0.760349,-0.009907,0.626138,-0.009910,0.646657,-0.001170,-0.762780,-0.052891,-0.003316,0.010919,-9.835329,366.002045,-45.538574,,,,,,
1466451791.37,0.708312,0.001019,-0.760349,-0.011096,0.527389,-0.009292,0.650553,-0.001019,-0.759461,-0.019663,-0.000217,-0.016540,-9.263197,366.003143,-45.649734,,,,,,
1466451791.38,0.713904,0.000859,-0.760368,-0.012078,0.590041,-0.011815,0.654789,-0.000859,-0.755811,-0.018330,0.000752,0.003354,-9.263197,366.003143,-45.649734,,,,,,
,,,,,,,,,,,,,,,,29.719963,-95.399094,9.638813,-1.000000,-1.000000,1466452119.05
1466451791.39,0.720357,0.000627,-0.760344,-0.018359,0.673929,-0.013412,0.659653,-0.000627,-0.751570,-0.033356,-0.000044,0.011565,-9.263197,366.003143,-45.649734,,,,,,
1466451791.40,0.727563,0.000390,-0.760341,-0.018260,0.749322,-0.016013,0.665052,-0.000390,-0.746797,-0.036863,0.000283,0.007738,-8.853775,366.011383,-45.664673,,,,,,
1466451791.41,0.735817,0.000136,-0.760336,-0.019199,0.848073,-0.017698,0.671193,-0.000136,-0.741282,-0.032476,-0.000337,0.012172,-8.853775,366.011383,-45.664673,,,,,,
1466451791.42,0.744974,-0.000134,-0.760356,-0.018009,0.945762,-0.019374,0.677953,0.000134,-0.735105,-0.055852,-0.007397,0.019987,-8.853775,366.011383,-45.664673,,,,,,
1466451791.43,0.756032,-0.000469,-0.760337,-0.026227,1.183613,-0.021938,0.686040,0.000469,-0.727564,-0.116094,0.004261,0.026117,-7.673885,366.040192,-45.647591,,,,,,
1466451791.44,0.770834,-0.000876,-0.760343,-0.032114,1.574374,-0.029717,0.696733,0.000876,-0.717330,-0.117571,-0.001471,0.077193,-7.673885,366.040192,-45.647591,,,,,,
1466451791.45,0.788471,-0.001400,-0.760297,-0.039267,1.809044,-0.034389,0.709276,0.001400,-0.704930,-0.096712,0.001255,0.040379,-7.673885,366.040192,-45.647591,,,,,,
1466451791.46,0.807813,-0.001955,-0.760255,-0.045432,1.983189,-0.037617,0.722776,0.001955,-0.691079,-0.106596,0.000182,0.036737,-6.676901,366.061615,-45.632412,,,,,,
1466451791.47,0.829980,-0.002571,-0.760192,-0.047154,2.304922,-0.041765,0.737916,0.002571,-0.674888,-0.128663,-0.005150,0.068168,-6.676901,366.061615,-45.632412,,,,,,
1466451791.48,0.855732,-0.003295,-0.760088,-0.057354,2.653213,-0.049282,0.755047,0.003295,-0.655662,-0.111996,0.000657,0.066261,-6.676901,366.061615,-45.632412,,,,,,
1466451791.49,0.884277,-0.004086,-0.759960,-0.064462,2.925044,-0.053123,0.773451,0.004086,-0.633843,-0.133665,-0.000866,0.068490,-3.391039,366.137756,-45.383347,,,,,,
1466451791.50,0.916067,-0.004934,-0.759814,-0.065079,3.276510,-0.058521,0.793203,0.004934,-0.608937,-0.140997,-0.002920,0.085560,-3.391039,366.137756,-45.383347,,,,,,
,,,,,,,,,,,,,,,,29.719965,-95.399099,9.638813,-1.000000,-1.000000,1466452119.07
1466451791.51,0.951713,-0.005887,-0.759594,-0.078444,3.651342,-0.064078,0.814397,0.005887,-0.580279,-0.122273,0.001224,0.089815,-3.391039,366.137756,-45.383347,,,,,,
1466451791.52,0.989993,-0.006916,-0.759338,-0.079217,3.874339,-0.071864,0.836002,0.006916,-0.548682,-0.073643,0.002620,0.075828,-1.063160,366.191833,-45.060020,,,,,,
1466451791.53,1.029557,-0.007983,-0.759030,-0.086534,3.980526,-0.073602,0.857044,0.007983,-0.515182,-0.059375,-0.003421,0.057296,-1.063160,366.191833,-45.060020,,,,,,
1466451791.54,1.070689,-0.009085,-0.758617,-0.089497,4.163160,-0.075815,0.877495,0.009085,-0.479500,-0.060540,0.001551,0.059974,-1.063160,366.191833,-45.060020,,,,,,
1466451791.55,1.113539,-0.010243,-0.758186,-0.093559,4.306530,-0.085234,0.897220,0.010243,-0.441466,-0.008578,0.003551,0.077589,4.764870,366.342377,-43.572411,,,,,,
1466451791.56,1.157070,-0.011427,-0.757706,-0.091338,4.379793,-0.085691,0.915569,0.011427,-0.401998,-0.038509,0.010515,0.051763,4.764870,366.342377,-43.572411,,,,,,
,,,,,,,,,,,,,,,,29.720011,-95.399010,9.735072,-1.000000,-1.000000,1466452119.22
1466451791.57,1.202768,-0.012631,-0.757136,-0.102700,4.650573,-0.092723,0.932964,0.012630,-0.359747,-0.086605,-0.005626,0.090994,4.764870,366.342377,-43.572411,,,,,,
1466451791.58,1.252091,-0.013868,-0.756469,-0.102236,5.019021,-0.096098,0.949550,0.013867,-0.313308,-0.083568,-0.001218,0.114363,7.854078,366.432648,-42.348660,,,,,,
1466451791.59,1.304352,-0.015136,-0.755708,-0.112556,5.275989,-0.099848,0.964603,0.015135,-0.263273,-0.057544,-0.000411,0.114469,7.854078,366.432648,-42.348660,,,,,,
1466451791.60,1.357890,-0.016358,-0.754821,-0.113522,5.361983,-0.096131,0.977290,0.016357,-0.211273,-0.005946,-0.003220,0.077072,7.854078,366.432648,-42.348660,,,,,,
1466451791.61,1.410565,-0.017524,-0.753879,-0.113711,5.205907,-0.098346,0.987039,0.017523,-0.159522,0.117392,0.007364,0.037284,14.598951,366.648865,-38.516018,,,,,,
1466451791.62,1.459593,-0.018589,-0.752932,-0.105731,4.785415,-0.090378,0.993652,0.018588,-0.110955,0.188798,0.002743,0.004495,14.598951,366.648865,-38.516018,,,,,,
1466451791.63,1.503624,-0.019548,-0.752026,-0.095728,4.276797,-0.083985,0.997554,0.019547,-0.067109,0.213765,0.008789,-0.066787,14.598951,366.648865,-38.516018,,,,,,
1466451791.65,1.581553,-0.021114,-0.750363,-0.085772,3.740555,-0.071032,0.999719,0.021112,0.010754,0.145651,-0.000620,-0.002179,17.696510,366.762573,-36.056061,,,,,,
1466451791.64,1.543666,-0.020367,-0.751219,-0.084459,3.928511,-0.078596,0.999425,0.020366,-0.027122,0.182323,0.002172,-0.034707,17.696510,366.762573,-36.056061,,,,,,
1466451791.66,1.617762,-0.021773,-0.749553,-0.075309,3.600380,-0.065885,0.998661,0.021771,0.046938,0.074536,0.007908,-0.031892,17.696510,366.762573,-36.056061,,,,,,
1466451791.67,1.653680,-0.022399,-0.748725,-0.081727,3.568544,-0.071014,0.996317,0.022397,0.082768,0.099371,-0.000181,0.020290,21.927999,366.941742,-31.637173,,,,,,
1466451791.68,1.687750,-0.022980,-0.747923,-0.070309,3.345539,-0.062152,0.992907,0.022978,0.116656,0.087904,-0.002119,-0.019244,21.927999,366.941742,-31.637173,,,,,,
1466451791.69,1.720944,-0.023550,-0.747110,-0.072441,3.338131,-0.067428,0.988475,0.023548,0.149543,0.036855,0.009518,-0.010764,21.927999,366.941742,-31.637173,,,,,,
1466451791.70,1.755520,-0.024079,-0.746276,-0.075443,3.491032,-0.068390,0.982702,0.024076,0.183622,0.012949,-0.007292,0.049944,23.575842,367.018799,-29.485020,,,,,,
1466451791.71,1.790895,-0.024614,-0.745364,-0.077507,3.542002,-0.069776,0.975580,0.024612,0.218260,0.002661,0.003495,0.017992,23.575842,367.018799,-29.485020,,,,,,
1466451791.72,1.827695,-0.025134,-0.744419,-0.080436,3.748003,-0.074264,0.966877,0.025131,0.254002,-0.052937,0.000412,0.047039,23.575842,367.018799,-29.485020,,,,,,
1466451791.73,1.867870,-0.025664,-0.743352,-0.091687,4.103733,-0.083957,0.955882,0.025661,0.292627,-0.058086,-0.005565,0.091727,26.364603,367.170929,-24.867558,,,,,,
1466451791.74,1.910464,-0.026199,-0.742195,-0.092530,4.276813,-0.087173,0.942542,0.026196,0.333060,-0.009268,0.007861,0.064706,26.364603,367.170929,-24.867558,,,,,,
1466451791.75,1.953256,-0.026685,-0.741028,-0.092525,4.281060,-0.087199,0.927419,0.026682,0.373071,-0.005147,-0.001230,0.038093,26.364603,367.170929,-24.867558,,,,,,
1466451791.76,1.998307,-0.027133,-0.739797,-0.097441,4.600674,-0.092402,0.909666,0.027129,0.414454,-0.047315,-0.002090,0.084676,27.687914,367.258667,-21.964863,,,,,,
1466451791.77,2.046385,-0.027608,-0.738385,-0.106694,4.844925,-0.105652,0.888685,0.027605,0.457687,-0.007932,0.010268,0.100159,27.687914,367.258667,-21.964863,,,,,,
1466451791.78,2.096880,-0.027994,-0.736941,-0.110585,5.142227,-0.105392,0.864441,0.027991,0.501954,-0.090134,-0.006918,0.100738,27.687914,367.258667,-21.964863,,,,,,
1466451791.79,2.152718,-0.028334,-0.735323,-0.122620,5.719877,-0.117542,0.835073,0.028331,0.549410,-0.084233,0.004262,0.179777,29.737885,367.443909,-15.119668,,,,,,
1466451791.80,2.213281,-0.028609,-0.733585,-0.127393,6.157345,-0.121355,0.800282,0.028605,0.598941,-0.088612,0.010793,0.176358,29.737885,367.443909,-15.119668,,,,,,
1466451791.81,2.278363,-0.028760,-0.731652,-0.145951,6.616097,-0.140217,0.759631,0.028756,0.649718,-0.074420,0.000953,0.194795,29.737885,367.443909,-15.119668,,,,,,
1466451791.82,2.348691,-0.028788,-0.729586,-0.154844,7.163994,-0.144727,0.712097,0.028784,0.701490,-0.086487,-0.002157,0.246599,30.372095,367.546906,-10.714939,,,,,,
1466451791.83,2.425290,-0.028632,-0.727338,-0.167854,7.823387,-0.151004,0.656331,0.028628,0.753929,-0.097982,0.020215,0.284156,30.372095,367.546906,-10.714939,,,,,,
1466451791.84,2.508197,-0.028204,-0.724914,-0.188370,8.424413,-0.167567,0.591650,0.028200,0.805702,-0.047979,-0.000078,0.317727,30.372095,367.546906,-10.714939,,,,,,
1466451791.85,2.595130,-0.027619,-0.722408,-0.187942,8.759952,-0.172865,0.519470,0.027615,0.854042,0.045105,0.022906,0.324623,29.694626,367.757904,0.574320,,,,,,
1466451791.86,2.685514,-0.026666,-0.719854,-0.213030,9.120995,-0.181541,0.440274,0.026663,0.897467,0.080340,-0.000769,0.349542,29.694626,367.757904,0.574320,,,,,,
1466451791.87,2.778485,-0.025447,-0.717373,-0.209602,9.316350,-0.177440,0.355066,0.025444,0.934495,0.181906,0.018333,0.374114,27.707382,367.844391,7.126129,,,,,,
1466451791.88,2.871037,-0.024063,-0.714950,-0.208671,9.194268,-0.186254,0.267190,0.024060,0.963344,0.289283,0.022982,0.326207,27.707382,367.844391,7.126129,,,,,,
1466451791.89,2.960181,-0.022456,-0.712753,-0.202772,8.817303,-0.175368,0.180372,0.022454,0.983342,0.355760,0.014152,0.264796,27.707382,367.844391,7.126129,,,,,,
1466451791.90,3.045522,-0.020794,-0.710741,-0.187279,8.436107,-0.172962,0.095903,0.020792,0.995174,0.403228,0.024877,0.243535,27.707382,367.844391,7.126129,,,,,,
1466451791.91,3.126859,-0.019003,-0.709026,-0.192106,7.993320,-0.163803,0.014730,0.019002,0.999711,0.425882,0.001719,0.227004,20.295918,367.911591,18.897255,,,,,,
1466451791.92,-3.082314,-0.017282,-0.707558,-0.158014,7.186288,-0.142741,-0.059235,0.017281,0.998094,0.495758,0.033333,0.136824,20.295918,367.911591,18.897255,,,,,,
1466451791.93,-3.016620,-0.015636,-0.706380,-0.152698,6.341073,-0.131048,-0.124633,0.015636,0.992080,0.518538,0.004201,0.059358,15.883616,367.893127,23.029579,,,,,,
1466451791.94,-2.960771,-0.014233,-0.705442,-0.116713,5.347160,-0.107748,-0.179820,0.014233,0.983597,0.536143,0.022129,-0.019501,15.883616,367.893127,23.029579,,,,,,
1466451791.95,-2.913428,-0.012931,-0.704717,-0.108175,4.524241,-0.096191,-0.226171,0.012931,0.974002,0.477285,0.007287,-0.034655,15.883616,367.893127,23.029579,,,,,,
1466451791.96,-2.874617,-0.011893,-0.704188,-0.085870,3.664114,-0.070550,-0.263797,0.011893,0.964505,0.465655,0.012491,-0.073392,15.883616,367.893127,23.029579,,,,,,
1466451791.97,-2.845473,-0.011046,-0.703830,-0.060556,2.642615,-0.052409,-0.291793,0.011046,0.956418,0.486938,0.014467,-0.116406,9.076145,367.824890,27.394512,,,,,,
1466451791.98,-2.827398,-0.010559,-0.703590,-0.038537,1.542541,-0.032715,-0.309034,0.010559,0.950992,0.482954,0.003510,-0.187717,9.076145,367.824890,27.394512,,,,,,
1466451791.99,-2.819105,-0.010298,-0.703480,-0.012068,0.596423,-0.012917,-0.316910,0.010297,0.948400,0.447754,0.016985,-0.176427,9.076145,367.824890,27.394512,,,,,,
1466451792.00,-2.820075,-0.010338,-0.703489,0.004856,-0.323139,0.004576,-0.315990,0.010338,0.948706,0.405467,0.000115,-0.191672,7.412344,367.802032,28.191065,,,,,,
1466451792.01,-2.829697,-0.010618,-0.703599,0.030379,-1.172635,0.024831,-0.306846,0.010618,0.951700,0.373634,0.016100,-0.174142,7.412344,367.802032,28.191065,,,,,,
1466451792.02,-2.847694,-0.011117,-0.703828,0.044222,-2.005122,0.039646,-0.289668,0.011117,0.957063,0.348369,0.003532,-0.172151,7.412344,367.802032,28.191065,,,,,,
1466451792.03,-2.873785,-0.011861,-0.704149,0.068746,-2.808949,0.055357,-0.264599,0.011861,0.964286,0.337749,0.010447,-0.156134,8.126225,367.811890,27.863699,,,,,,
1466451792.04,-2.907706,-0.012783,-0.704599,0.082668,-3.578789,0.069779,-0.231741,0.012783,0.972694,0.309759,0.007344,-0.135505,8.126225,367.811890,27.863699,,,,,,
1466451792.05,-2.948188,-0.013879,-0.705204,0.096797,-4.176630,0.087380,-0.192183,0.013879,0.981261,0.259077,0.008826,-0.100371,8.126225,367.811890,27.863699,,,,,,
1466451792.06,-2.992979,-0.015032,-0.705932,0.102681,-4.575876,0.092019,-0.148051,0.015032,0.988865,0.201533,0.006834,-0.035374,10.200349,367.839569,26.795771,,,,,,
1466451792.07,-3.042020,-0.016279,-0.706762,0.114910,-5.003803,0.100037,-0.099395,0.016278,0.994915,0.180862,0.009585,-0.008053,10.200349,367.839569,26.795771,,,,,,
1466451792.08,-3.094878,-0.017532,-0.707745,0.120815,-5.377582,0.109838,-0.046691,0.017531,0.998756,0.163573,0.003114,0.017312,10.200349,367.839569,26.795771,,,,,,
1466451792.09,3.131867,-0.018864,-0.708846,0.133160,-5.718432,0.114117,0.009724,0.018863,0.999775,0.145488,0.009122,0.048458,16.244623,367.895386,22.739513,,,,,,
1466451792.10,3.073559,-0.020121,-0.710066,0.130861,-5.852221,0.116018,0.067968,0.020120,0.997485,0.090159,0.007972,0.083570,16.244623,367.895386,22.739513,,,,,,
1466451792.11,3.014291,-0.021328,-0.711381,0.132856,-5.957343,0.117744,0.126929,0.021326,0.991683,0.067163,0.007040,0.135499,16.244623,367.895386,22.739513,,,,,,
1466451792.12,2.954112,-0.022467,-0.712780,0.135978,-6.010444,0.121274,0.186337,0.022465,0.982229,0.020389,0.010220,0.123057,19.527468,367.909882,19.722366,,,,,,
1466451792.13,2.895449,-0.023494,-0.714249,0.128777,-5.810818,0.118950,0.243599,0.023492,0.969592,-0.043434,0.001472,0.189695,19.527468,367.909882,19.722366,,,,,,
1466451792.14,2.838367,-0.024423,-0.715686,0.130049,-5.650478,0.114752,0.298511,0.024420,0.954094,-0.084888,-0.013480,0.182030,22.557529,367.907593,16.222319,,,,,,
1466451792.15,2.784742,-0.025184,-0.717112,0.113517,-5.262888,0.103789,0.349214,0.025182,0.936704,-0.097460,0.023448,0.217379,22.557529,367.907593,16.222319,,,,,,
1466451792.16,2.734510,-0.025825,-0.718472,0.106466,-4.940100,0.102822,0.395800,0.025822,0.917974,-0.170244,-0.006718,0.149485,22.557529,367.907593,16.222319,,,,,,
1466451792.17,2.688913,-0.026350,-0.719677,0.098653,-4.403841,0.083485,0.437225,0.026347,0.898966,-0.221527,0.005254,0.236669,26.981369,367.858307,8.959177,,,,,,
1466451792.18,2.649743,-0.026783,-0.720789,0.079250,-3.750811,0.075112,0.472088,0.026780,0.881145,-0.248562,0.010268,0.167546,26.981369,367.858307,8.959177,,,,,,
1466451792.19,2.617089,-0.027083,-0.721685,0.071573,-3.092469,0.063524,0.500600,0.027080,0.865255,-0.291509,-0.011012,0.192362,26.981369,367.858307,8.959177,,,,,,
1466451792.20,2.591469,-0.027314,-0.722429,0.050134,-2.378891,0.046254,0.522597,0.027310,0.852142,-0.299728,0.006641,0.173478,28.227411,367.826111,5.931040,,,,,,
1466451792.21,2.573242,-0.027421,-0.722945,0.031915,-1.634541,0.035181,0.538040,0.027418,0.842473,-0.310257,0.001803,0.150782,28.227411,367.826111,5.931040,,,,,,
1466451792.22,2.562477,-0.027545,-0.723256,0.025426,-0.888052,0.016655,0.547076,0.027542,0.836630,-0.331241,-0.010635,0.163599,28.227411,367.826111,5.931040,,,,,,
1466451792.23,2.559306,-0.027538,-0.723337,-0.003404,-0.121386,0.001173,0.549726,0.027534,0.834891,-0.319013,0.005989,0.143899,29.242462,367.784546,2.719191,,,,,,
1466451792.24,2.563900,-0.027519,-0.723220,-0.009885,0.643133,-0.010015,0.545886,0.027516,0.837408,-0.295260,-0.003315,0.142634,29.242462,367.784546,2.719191,,,,,,
1466451792.25,2.575339,-0.027423,-0.722874,-0.031392,1.302558,-0.026945,0.536273,0.027419,0.843599,-0.269793,-0.003112,0.128904,29.242462,367.784546,2.719191,,,,,,
1466451792.27,2.616073,-0.027081,-0.721709,-0.051267,2.412190,-0.047762,0.501479,0.027077,0.864746,-0.195159,-0.006676,0.105637,29.232410,367.784943,2.776173,,,,,,
1466451792.26,2.593054,-0.027261,-0.722370,-0.044442,1.921616,-0.038292,0.521247,0.027257,0.852970,-0.209068,0.007899,0.120907,29.232410,367.784943,2.776173,,,,,,
1466451792.28,2.643652,-0.026789,-0.720918,-0.067708,2.873044,-0.059184,0.477446,0.026786,0.878253,-0.163451,0.007684,0.124235,29.232410,367.784943,2.776173,,,,,,
1466451792.29,2.675857,-0.026445,-0.720044,-0.072461,3.329619,-0.060988,0.448923,0.026441,0.893179,-0.128366,-0.003141,0.117609,29.232410,367.784943,2.776173,,,,,,
1466451792.30,2.711847,-0.026001,-0.719030,-0.085855,3.666253,-0.075886,0.416498,0.025999,0.908765,-0.096720,0.006808,0.102618,28.303341,367.823334,5.734577,,,,,,
1466451792.31,2.750535,-0.025519,-0.718006,-0.086594,3.927454,-0.076460,0.381042,0.025516,0.924205,-0.063141,0.004895,0.110295,28.303341,367.823334,5.734577,,,,,,
1466451792.32,2.791731,-0.024980,-0.716877,-0.091600,4.167447,-0.086486,0.342661,0.024977,0.939127,0.000952,-0.000960,0.088659,28.303341,367.823334,5.734577,,,,,,
1466451792.33,2.833856,-0.024332,-0.715757,-0.099002,4.207799,-0.086747,0.302813,0.024330,0.952739,0.031675,0.009560,0.070484,25.981134,367.875580,10.979515,,,,,,
1466451792.34,2.875697,-0.023659,-0.714688,-0.093742,4.161071,-0.084320,0.262700,0.023657,0.964588,0.066005,0.007792,0.053967,25.981134,367.875580,10.979515,,,,,,
1466451792.35,2.916842,-0.022984,-0.713670,-0.089554,4.109032,-0.080796,0.222805,0.022982,0.974592,0.114842,-0.002977,0.051195,25.981134,367.875580,10.979515,,,,,,
1466451792.36,2.956715,-0.022256,-0.712680,-0.088732,3.910484,-0.082743,0.183781,0.022255,0.982715,0.159649,0.016869,0.003430,24.320301,367.894135,13.798836,,,,,,
1466451792.37,2.992989,-0.021590,-0.711817,-0.079635,3.539881,-0.069765,0.148023,0.021588,0.988748,0.117847,-0.001431,-0.006983,24.320301,367.894135,13.798836,,,,,,
1466451792.38,3.027227,-0.020914,-0.711047,-0.074500,3.393343,-0.066712,0.114091,0.020912,0.993250,0.155089,0.008491,0.022161,24.320301,367.894135,13.798836,,,,,,
1466451792.39,3.058654,-0.020285,-0.710359,-0.071633,3.135313,-0.062962,0.082827,0.020283,0.996358,0.200880,0.006297,-0.044240,20.744694,367.908478,18.466337,,,,,,
1466451792.40,3.086302,-0.019689,-0.709758,-0.060581,2.619254,-0.053328,0.055251,0.019687,0.998278,0.221101,0.006512,-0.066241,20.744694,367.908478,18.466337,,,,,,
1466451792.41,3.108282,-0.019199,-0.709288,-0.048506,2.071337,-0.042428,0.033298,0.019198,0.999261,0.218182,0.003339,-0.087075,20.744694,367.908478,18.466337,,,,,,
1466451792.42,3.125820,-0.018804,-0.708927,-0.037340,1.647651,-0.032309,0.015769,0.018803,0.999699,0.230737,0.008770,-0.073139,19.170506,367.906342,20.134577,,,,,,
1466451792.43,3.138177,-0.018520,-0.708665,-0.026331,1.095493,-0.023513,0.003415,0.018519,0.999823,0.228595,0.005239,-0.117071,19.170506,367.906342,20.134577,,,,,,
1466451792.44,-3.138270,-0.018358,-0.708510,-0.012135,0.541205,-0.012571,-0.003322,0.018357,0.999826,0.205486,0.006667,-0.095254,19.170506,367.906342,20.134577,,,,,,
1466451792.45,-3.136281,-0.018312,-0.708470,-0.004195,0.092037,-0.002295,-0.005311,0.018311,0.999818,0.201508,0.006851,-0.094819,17.497707,367.900085,21.710632,,,,,,
1466451792.46,3.138315,-0.018673,-0.708607,0.005946,-0.307254,0.003413,0.003277,0.018672,0.999820,0.127628,0.005254,-0.074024,17.497707,367.900085,21.710632,,,,,,
1466451792.47,3.133455,-0.018788,-0.708722,0.009902,-0.536626,0.012306,0.008136,0.018787,0.999790,0.117551,0.004895,-0.041233,17.497707,367.900085,21.710632,,,,,,
1466451792.48,3.126418,-0.018920,-0.708862,0.016004,-0.761737,0.015853,0.015172,0.018919,0.999706,0.110332,0.000353,-0.060329,17.675858,367.905151,21.478853,,,,,,
1466451792.49,3.116772,-0.019121,-0.709070,0.023104,-1.036759,0.021843,0.024814,0.019120,0.999509,0.111447,0.010436,-0.038526,17.675858,367.905151,21.478853,,,,,,
1466451792.50,3.104241,-0.019401,-0.709321,0.030203,-1.316023,0.025730,0.037336,0.019400,0.999114,0.099063,-0.000585,-0.057418,18.022718,367.905975,21.174627,,,,,,
1466451792.51,3.089703,-0.019715,-0.709618,0.034233,-1.496534,0.027931,0.051857,0.019714,0.998460,0.082863,0.009614,-0.015351,18.022718,367.905975,21.174627,,,,,,
1466451792.52,3.073368,-0.020078,-0.709965,0.038259,-1.675992,0.033318,0.068158,0.020076,0.997473,0.081347,-0.001430,-0.036520,18.022718,367.905975,21.174627,,,,,,
1466451792.53,3.055243,-0.020463,-0.710343,0.044413,-1.860752,0.035547,0.086225,0.020461,0.996066,0.096652,0.005372,-0.018176,19.495401,367.910797,19.737024,,,,,,
1466451792.54,3.034721,-0.020916,-0.710794,0.049410,-2.114537,0.041402,0.106645,0.020915,0.994077,0.080916,0.003545,-0.033750,19.495401,367.910797,19.737024,,,,,,
1466451792.55,3.012361,-0.021385,-0.711296,0.054542,-2.264260,0.044475,0.128843,0.021384,0.991434,0.055269,0.004617,-0.001170,19.495401,367.910797,19.737024,,,,,,
1466451792.56,2.989203,-0.021861,-0.711821,0.053401,-2.326903,0.043802,0.151764,0.021859,0.988175,0.022644,0.006293,0.007522,19.495401,367.910797,19.737024,,,,,,
1466451792.57,2.966146,-0.022318,-0.712366,0.054512,-2.284440,0.046730,0.174505,0.022316,0.984403,-0.024374,0.002312,0.039202,21.660088,367.913452,17.276979,,,,,,
1466451792.58,2.944233,-0.022734,-0.712892,0.048286,-2.159138,0.043809,0.196030,0.022732,0.980334,-0.021347,0.003788,0.040509,21.660088,367.913452,17.276979,,,,,,
1466451792.59,2.923003,-0.023106,-0.713394,0.046204,-2.124092,0.041458,0.216795,0.023104,0.975944,-0.012007,0.005323,0.013314,22.737812,367.910767,15.894207,,,,,,
1466451792.61,2.879946,-0.023813,-0.714479,0.044090,-2.113470,0.040325,0.258598,0.023811,0.965691,-0.056389,0.004372,0.032310,22.737812,367.910767,15.894207,,,,,,
1466451792.60,2.901341,-0.023488,-0.713950,0.050389,-2.175075,0.047105,0.237881,0.023486,0.971010,-0.032711,0.000623,0.020063,22.737812,367.910767,15.894207,,,,,,
1466451792.62,2.860501,-0.024126,-0.714962,0.042255,-1.880931,0.037801,0.277324,0.024123,0.960474,-0.105449,-0.001205,0.067481,23.710125,367.905334,14.543083,,,,,,
1466451792.63,2.844290,-0.024338,-0.715386,0.029921,-1.532644,0.032411,0.292855,0.024336,0.955847,-0.103356,0.005739,0.077570,23.710125,367.905334,14.543083,,,,,,
1466451792.64,2.830816,-0.024488,-0.715738,0.024896,-1.300098,0.027754,0.305706,0.024486,0.951811,-0.091122,0.001927,0.043733,23.710125,367.905334,14.543083,,,,,,
1466451792.65,2.818538,-0.024636,-0.716040,0.023956,-1.205588,0.023967,0.317368,0.024633,0.947982,-0.090119,0.004938,0.035386,25.188980,367.889343,12.285782,,,,,,
1466451792.66,2.807957,-0.024744,-0.716314,0.016722,-1.032506,0.021810,0.327380,0.024742,0.944569,-0.101611,0.002099,0.040096,25.188980,367.889343,12.285782,,,,,,
1466451792.67,2.799685,-0.024820,-0.716530,0.013882,-0.755365,0.016875,0.335181,0.024818,0.941827,-0.118522,-0.000831,0.063056,25.188980,367.889343,12.285782,,,,,,
1466451792.68,2.794150,-0.024849,-0.716678,0.005708,-0.487775,0.010931,0.340389,0.024847,0.939956,-0.118984,0.001948,0.055146,25.632156,367.882599,11.548996,,,,,,
1466451792.69,2.791106,-0.024855,-0.716773,0.001756,-0.244617,0.008338,0.343249,0.024853,0.938916,-0.109683,-0.000317,0.049259,25.632156,367.882599,11.548996,,,,,,
1466451792.70,2.795652,-0.024974,-0.716662,-0.002228,-0.030075,0.001667,0.338976,0.024971,0.940464,-0.096880,0.003105,0.044155,25.632156,367.882599,11.548996,,,,,,
1466451792.71,2.796983,-0.024926,-0.716623,-0.006205,0.187608,-0.003960,0.337725,0.024924,0.940915,-0.093554,0.001901,0.038074,25.632156,367.882599,11.548996,,,,,,
1466451792.72,2.805158,-0.024980,-0.716400,-0.013384,0.403190,-0.007449,0.330021,0.024977,0.943643,-0.086078,0.003114,0.036307,25.863995,367.879883,11.110142,,,,,,
1466451792.73,2.810671,-0.024856,-0.716257,-0.017396,0.598567,-0.009743,0.324815,0.024853,0.945451,-0.078355,0.003162,0.033614,25.863995,367.879883,11.110142,,,,,,
1466451792.74,2.818027,-0.024685,-0.716076,-0.023553,0.779082,-0.013010,0.317853,0.024682,0.947819,-0.067959,-0.000055,0.029278,25.665737,367.885376,11.384874,,,,,,
1466451792.75,2.826860,-0.024470,-0.715861,-0.027646,0.911810,-0.013846,0.309470,0.024468,0.950594,-0.039282,-0.000221,0.018400,25.665737,367.885376,11.384874,,,,,,
1466451792.76,2.836524,-0.024279,-0.715625,-0.025438,0.969155,-0.017397,0.300271,0.024277,0.953545,-0.008339,0.002929,0.018455,25.665737,367.885376,11.384874,,,,,,
1466451792.77,2.846292,-0.024096,-0.715374,-0.025425,0.977653,-0.018515,0.290943,0.024094,0.956437,0.000790,0.000946,0.004790,25.101822,367.887573,12.515100,,,,,,
1466451792.78,2.856098,-0.023915,-0.715110,-0.025414,0.985088,-0.019626,0.281551,0.023913,0.959248,0.002232,0.003080,-0.002583,25.101822,367.887573,12.515100,,,,,,
1466451792.79,2.866356,-0.023738,-0.714847,-0.024273,1.042431,-0.022113,0.271698,0.023736,0.962090,-0.022706,0.001655,0.015602,25.101822,367.887573,12.515100,,,,,,
1466451792.80,2.877653,-0.023542,-0.714560,-0.026275,1.145424,-0.021697,0.260814,0.023540,0.965102,-0.034358,0.001850,0.020402,24.708305,367.890808,13.185526,,,,,,
1466451792.81,2.890184,-0.023316,-0.714247,-0.031412,1.288779,-0.025794,0.248701,0.023314,0.968300,-0.034147,0.001619,0.029579,24.708305,367.890808,13.185526,,,,,,
1466451792.82,2.903651,-0.023090,-0.713919,-0.029207,1.349301,-0.026172,0.235640,0.023088,0.971566,0.004777,0.002684,0.013312,24.708305,367.890808,13.185526,,,,,,
1466451792.83,2.916376,-0.022898,-0.713592,-0.027176,1.268604,-0.026728,0.223259,0.022896,0.974490,0.043220,0.003807,-0.015140,23.699844,367.898071,14.742796,,,,,,
1466451792.84,2.927865,-0.022719,-0.713313,-0.023130,1.104014,-0.022499,0.212049,0.022717,0.976995,0.064333,0.004673,-0.029043,23.699844,367.898071,14.742796,,,,,,
1466451792.85,2.937904,-0.022536,-0.713078,-0.022234,0.974465,-0.018492,0.202232,0.022534,0.979078,0.068795,0.001941,-0.023924,23.699844,367.898071,14.742796,,,,,,
1466451792.87,2.953072,-0.022299,-0.712693,-0.014117,0.658034,-0.014370,0.187359,0.022297,0.982038,0.081241,0.002559,-0.035780,23.147232,367.902405,15.492851,,,,,,
1466451792.86,2.946684,-0.022390,-0.712860,-0.017081,0.838552,-0.017634,0.193629,0.022388,0.980819,0.077215,0.005246,-0.018265,23.147232,367.902405,15.492851,,,,,,
1466451792.88,2.958213,-0.022246,-0.712546,-0.005840,0.465844,-0.013157,0.182309,0.022244,0.982990,0.079883,0.003863,-0.031589,23.147232,367.902405,15.492851,,,,,,
1466451792.89,2.961610,-0.022233,-0.712461,-0.002862,0.302310,-0.006806,0.178968,0.022231,0.983604,0.066881,0.002030,-0.035621,22.420963,367.907623,16.409988,,,,,,
1466451792.90,2.963737,-0.022229,-0.712407,-0.000884,0.183384,-0.004994,0.176875,0.022227,0.983982,0.058385,0.005254,-0.024647,22.420963,367.907623,16.409988,,,,,,
1466451792.91,2.961730,-0.022429,-0.712437,0.003209,0.051699,-0.003099,0.178849,0.022428,0.983621,0.050338,0.002856,-0.029107,22.420963,367.907623,16.409988,,,,,,
1466451792.92,2.961323,-0.022478,-0.712431,0.006246,-0.071475,-0.001259,0.179249,0.022476,0.983547,0.041668,0.004806,-0.022289,22.281105,367.909851,16.548834,,,,,,
1466451792.93,2.958903,-0.022718,-0.712493,0.009357,-0.133076,0.002323,0.181628,0.022716,0.983105,0.021161,0.002736,-0.009503,22.281105,367.909851,16.548834,,,,,,
1466451792.94,2.957354,-0.022806,-0.712529,0.010384,-0.164928,0.001460,0.183151,0.022804,0.982820,0.019715,0.004784,-0.008303,22.281105,367.909851,16.548834,,,,,,
1466451792.95,2.954263,-0.022933,-0.712600,0.010302,-0.228645,0.002924,0.186187,0.022931,0.982247,0.015565,0.000033,-0.015816,22.391241,367.919159,16.189394,,,,,,
1466451792.97,2.948311,-0.023066,-0.712737,0.005912,-0.328461,0.006739,0.192029,0.023064,0.981118,0.012408,0.002891,-0.021340,22.391241,367.919159,16.189394,,,,,,
1466451792.96,2.951502,-0.023020,-0.712665,0.009158,-0.289173,0.005431,0.188898,0.023017,0.981727,0.014624,0.004754,-0.017158,22.391241,367.919159,16.189394,,,,,,
1466451792.98,2.944678,-0.023107,-0.712832,0.006911,-0.377310,0.009175,0.195592,0.023105,0.980413,0.010829,0.003400,-0.012853,22.520027,367.920837,15.971523,,,,,,
1466451792.99,2.939763,-0.023263,-0.712953,0.006834,-0.438898,0.009561,0.200408,0.023261,0.979436,0.007935,0.002175,-0.013082,22.520027,367.920837,15.971523,,,,,,
1466451793.00,2.935131,-0.023305,-0.713061,0.006797,-0.468629,0.009747,0.204942,0.023303,0.978497,0.002104,0.002789,-0.005505,22.520027,367.920837,15.971523,,,,,,
1466451793.01,2.930351,-0.023343,-0.713186,0.006782,-0.479250,0.010878,0.209617,0.023341,0.977505,-0.001167,0.001302,-0.001370,22.899263,367.918945,15.468231,,,,,,
1466451793.02,2.925507,-0.023408,-0.713306,0.009970,-0.485619,0.009857,0.214349,0.023406,0.976477,-0.008447,0.001619,0.001841,22.899263,367.918945,15.468231,,,,,,
1466451793.03,2.921095,-0.023532,-0.713409,0.009977,-0.480308,0.009823,0.218655,0.023529,0.975518,-0.013516,0.001007,0.004676,22.899263,367.918945,15.468231,,,,,,
1466451793.04,2.916420,-0.023613,-0.713527,0.011064,-0.462258,0.009711,0.223212,0.023611,0.974484,-0.017447,0.002543,0.004123,23.126888,367.916229,15.191080,,,,,,
1466451793.05,2.912023,-0.023706,-0.713641,0.011106,-0.430401,0.008447,0.227495,0.023703,0.973491,-0.020967,0.003808,0.005055,23.126888,367.916229,15.191080,,,,,,
1466451793.06,2.908608,-0.023857,-0.713724,0.007948,-0.403847,0.007213,0.230817,0.023854,0.972705,-0.019666,0.001994,0.002027,23.326267,367.916016,14.888763,,,,,,
1466451793.07,2.905477,-0.024079,-0.713798,0.006904,-0.385795,0.008162,0.233860,0.024077,0.971972,-0.021137,0.003893,0.005231,23.326267,367.916016,14.888763,,,,,,
1466451793.08,2.902885,-0.024099,-0.713854,0.006955,-0.348620,0.005800,0.236379,0.024096,0.971362,-0.027608,-0.001162,0.004712,23.326267,367.916016,14.888763,,,,,,
1466451793.09,2.901232,-0.024105,-0.713892,0.004917,-0.275347,0.005339,0.237983,0.024102,0.970970,-0.033394,-0.001016,0.015053,23.600269,367.919189,14.369724,,,,,,
1466451793.10,2.900619,-0.024112,-0.713898,0.002906,-0.184016,0.002635,0.238579,0.024109,0.970824,-0.037148,-0.000428,0.018419,23.600269,367.919189,14.369724,,,,,,
1466451793.12,2.902431,-0.024208,-0.713850,-0.000024,0.023059,-0.000796,0.236819,0.024205,0.971252,-0.036684,0.002025,0.015595,23.600269,367.919189,14.369724,,,,,,
1466451793.11,2.901041,-0.024135,-0.713885,0.001969,-0.082074,0.001994,0.238169,0.024133,0.970924,-0.038843,0.000067,0.014718,23.600269,367.919189,14.369724,,,,,,
1466451793.13,2.904684,-0.024230,-0.713798,-0.000969,0.117571,-0.002455,0.234630,0.024227,0.971783,-0.032436,0.001148,0.016209,23.595787,367.921387,14.320389,,,,,,
1466451793.14,2.907493,-0.024316,-0.713736,-0.001940,0.189783,-0.003973,0.231899,0.024314,0.972436,-0.027645,0.002816,0.010596,23.595787,367.921387,14.320389,,,,,,
1466451793.15,2.910358,-0.024337,-0.713669,-0.006142,0.235446,-0.004264,0.229112,0.024335,0.973096,-0.015367,0.001895,0.005099,23.472965,367.925751,14.410368,,,,,,
1466451793.16,2.912986,-0.024290,-0.713600,-0.008251,0.250316,-0.005424,0.226554,0.024288,0.973696,-0.002387,0.000493,-0.002718,23.472965,367.925751,14.410368,,,,,,
1466451793.17,2.915001,-0.024367,-0.713552,-0.005088,0.228009,-0.003152,0.224591,0.024365,0.974149,0.012149,0.004093,-0.006207,23.472965,367.925751,14.410368,,,,,,
1466451793.18,2.916232,-0.024431,-0.713520,-0.004076,0.182352,-0.004994,0.223391,0.024429,0.974423,0.022352,0.002976,-0.013852,23.346928,367.927856,14.559835,,,,,,
1466451793.19,2.916793,-0.024482,-0.713506,-0.004155,0.123940,-0.001435,0.222844,0.024480,0.974547,0.025599,0.002559,-0.014784,23.346928,367.927856,14.559835,,,,,,
1466451793.20,2.916549,-0.024519,-0.713500,-0.002109,0.055981,-0.002071,0.223082,0.024516,0.974491,0.030351,0.001302,-0.015141,23.346928,367.927856,14.559835,,,,,,
1466451793.21,2.915630,-0.024598,-0.713512,0.003131,-0.010921,-0.001646,0.223977,0.024595,0.974284,0.030204,0.001619,-0.014811,23.240330,367.934265,14.569077,,,,,,
1466451793.22,2.914178,-0.024659,-0.713531,0.003050,-0.074637,-0.000182,0.225391,0.024656,0.973956,0.026043,0.000933,-0.015109,23.240330,367.934265,14.569077,,,,,,
1466451793.23,2.912336,-0.024753,-0.713564,0.002981,-0.127734,0.001215,0.227184,0.024750,0.973537,0.020100,0.002289,-0.013775,23.240330,367.934265,14.569077,,,,,,
1466451793.24,2.910313,-0.024815,-0.713611,0.002932,-0.163844,0.003571,0.229153,0.024813,0.973074,0.012821,0.001295,-0.008978,23.274122,367.936371,14.461182,,,,,,
1466451793.25,2.908308,-0.024872,-0.713665,0.003971,-0.182961,0.004756,0.231103,0.024869,0.972611,0.004584,0.001056,-0.005158,23.274122,367.936371,14.461182,,,,,,
1466451793.26,2.906706,-0.024907,-0.713707,0.003993,-0.167030,0.003592,0.232660,0.024905,0.972239,-0.007425,0.000074,-0.002436,23.274122,367.936371,14.461182,,,,,,
1466451793.27,2.905660,-0.025010,-0.713737,0.001901,-0.137297,0.003403,0.233677,0.025007,0.971993,-0.016590,0.003038,0.002647,23.274122,367.936371,14.461182,,,,,,
1466451793.28,2.905235,-0.025025,-0.713743,-0.000158,-0.083137,0.001997,0.234090,0.025022,0.971893,-0.021474,0.000811,0.004578,23.423101,367.937775,14.182932,,,,,,
1466451793.29,2.905512,-0.024991,-0.713726,-0.001144,-0.021546,0.000545,0.233821,0.024989,0.971959,-0.023219,-0.000880,0.012844,23.423101,367.937775,14.182932,,,,,,
1466451793.30,2.906365,-0.024989,-0.713704,-0.002137,0.033675,-0.000867,0.232992,0.024986,0.972158,-0.023488,0.000664,0.011042,23.423101,367.937775,14.182932,,,,,,
1466451793.31,2.907625,-0.024944,-0.713674,-0.002072,0.085707,-0.001193,0.231767,0.024942,0.972452,-0.019334,-0.000787,0.006949,23.420029,367.939392,14.146036,,,,,,
1466451793.32,2.909146,-0.024997,-0.713639,-0.002028,0.118628,-0.002464,0.230287,0.024994,0.972802,-0.013902,0.003112,0.007270,23.420029,367.939392,14.146036,,,,,,
1466451793.33,2.910639,-0.024994,-0.713602,-0.002004,0.136682,-0.003642,0.228835,0.024991,0.973144,-0.004439,0.000232,0.003235,23.356800,367.940796,14.213638,,,,,,
1466451793.34,2.911901,-0.025074,-0.713571,0.001177,0.126062,-0.003573,0.227606,0.025071,0.973430,0.003290,0.002501,-0.000316,23.356800,367.940796,14.213638,,,,,,
1466451793.35,2.912712,-0.025192,-0.713537,0.003279,0.101641,-0.004482,0.226816,0.025190,0.973612,0.012183,0.003802,-0.003290,23.356800,367.940796,14.213638,,,,,,
1466451793.36,2.913038,-0.025152,-0.713525,0.002161,0.061288,-0.003165,0.226498,0.025150,0.973687,0.015674,-0.003772,-0.010827,23.286583,367.943604,14.256039,,,,,,
1466451793.37,2.912881,-0.025288,-0.713515,0.010633,0.026238,-0.001873,0.226651,0.025286,0.973648,0.021610,0.002180,-0.007126,23.286583,367.943604,14.256039,,,,,,
1466451793.38,2.912275,-0.025478,-0.713506,0.009495,-0.037463,-0.004668,0.227239,0.025475,0.973506,0.018366,0.003852,0.001638,23.286583,367.943604,14.256039,,,,,,
1466451793.39,2.911216,-0.025480,-0.713511,0.009459,-0.062955,-0.002379,0.228270,0.025477,0.973265,0.015795,-0.004649,-0.018263,23.224123,367.952576,14.125467,,,,,,
1466451793.40,2.910069,-0.025699,-0.713518,0.011548,-0.095873,-0.002170,0.229385,0.025697,0.972997,0.013291,0.004485,0.002055,23.224123,367.952576,14.125467,,,,,,
,,,,,,,,,,,,,,,,29.719959,-95.399082,9.675040,-1.000000,-1.000000,1466452121.07
1466451793.41,2.908760,-0.025769,-0.713530,0.011534,-0.106493,-0.002104,0.230658,0.025766,0.972694,0.003610,-0.001764,-0.023383,23.224123,367.952576,14.125467,,,,,,
1466451793.42,2.907823,-0.025899,-0.713557,0.011535,-0.102251,-0.000001,0.231569,0.025897,0.972474,-0.001619,0.000471,0.010375,23.240829,367.956543,13.993856,,,,,,
1466451793.43,2.906996,-0.026021,-0.713562,0.005171,-0.085255,-0.001179,0.232372,0.026018,0.972279,-0.009609,0.002409,-0.014942,23.240829,367.956543,13.993856,,,,,,
1466451793.44,2.906772,-0.026088,-0.713575,0.004156,-0.041725,0.000676,0.232589,0.026085,0.972225,-0.014129,0.000465,0.000034,23.240829,367.956543,13.993856,,,,,,
1466451793.45,2.906834,-0.026164,-0.713568,-0.003269,-0.018363,0.001586,0.232528,0.026161,0.972238,-0.017852,0.003975,-0.009576,23.274021,367.962799,13.773195,,,,,,
1466451793.46,2.907398,-0.026150,-0.713547,-0.003198,0.036856,0.000175,0.231980,0.026147,0.972369,-0.014955,0.001106,-0.002688,23.274021,367.962799,13.773195,,,,,,
1466451793.47,2.908153,-0.026093,-0.713529,-0.008505,0.051722,0.001141,0.231246,0.026090,0.972545,-0.011764,-0.000089,0.005482,23.274021,367.962799,13.773195,,,,,,
1466451793.48,2.909042,-0.026086,-0.713506,-0.005283,0.071899,-0.000047,0.230382,0.026083,0.972751,-0.009984,0.003062,-0.000583,23.250238,367.964478,13.768045,,,,,,
1466451793.49,2.909906,-0.025985,-0.713493,-0.009549,0.066593,-0.000018,0.229542,0.025982,0.972952,-0.006993,-0.000957,0.000559,23.250238,367.964478,13.768045,,,,,,
1466451793.50,2.910559,-0.025906,-0.713488,-0.013811,0.070831,0.004209,0.228907,0.025903,0.973104,-0.000514,0.002676,-0.015599,23.250238,367.964478,13.768045,,,,,,
1466451793.51,2.911006,-0.025840,-0.713496,-0.011701,0.051722,0.002202,0.228473,0.025837,0.973207,0.006116,0.002697,-0.004732,23.206059,367.961029,13.933619,,,,,,
1466451793.52,2.911154,-0.025686,-0.713499,-0.010662,0.030484,0.002336,0.228330,0.025683,0.973245,0.008853,-0.001971,-0.008356,23.206059,367.961029,13.933619,,,,,,
1466451793.53,2.911036,-0.025666,-0.713510,-0.007504,0.001813,0.002519,0.228444,0.025663,0.973219,0.011012,0.003298,0.000246,23.206059,367.961029,13.933619,,,,,,
1466451793.54,2.910579,-0.025490,-0.713533,-0.011800,-0.025796,0.003753,0.228890,0.025487,0.973119,0.008216,-0.003285,-0.016530,-102.346138,373.615814,-36.238033,,,,,,
1466451793.55,2.909987,-0.025425,-0.713563,-0.008638,-0.048103,0.006025,0.229466,0.025422,0.972985,0.006969,0.002013,-0.006050,-102.346138,373.615814,-36.238033,,,,,,
1466451793.56,2.909271,-0.025324,-0.713588,-0.011849,-0.061905,0.006108,0.230164,0.025322,0.972822,0.004349,0.001305,-0.006712,-102.346138,373.615814,-36.238033,,,,,,
1466451793.57,2.908579,-0.025249,-0.713623,-0.009720,-0.064027,0.005059,0.230837,0.025247,0.972665,0.000837,0.001365,-0.004708,-102.346138,373.615814,-36.238033,,,,,,
1466451793.58,2.908037,-0.025227,-0.713635,-0.007575,-0.055528,0.002879,0.231365,0.025224,0.972540,-0.002712,0.003646,0.002237,-102.350433,373.645142,-35.921715,,,,,,
1466451793.59,2.907773,-0.025097,-0.713646,-0.007546,-0.032167,0.002732,0.231622,0.025094,0.972482,-0.006753,-0.002435,0.000113,-102.350433,373.645142,-35.921715,,,,,,
1466451793.60,2.907788,-0.025089,-0.713634,-0.005387,-0.011987,0.000479,0.231607,0.025086,0.972486,-0.007639,0.002624,0.010226,-102.350433,373.645142,-35.921715,,,,,,
1466451793.61,2.908011,-0.025004,-0.713622,-0.004298,0.007126,0.000360,0.231392,0.025001,0.972539,-0.011116,-0.001930,-0.000570,-102.366447,373.663147,-35.688393,,,,,,
1466451793.62,2.908437,-0.024916,-0.713616,-0.003206,0.027304,-0.000830,0.230977,0.024913,0.972640,-0.008870,-0.002422,0.006715,-102.366447,373.663147,-35.688393,,,,,,
1466451793.63,2.908883,-0.024937,-0.713602,-0.001065,0.036859,-0.000888,0.230544,0.024935,0.972742,-0.003447,0.001661,0.004690,-102.335083,373.671570,-35.690285,,,,,,
1466451793.64,2.909310,-0.025010,-0.713585,0.000006,0.041106,-0.000913,0.230127,0.025007,0.972839,0.000509,0.004259,0.004044,-102.335083,373.671570,-35.690285,,,,,,
1466451793.65,2.909697,-0.024912,-0.713568,-0.003186,0.041111,-0.001981,0.229751,0.024909,0.972930,-0.000641,-0.004646,-0.008880,-102.335083,373.671570,-35.690285,,,,,,
1466451793.66,2.909980,-0.025040,-0.713554,-0.000007,0.032608,0.000204,0.229476,0.025037,0.972992,0.004258,0.007037,-0.003220,-102.322975,373.663330,-35.811119,,,,,,
1466451793.67,2.910005,-0.024974,-0.713547,-0.004289,0.012438,-0.000738,0.229451,0.024972,0.973000,0.005153,-0.001763,-0.010994,-102.322975,373.663330,-35.811119,,,,,,
1466451793.68,2.909866,-0.024936,-0.713557,-0.003248,-0.003496,0.001492,0.229587,0.024934,0.972969,0.005841,-0.000275,-0.007469,-102.322975,373.663330,-35.811119,,,,,,
1466451793.69,2.909550,-0.024926,-0.713556,-0.003270,-0.019415,0.000530,0.229894,0.024924,0.972896,0.005808,0.001596,-0.009914,-102.307068,373.665009,-35.838737,,,,,,
1466451793.70,2.909218,-0.024850,-0.713574,-0.003280,-0.026848,0.000577,0.230218,0.024847,0.972822,0.002356,-0.002798,-0.008359,-102.307068,373.665009,-35.838737,,,,,,
1466451793.71,2.908797,-0.024870,-0.713591,-0.000098,-0.035347,0.001698,0.230628,0.024868,0.972724,0.001138,-0.003231,-0.003990,-102.307068,373.665009,-35.838737,,,,,,
1466451793.72,2.908503,-0.024911,-0.713586,-0.000087,-0.030032,-0.000464,0.230913,0.024908,0.972656,-0.000734,0.002298,0.004105,-102.307068,373.665009,-35.838737,,,,,,
1466451793.74,2.908156,-0.024916,-0.713597,0.000994,-0.017290,-0.000543,0.231251,0.024914,0.972575,-0.006138,-0.002117,0.002599,-102.343201,373.669128,-35.692516,,,,,,
1466451793.73,2.908247,-0.024950,-0.713604,0.000972,-0.030041,0.002730,0.231162,0.024947,0.972596,-0.003134,0.001435,-0.003159,-102.343201,373.669128,-35.692516,,,,,,
1466451793.75,2.908173,-0.024987,-0.713595,-0.001121,-0.007729,-0.001670,0.231234,0.024984,0.972577,-0.006457,0.003535,-0.000989,-102.343201,373.669128,-35.692516,,,,,,
1466451793.76,2.908271,-0.024921,-0.713592,0.001020,0.005006,0.000381,0.231139,0.024918,0.972602,-0.004698,-0.003632,0.000299,-102.351784,373.669891,-35.660069,,,,,,
1466451793.77,2.908496,-0.024975,-0.713577,0.001038,0.015630,-0.001814,0.230919,0.024972,0.972652,-0.004296,0.002906,0.004353,-102.351784,373.669891,-35.660069,,,,,,
1466451793.78,2.908741,-0.025031,-0.713570,0.002104,0.016692,-0.001820,0.230680,0.025028,0.972708,-0.003813,0.001217,0.000956,-102.351784,373.669891,-35.660069,,,,,,
1466451793.79,2.908924,-0.025035,-0.713556,0.001041,0.017754,-0.001828,0.230503,0.025032,0.972750,-0.001041,-0.000939,-0.003633,-102.350800,373.660645,-35.759083,,,,,,
1466451793.80,2.909036,-0.025097,-0.713533,0.001043,0.017757,-0.002892,0.230393,0.025094,0.972774,0.003539,0.002189,-0.001369,-102.350800,373.660645,-35.759083,,,,,,
1466451793.81,2.909101,-0.025147,-0.713523,0.003161,0.010320,-0.001779,0.230330,0.025144,0.972788,0.001069,0.000841,-0.011331,-102.350800,373.660645,-35.759083,,,,,,
1466451793.82,2.909064,-0.025157,-0.713516,0.001022,0.002888,-0.001735,0.230366,0.025155,0.972779,0.002666,-0.000527,-0.004578,-102.359497,373.653412,-35.810001,,,,,,
1466451793.83,2.909004,-0.025160,-0.713513,0.001014,-0.002424,-0.000637,0.230425,0.025157,0.972765,0.002440,-0.000331,-0.004763,-102.359497,373.653412,-35.810001,,,,,,
1466451793.84,2.908852,-0.025223,-0.713513,0.002067,-0.011981,-0.000576,0.230572,0.025221,0.972728,0.001881,0.002215,-0.005871,-102.359497,373.653412,-35.810001,,,,,,
1466451793.85,2.908750,-0.025224,-0.713506,0.002069,-0.009858,-0.000589,0.230671,0.025222,0.972705,-0.001820,-0.001113,-0.007113,-102.384056,373.644257,-35.835491,,,,,,
1466451793.86,2.907106,-0.025171,-0.713595,-0.003258,0.000730,0.007855,0.232270,0.025169,0.972326,0.088302,-0.001701,-0.022024,-102.384056,373.644257,-35.835491,,,,,,
1466451793.87,2.905559,-0.025032,-0.713729,-0.013186,-0.259433,0.019057,0.233775,0.025030,0.971969,0.471380,-0.000707,-0.171294,-102.384056,373.644257,-35.835491,,,,,,
1466451793.88,2.892383,-0.024993,-0.714061,0.017791,-1.860677,0.039775,0.246561,0.024990,0.968805,1.049139,0.038700,-0.429453,-102.412262,373.654724,-35.645046,,,,,,
1466451793.89,2.847498,-0.025976,-0.715099,0.162354,-5.405124,0.089824,0.289776,0.025973,0.956742,0.800480,0.025464,-0.393601,-102.412262,373.654724,-35.645046,,,,,,
1466451793.90,2.778443,-0.027220,-0.716945,0.162279,-7.093511,0.144055,0.355089,0.027217,0.934436,0.304564,-0.014293,0.003842,-102.412262,373.654724,-35.645046,,,,,,
1466451793.91,2.713226,-0.027963,-0.718583,0.135706,-6.243993,0.116347,0.415223,0.027959,0.909290,-0.035630,-0.001546,0.327343,-105.239243,373.837921,-23.379810,,,,,,
1466451793.92,2.656866,-0.028676,-0.720228,0.128141,-5.480559,0.113681,0.465775,0.028672,0.884439,-0.143494,0.003860,0.261588,-105.239243,373.837921,-23.379810,,,,,,
1466451793.93,2.604289,-0.029026,-0.721749,0.101876,-5.185388,0.120319,0.511606,0.029022,0.858730,-0.071100,-0.024231,0.144764,-105.239243,373.837921,-23.379810,,,,,,
1466451793.94,2.553677,-0.029385,-0.723225,0.112730,-5.052612,0.099272,0.554388,0.029381,0.831739,0.054728,0.030647,0.146837,-106.464668,374.044891,-11.507229,,,,,,
1466451793.95,2.500216,-0.029536,-0.724638,0.077058,-5.473081,0.106132,0.598038,0.029532,0.800923,-0.543930,-0.021658,-0.010457,-106.464668,374.044891,-11.507229,,,,,,
1466451793.96,2.457206,-0.029298,-0.725835,0.050745,-3.506652,0.109739,0.631927,0.029294,0.774474,-1.584807,-0.071378,0.755814,-106.298058,374.266815,-1.331451,,,,,,
1466451793.97,2.463943,-0.028628,-0.725926,-0.083590,2.209247,0.020535,0.626707,0.028624,0.778729,-1.280210,0.013796,1.168949,-106.298058,374.266815,-1.331451,,,,,,
1466451793.98,2.518067,-0.027941,-0.724764,-0.124471,6.008589,-0.072523,0.583673,0.027938,0.811508,0.338690,0.056733,0.136139,-106.298058,374.266815,-1.331451,,,,,,
1466451793.99,2.556065,-0.027703,-0.723617,-0.075682,2.437762,-0.064982,0.552427,0.027700,0.833101,0.991595,0.015055,-0.841478,-106.298058,374.266815,-1.331451,,,,,,
1466451794.00,2.538731,-0.027666,-0.723575,0.030595,-2.745068,0.010207,0.566785,0.027662,0.823401,0.633014,0.031802,-0.695746,-105.495270,374.487549,2.551880,,,,,,
1466451794.01,2.510919,-0.028074,-0.724143,0.049096,-2.400035,0.024028,0.589456,0.028071,0.807312,-0.162302,-0.019572,0.288269,-105.495270,374.487549,2.551880,,,,,,
1466451794.02,2.505464,-0.027912,-0.723912,-0.035110,0.026309,-0.021077,0.593854,0.027908,0.804088,-0.231031,0.011230,0.381703,-105.495270,374.487549,2.551880,,,,,,
1466451794.04,2.504551,-0.028146,-0.723725,0.005053,-1.026017,0.006851,0.594585,0.028143,0.803540,0.290730,-0.009512,-0.262342,-105.704506,374.415039,4.081989,,,,,,
1466451794.03,2.510676,-0.028099,-0.723723,0.011210,0.452071,-0.024766,0.589652,0.028095,0.807168,0.107674,0.000103,-0.085184,-105.704506,374.415039,4.081989,,,,,,
1466451794.05,2.485783,-0.028344,-0.724228,0.060159,-2.049678,0.033551,0.609556,0.028340,0.792236,0.184175,-0.000080,-0.123291,-105.704506,374.415039,4.081989,,,,,,
1466451794.06,2.465602,-0.028525,-0.724902,0.049625,-1.942460,0.043512,0.625416,0.028521,0.779770,0.028072,-0.007586,0.060577,-105.809166,374.384674,4.150234,,,,,,
1466451794.07,2.448352,-0.028657,-0.725589,0.060598,-1.678085,0.045059,0.638770,0.028653,0.768864,0.044823,0.004215,0.051998,-105.809166,374.384674,4.150234,,,,,,
1466451794.08,2.429759,-0.028881,-0.726355,0.066637,-1.961581,0.043649,0.652951,0.028877,0.756850,0.138263,0.010170,-0.074873,-105.312500,374.464813,7.877342,,,,,,
1466451794.09,2.406005,-0.029051,-0.727201,0.070211,-2.495691,0.054454,0.670740,0.029047,0.741123,0.131552,-0.003123,-0.082630,-105.312500,374.464813,7.877342,,,,,,
1466451794.10,2.379120,-0.029262,-0.728128,0.079517,-2.719730,0.053739,0.690416,0.029258,0.722821,0.083281,0.004785,0.001285,-105.312500,374.464813,7.877342,,,,,,
1466451794.11,2.351812,-0.029426,-0.729021,0.074196,-2.722904,0.050560,0.709892,0.029422,0.703696,0.019402,0.006604,0.036309,-103.557358,374.699554,15.900600,,,,,,
1466451794.12,2.325445,-0.029746,-0.729932,0.095656,-2.608209,0.039218,0.728190,0.029742,0.684730,-0.145854,0.006925,0.144265,-103.557358,374.699554,15.900600,,,,,,
1466451794.13,2.303903,-0.030004,-0.730670,0.050740,-1.931792,0.025351,0.742765,0.030000,0.668880,-0.294767,-0.017778,0.182271,-103.557358,374.699554,15.900600,,,,,,
1466451794.14,2.292440,-0.030034,-0.730689,0.000941,-0.943135,-0.014962,0.750382,0.030029,0.660322,-0.185456,0.034912,0.232318,-103.557358,374.699554,15.900600,,,,,,
1466451794.15,2.285594,-0.030169,-0.730989,0.026839,-0.608782,0.020223,0.754883,0.030165,0.655166,-0.328644,-0.061812,0.146912,-101.377266,374.871674,23.887115,,,,,,
1466451794.16,2.285076,-0.030221,-0.730816,-0.009349,0.201477,-0.015764,0.755220,0.030217,0.654774,-0.364077,0.002712,0.246151,-101.377266,374.871674,23.887115,,,,,,
1466451794.17,2.302636,-0.030757,-0.730313,-0.036644,1.339817,-0.034641,0.743595,0.030752,0.667923,-0.400775,0.028880,0.196380,-101.220627,374.871124,24.550461,,,,,,
1466451794.18,2.324169,-0.030749,-0.729700,-0.047034,2.412211,-0.029668,0.729041,0.030744,0.683779,-0.421118,-0.059705,0.176511,-101.220627,374.871124,24.550461,,,,,,
1466451794.19,2.355751,-0.030754,-0.728705,-0.073406,3.388141,-0.079458,0.707086,0.030749,0.706459,-0.331292,0.036024,0.227211,-101.220627,374.871124,24.550461,,,,,,
1466451794.20,2.395553,-0.030601,-0.727561,-0.103321,4.162199,-0.080084,0.678418,0.030596,0.734039,-0.309888,-0.005862,0.173753,-102.532242,374.744354,20.748825,,,,,,
1466451794.21,2.443658,-0.030436,-0.726162,-0.101176,5.019083,-0.088650,0.642339,0.030431,0.765816,-0.273137,-0.033223,0.235527,-102.532242,374.744354,20.748825,,,,,,
1466451794.22,2.499748,-0.030143,-0.724440,-0.134232,5.770955,-0.129589,0.598402,0.030139,0.800629,-0.177336,0.043149,0.246628,-102.532242,374.744354,20.748825,,,,,,
1466451794.23,2.561736,-0.029716,-0.722728,-0.142082,6.328362,-0.117126,0.547662,0.029711,0.836172,-0.144159,-0.023882,0.230860,-106.021416,374.327362,3.897194,,,,,,
1466451794.24,2.629207,-0.029178,-0.720736,-0.145624,6.873115,-0.137578,0.490050,0.029173,0.871206,-0.078184,0.000093,0.275339,-106.021416,374.327362,3.897194,,,,,,
1466451794.25,2.701292,-0.028318,-0.718709,-0.177004,7.304252,-0.150957,0.426041,0.028314,0.904261,0.008590,0.028693,0.270483,-106.021416,374.327362,3.897194,,,,,,
1466451794.26,2.776161,-0.027463,-0.716737,-0.152261,7.521883,-0.142718,0.357218,0.027460,0.933617,0.067877,-0.022684,0.248374,-106.668602,374.059845,-8.816711,,,,,,
1466451794.28,2.922538,-0.024173,-0.713711,-0.271891,6.473764,-0.071332,0.217243,0.024170,0.975818,1.891262,-0.027588,-0.341358,-106.668602,374.059845,-8.816711,,,,,,
1466451794.27,2.852184,-0.026297,-0.714850,-0.171334,7.622716,-0.126338,0.285287,0.026294,0.958081,0.244040,-0.002109,0.231067,-106.668602,374.059845,-8.816711,,,,,,
1466451794.29,2.929812,-0.024404,-0.712855,0.159735,-1.711853,-0.033402,0.210139,0.024402,0.977367,2.466375,0.179700,-1.358226,-106.668602,374.059845,-8.816711,,,,,,
1466451794.30,2.861780,-0.026156,-0.714647,0.154040,-7.741131,0.136397,0.276081,0.026153,0.960779,1.440518,-0.015563,-0.869165,-101.726349,373.723572,-36.866577,,,,,,
1466451794.31,2.783802,-0.027425,-0.716397,0.210533,-7.671115,0.148788,0.350074,0.027421,0.936321,0.736474,-0.052995,0.107869,-101.726349,373.723572,-36.866577,,,,,,
1466451794.32,2.708164,-0.028502,-0.718343,0.153223,-7.574375,0.116190,0.419815,0.028498,0.907162,0.207703,0.085058,0.170841,-103.645035,373.692902,-31.433002,,,,,,
1466451794.33,2.631574,-0.029308,-0.720399,0.161564,-7.659420,0.151859,0.487983,0.029304,0.872361,-0.051109,-0.089164,0.093124,-103.645035,373.692902,-31.433002,,,,,,
1466451794.34,2.561050,-0.029384,-0.721876,0.068284,-6.478648,0.144361,0.548241,0.029380,0.835804,-1.567986,-0.060386,0.365322,-103.645035,373.692902,-31.433002,,,,,,
1466451794.35,2.543303,-0.027572,-0.722448,-0.194757,0.337086,0.141801,0.563016,0.027568,0.825986,-3.024930,-0.160823,1.457583,-103.645035,373.692902,-31.433002,,,,,,
1466451794.36,2.621819,-0.024466,-0.721208,-0.347445,10.042282,-0.006503,0.496535,0.024463,0.867672,-0.642104,0.037350,1.530049,-106.707390,374.148193,-1.833660,,,,,,
1466451794.37,2.714701,-0.022870,-0.718422,-0.240479,7.582558,-0.182571,0.413935,0.022868,0.910019,1.501043,0.179250,-0.824067,-106.707390,374.148193,-1.833660,,,,,,
1466451794.38,2.719777,-0.021700,-0.717231,-0.091048,-1.335820,-0.046655,0.409321,0.021698,0.912132,0.847088,0.041824,-1.122750,-105.701736,374.380096,-6.587166,,,,,,
1466451794.39,2.700403,-0.023179,-0.717299,0.157934,-1.462307,-0.042420,0.426901,0.023177,0.904001,-0.081503,0.066911,0.302465,-105.701736,374.380096,-6.587166,,,,,,
1466451794.40,2.718202,-0.022550,-0.716367,-0.160288,2.867919,-0.082669,0.410750,0.022548,0.911469,-0.396437,-0.045115,0.609420,-105.701736,374.380096,-6.587166,,,,,,
1466451794.41,2.757154,-0.022329,-0.715481,-0.019729,3.777730,-0.057365,0.374945,0.022327,0.926778,0.208841,-0.036609,-0.073095,-105.935440,374.058441,-15.318855,,,,,,
1466451794.42,2.773163,-0.021543,-0.714931,-0.118383,0.719707,-0.009545,0.360067,0.021541,0.932678,0.693537,-0.010402,-0.669708,-105.935440,374.058441,-15.318855,,,,,,
1466451794.43,2.760180,-0.021265,-0.715270,0.029611,-1.746020,0.059289,0.372148,0.021263,0.927930,0.499831,0.000389,-0.468854,-105.935440,374.058441,-15.318855,,,,,,
1466451794.44,2.743667,-0.021016,-0.715985,-0.024341,-1.442361,0.073298,0.387421,0.021014,0.921663,0.086883,-0.011188,0.006773,-105.299927,373.986145,-20.567169,,,,,,
1466451794.45,2.736230,-0.020712,-0.716467,0.017240,-0.573783,0.051925,0.394268,0.020711,0.918762,-0.004406,0.028804,0.170242,-105.299927,373.986145,-20.567169,,,,,,
1466451794.46,2.729646,-0.021027,-0.717030,0.047908,-0.771241,0.034034,0.400306,0.021026,0.916140,0.117715,0.024156,-0.038974,-105.299927,373.986145,-20.567169,,,,,,
1466451794.47,2.716888,-0.021348,-0.717487,0.054558,-1.428471,0.027518,0.411958,0.021346,0.910953,0.174041,-0.001067,-0.166416,-105.297707,374.205292,-16.109024,,,,,,
1466451794.49,2.687471,-0.021977,-0.718358,0.016432,-1.260696,0.029621,0.438567,0.021976,0.898430,-0.030501,-0.028690,-0.042488,-105.297707,374.205292,-16.109024,,,,,,
1466451794.48,2.701045,-0.021856,-0.717977,0.065022,-1.581365,0.024229,0.426333,0.021854,0.904302,0.080655,-0.003513,-0.115392,-105.297707,374.205292,-16.109024,,,,,,
1466451794.50,2.677239,-0.021874,-0.718669,0.002948,-0.963405,0.035194,0.447738,0.021872,0.893897,-0.042998,-0.020606,-0.052955,-105.526962,374.243011,-13.524826,,,,,,
1466451794.51,2.668325,-0.021568,-0.718927,-0.021432,-0.873146,0.036733,0.455691,0.021567,0.889877,-0.046588,-0.006827,-0.062606,-105.526962,374.243011,-13.524826,,,,,,
1466451794.52,2.661403,-0.021167,-0.719138,-0.028545,-0.602382,0.035028,0.461844,0.021165,0.886709,-0.098867,-0.011369,-0.006323,-105.526962,374.243011,-13.524826,,,,,,
1466451794.53,2.658794,-0.020735,-0.719115,-0.039647,-0.147869,0.011941,0.464160,0.020734,0.885509,-0.089496,0.017612,0.019811,-105.475281,374.386230,-9.306667,,,,,,
1466451794.54,2.660383,-0.020362,-0.718925,-0.045505,0.254592,-0.003362,0.462756,0.020361,0.886252,-0.100146,0.005320,0.027322,-105.475281,374.386230,-9.306667,,,,,,
1466451794.55,2.665184,-0.019835,-0.718531,-0.070689,0.539185,-0.011559,0.458501,0.019833,0.888473,-0.034200,-0.011899,-0.049026,-105.475281,374.386230,-9.306667,,,,,,
1466451794.56,2.671255,-0.019145,-0.718049,-0.084447,0.606086,-0.011992,0.453104,0.019144,0.891252,0.041204,-0.019311,-0.113923,-105.416077,374.412933,-8.894547,,,,,,
1466451794.57,2.676747,-0.018397,-0.717594,-0.087755,0.525373,-0.005102,0.448209,0.018396,0.893739,0.055636,-0.007776,-0.091539,-105.416077,374.412933,-8.894547,,,,,,
1466451794.58,2.681812,-0.017560,-0.717187,-0.095247,0.504123,0.001410,0.443683,0.017559,0.896012,0.075818,-0.007534,-0.077744,-105.416077,374.412933,-8.894547,,,,,,
1466451794.59,2.686260,-0.016744,-0.716829,-0.084729,0.406423,0.005227,0.439699,0.016743,0.897989,0.128142,0.005077,-0.089762,-105.319008,374.414490,-9.918934,,,,,,
1466451794.60,2.683268,-0.016296,-0.716702,-0.063738,0.169587,0.010991,0.442387,0.016296,0.896676,0.125911,0.005936,-0.070809,-105.319008,374.414490,-9.918934,,,,,,
1466451794.61,2.683532,-0.015814,-0.716597,-0.041609,-0.016237,0.011114,0.442154,0.015813,0.896800,0.138687,0.015529,-0.048808,-105.319008,374.414490,-9.918934,,,,,,
1466451794.62,2.682075,-0.015603,-0.716573,-0.015202,-0.194615,0.005872,0.443462,0.015603,0.896157,0.165516,0.016899,-0.062493,-105.257919,374.440857,-9.567013,,,,,,
1466451794.63,2.671481,-0.015792,-0.716719,0.001525,-0.444186,0.006390,0.452929,0.015791,0.891407,0.162107,0.006395,-0.081195,-105.257919,374.440857,-9.567013,,,,,,
1466451794.64,2.665465,-0.015834,-0.716830,0.010860,-0.641686,0.007638,0.458284,0.015833,0.888665,0.137587,0.003057,-0.078622,-105.257919,374.440857,-9.567013,,,,,,
1466451794.65,2.658460,-0.015904,-0.716986,0.011833,-0.709651,0.011259,0.464497,0.015903,0.885432,0.108211,0.001935,-0.062831,-105.289833,374.477783,-7.559616,,,,,,
1466451794.66,2.651318,-0.015988,-0.717092,0.012907,-0.713878,0.003835,0.470808,0.015987,0.882091,0.089800,0.007817,-0.045512,-105.289833,374.477783,-7.559616,,,,,,
1466451794.67,2.642195,-0.016241,-0.717210,0.013975,-0.716008,0.001721,0.478834,0.016240,0.877755,0.073778,0.006160,-0.051416,-105.289833,374.477783,-7.559616,,,,,,
1466451794.68,2.635442,-0.016292,-0.717243,0.003411,-0.651230,0.000239,0.484750,0.016291,0.874501,0.038184,-0.003001,-0.036076,-105.326614,374.492950,-6.167034,,,,,,
1466451794.69,2.630129,-0.016204,-0.717200,-0.014491,-0.488756,-0.000795,0.489390,0.016203,0.871915,0.027654,-0.010497,-0.026578,-105.326614,374.492950,-6.167034,,,,,,
1466451794.70,2.626071,-0.015998,-0.717056,-0.028203,-0.387875,-0.002505,0.492925,0.015997,0.869924,0.047968,-0.009497,-0.034613,-105.326614,374.492950,-6.167034,,,,,,
1466451794.71,2.620319,-0.015432,-0.716890,-0.035597,-0.343282,-0.004920,0.497926,0.015431,0.867082,0.046523,-0.007756,-0.029344,-105.462349,374.489166,-3.502789,,,,,,
1466451794.72,2.617389,-0.015080,-0.716608,-0.046158,-0.277439,-0.007473,0.500467,0.015079,0.865624,0.063712,-0.005207,-0.034783,-105.462349,374.489166,-3.502789,,,,,,
1466451794.73,2.614815,-0.014657,-0.716311,-0.052527,-0.255150,-0.003361,0.502697,0.014656,0.864339,0.064213,-0.005882,-0.024983,-105.462349,374.489166,-3.502789,,,,,,
1466451794.74,2.612474,-0.014196,-0.715996,-0.054615,-0.224353,-0.004621,0.504722,0.014195,0.863165,0.056649,0.001170,-0.001639,-105.462006,374.499146,-2.204632,,,,,,
1466451794.75,2.607877,-0.013646,-0.715729,-0.054580,-0.195700,-0.004800,0.508688,0.013645,0.860843,0.079904,-0.002018,-0.004870,-105.462006,374.499146,-2.204632,,,,,,
1466451794.76,2.605403,-0.013194,-0.715409,-0.053614,-0.276394,-0.005357,0.510819,0.013193,0.859587,0.111358,-0.002237,-0.014754,-105.462006,374.499146,-2.204632,,,,,,
1466451794.77,2.601841,-0.012894,-0.715143,-0.033505,-0.379387,-0.008949,0.513881,0.012894,0.857765,0.112981,0.011520,0.003365,-105.505905,374.493256,-0.102139,,,,,,
1466451794.79,2.590734,-0.012871,-0.714751,-0.017652,-0.480270,-0.011494,0.523376,0.012871,0.852005,0.102418,0.010017,0.019089,-105.505905,374.493256,-0.102139,,,,,,
1466451794.78,2.597603,-0.012728,-0.714923,-0.023986,-0.433538,-0.010729,0.517512,0.012728,0.855581,0.100332,0.013991,0.025614,-105.505905,374.493256,-0.102139,,,,,,
1466451794.80,2.585178,-0.012760,-0.714583,-0.018854,-0.584335,-0.007649,0.528102,0.012759,0.849085,0.111638,-0.002185,-0.008891,-105.568863,374.474274,0.964890,,,,,,
1466451794.81,2.578597,-0.012651,-0.714450,-0.013652,-0.677782,-0.004929,0.533679,0.012651,0.845593,0.095227,0.005599,0.013691,-105.568863,374.474274,0.964890,,,,,,
1466451794.82,2.571963,-0.012557,-0.714343,-0.014683,-0.649116,-0.004046,0.539278,0.012557,0.842034,0.062605,0.001527,0.044517,-105.568863,374.474274,0.964890,,,,,,
1466451794.83,2.565468,-0.012464,-0.714183,-0.015698,-0.620431,-0.010613,0.544736,0.012463,0.838515,0.090121,-0.000119,0.035692,-105.657951,374.430695,3.842781,,,,,,
1466451794.84,2.558675,-0.012465,-0.714010,-0.008339,-0.702182,-0.014351,0.550419,0.012464,0.834795,0.089961,0.001513,0.032758,-105.657951,374.430695,3.842781,,,,,,
1466451794.85,2.551649,-0.012503,-0.713831,-0.006186,-0.688371,-0.017629,0.556271,0.012502,0.830907,0.050739,0.003458,0.063823,-105.657951,374.430695,3.842781,,,,,,
1466451794.86,2.545650,-0.012469,-0.713602,-0.017747,-0.569440,-0.019451,0.561246,0.012469,0.827555,0.048038,-0.004717,0.065831,-105.682404,374.405334,5.344410,,,,,,
1466451794.87,2.539639,-0.012326,-0.713320,-0.020949,-0.576870,-0.020471,0.566211,0.012325,0.824168,0.067395,-0.006863,0.043462,-105.682404,374.405334,5.344410,,,,,,
1466451794.88,2.533204,-0.012312,-0.713052,-0.017822,-0.631025,-0.020129,0.571503,0.012312,0.820508,0.053665,0.002825,0.057620,-105.682404,374.405334,5.344410,,,,,,
