timestamp,attitude_roll,attitude_pitch,attitude_yaw,rotation_rate_x,rotation_rate_y,rotation_rate_z,gravity_x,gravity_y,gravity_z,user_acc_x,user_acc_y,user_acc_z,magnetic_field_x,magnetic_field_y,magnetic_field_z,latitude(degree),longitude(degree),altitude(meter),speed(m/s),course(degree),timestamp
1465828315.35,2.521110,-0.769701,0.603741,0.002015,-0.200935,0.004535,0.417534,0.695921,0.584260,-0.510445,-0.686353,-1.586289,29.624899,42.576904,-59.395073,,,,,,
1465828315.36,2.507161,-0.781515,0.595115,0.002158,-0.155322,0.004242,0.420740,0.704356,0.571717,-0.536875,-0.691599,-1.560166,29.624899,42.576904,-59.395073,,,,,,
1465828315.37,2.493733,-0.793508,0.586419,0.004429,-0.113955,0.002913,0.423251,0.712818,0.559240,-0.549930,-0.702686,-1.545293,27.424601,39.553699,-62.462776,,,,,,
,,,,,,,,,,,,,,,,29.719993,-95.398995,10.973465,-1.000000,-1.000000,1465830457.19
,,,,,,,,,,,,,,,,29.720013,-95.398962,11.048320,-1.000000,-1.000000,1465830663.92
1465828315.38,2.478044,-0.804795,0.576229,0.001252,-0.171334,0.003264,0.426990,0.720688,0.546158,-0.527286,-0.710755,-1.542282,27.424601,39.553699,-62.462776,,,,,,
1465828315.39,2.460033,-0.815632,0.564905,0.001220,-0.266945,0.005988,0.431810,0.728159,0.532282,-0.513613,-0.713877,-1.533884,26.299006,37.969967,-63.912796,,,,,,
1465828315.40,2.440695,-0.826241,0.553070,0.000166,-0.333878,0.005337,0.437016,0.735390,0.517899,-0.519581,-0.725914,-1.523743,26.299006,37.969967,-63.912796,,,,,,
,,,,,,,,,,,,,,,,29.719993,-95.398995,10.973465,-1.000000,-1.000000,1465830457.19
1465828315.41,2.420854,-0.837120,0.541071,0.000205,-0.374274,0.006650,0.441898,0.742718,0.503086,-0.533970,-0.728939,-1.499607,26.299006,37.969967,-63.912796,,,,,,
1465828315.42,2.400780,-0.848087,0.529064,-0.000822,-0.415732,0.007967,0.446383,0.750017,0.488075,-0.553973,-0.740633,-1.485008,24.929565,36.276726,-65.427193,,,,,,
1465828315.43,2.378507,-0.858447,0.515921,-0.002980,-0.513461,0.008573,0.451748,0.756829,0.472371,-0.543453,-0.744912,-1.471990,24.929565,36.276726,-65.427193,,,,,,
1465828315.44,2.355139,-0.867863,0.502642,-0.004093,-0.617568,0.012413,0.457597,0.762949,0.456632,-0.544298,-0.752466,-1.460355,24.929565,36.276726,-65.427193,,,,,,
1465828315.46,2.290745,-0.897389,0.463087,-0.003913,-0.686716,0.011764,0.468887,0.781701,0.411204,-0.597351,-0.767877,-1.402979,21.609718,32.797150,-68.378128,,,,,,
1465828315.45,2.315889,-0.886941,0.477429,-0.005035,-0.655878,0.012641,0.464379,0.775142,0.428376,-0.585625,-0.764583,-1.418779,21.609718,32.797150,-68.378128,,,,,,
1465828315.47,2.267000,-0.905799,0.450139,-0.004971,-0.741975,0.014234,0.473457,0.786918,0.395725,-0.599022,-0.775489,-1.389362,21.609718,32.797150,-68.378128,,,,,,
1465828315.48,2.246165,-0.912205,0.439947,-0.006064,-0.814208,0.014681,0.477654,0.790855,0.382615,-0.612817,-0.776497,-1.375733,19.125212,30.215809,-70.281097,,,,,,
1465828315.49,2.221475,-0.920379,0.427164,-0.009255,-0.871586,0.016096,0.481794,0.795831,0.366779,-0.634886,-0.785257,-1.354404,19.125212,30.215809,-70.281097,,,,,,
1465828315.50,2.212537,-0.920193,0.427113,-0.008217,-0.891764,0.017288,0.485173,0.795718,0.362546,-0.658039,-0.781512,-1.341596,19.125212,30.215809,-70.281097,,,,,,
1465828315.51,2.203554,-0.920000,0.427047,-0.008217,-0.891764,0.017288,0.488533,0.795602,0.358264,-0.676308,-0.782281,-1.335345,15.467286,28.036264,-72.062004,,,,,,
1465828315.52,2.194672,-0.919817,0.426994,-0.008203,-0.882205,0.016164,0.491814,0.795491,0.353996,-0.686516,-0.784779,-1.329582,15.467286,28.036264,-72.062004,,,,,,
1465828315.53,2.185755,-0.919631,0.426963,-0.009281,-0.892822,0.016230,0.495072,0.795378,0.349682,-0.689896,-0.783827,-1.327068,15.467286,28.036264,-72.062004,,,,,,
1465828315.54,2.176607,-0.919438,0.426949,-0.011445,-0.920428,0.016400,0.498377,0.795261,0.345226,-0.707422,-0.783222,-1.323009,14.194108,28.042999,-72.320953,,,,,,
1465828315.55,2.167364,-0.919227,0.426929,-0.010380,-0.918308,0.017453,0.501685,0.795133,0.340699,-0.724966,-0.779844,-1.306809,14.194108,28.042999,-72.320953,,,,,,
1465828315.56,2.158238,-0.919028,0.426904,-0.009306,-0.910876,0.017407,0.504905,0.795012,0.336194,-0.719169,-0.780089,-1.304181,14.194108,28.042999,-72.320953,,,,,,
1465828315.57,2.148684,-0.918827,0.426860,-0.008320,-0.972464,0.018859,0.508227,0.794891,0.331442,-0.709765,-0.778076,-1.307043,11.574802,28.063572,-72.778175,,,,,,
1465828315.58,2.138046,-0.918597,0.426843,-0.011669,-1.093511,0.020679,0.511879,0.794751,0.326116,-0.720131,-0.782589,-1.304204,11.574802,28.063572,-72.778175,,,,,,
1465828315.59,2.126452,-0.918348,0.426825,-0.013897,-1.171024,0.022227,0.515793,0.794600,0.320263,-0.758850,-0.780241,-1.283154,11.574802,28.063572,-72.778175,,,,,,
,,,,,,,,,,,,,,,,29.721479,-95.401355,10.973465,-1.000000,-1.000000,1465830664.08
,,,,,,,,,,,,,,,,29.721540,-95.401452,10.973465,-1.000000,-1.000000,1465830664.10
1465828315.60,2.114703,-0.918085,0.426832,-0.013276,-1.173007,0.022252,0.519699,0.794440,0.314290,-0.784134,-0.784354,-1.268055,10.117313,28.074345,-72.990906,,,,,,
1465828315.61,2.103004,-0.917803,0.426861,-0.016478,-1.177255,0.023340,0.523534,0.794269,0.308302,-0.792409,-0.779544,-1.264860,10.117313,28.074345,-72.990906,,,,,,
1465828315.62,2.090879,-0.917506,0.426841,-0.013347,-1.222923,0.026823,0.527437,0.794088,0.302049,-0.836794,-0.776526,-1.252213,10.117313,28.074345,-72.990906,,,,,,
1465828315.63,2.079304,-0.917226,0.426932,-0.016419,-1.132657,0.021996,0.531092,0.793918,0.296032,-0.864756,-0.778232,-1.226574,6.691279,28.107698,-73.371559,,,,,,
1465828315.64,2.068873,-0.916973,0.426939,-0.012020,-1.016928,0.023403,0.534328,0.793764,0.290572,-0.910839,-0.775911,-1.210402,6.691279,28.107698,-73.371559,,,,,,
1465828315.65,2.059775,-0.916728,0.426974,-0.013962,-0.871454,0.020360,0.537121,0.793615,0.285790,-0.894620,-0.780157,-1.210412,6.691279,28.107698,-73.371559,,,,,,
1465828315.66,2.051601,-0.916529,0.426961,-0.009625,-0.814110,0.016811,0.539579,0.793494,0.281463,-0.885160,-0.771918,-1.211776,5.081805,28.128036,-73.492790,,,,,,
1465828315.67,2.043248,-0.916327,0.427017,-0.012846,-0.837466,0.015890,0.542054,0.793371,0.277019,-0.888795,-0.776830,-1.212764,5.081805,28.128036,-73.492790,,,,,,
1465828315.68,2.035261,-0.916136,0.427046,-0.008527,-0.789687,0.015595,0.544385,0.793255,0.272748,-0.908566,-0.772030,-1.192441,5.081805,28.128036,-73.492790,,,,,,
1465828315.69,2.027716,-0.915961,0.427097,-0.011662,-0.744025,0.014241,0.546552,0.793148,0.268695,-0.920224,-0.776852,-1.190830,2.623154,28.158012,-73.610107,,,,,,
1465828315.70,2.020671,-0.915798,0.427101,-0.007347,-0.697310,0.015017,0.548548,0.793049,0.264894,-0.921137,-0.771488,-1.183015,2.623154,28.158012,-73.610107,,,,,,
1465828315.71,2.013623,-0.915633,0.427096,-0.007363,-0.710052,0.015097,0.550520,0.792948,0.261077,-0.902921,-0.781321,-1.182815,2.623154,28.158012,-73.610107,,,,,,
1465828315.72,2.006042,-0.915445,0.427115,-0.006388,-0.780134,0.016602,0.552618,0.792834,0.256959,-0.900823,-0.766116,-1.182359,1.553876,28.170645,-73.635605,,,,,,
1465828315.73,1.997652,-0.915258,0.427157,-0.011811,-0.860826,0.016038,0.554889,0.792720,0.252375,-0.899875,-0.775706,-1.179926,1.553876,28.170645,-73.635605,,,,,,
,,,,,,,,,,,,,,,,29.720000,-95.399060,10.224887,-1.000000,-1.000000,1465830664.29
1465828315.74,1.988478,-0.915042,0.427183,-0.009789,-0.941533,0.019739,0.557338,0.792588,0.247344,-0.900096,-0.767045,-1.169768,1.553876,28.170645,-73.635605,,,,,,
1465828315.75,1.978166,-0.914814,0.427226,-0.012078,-1.068948,0.020536,0.560024,0.792449,0.241654,-0.908535,-0.777068,-1.170014,-0.802920,28.197145,-73.637482,,,,,,
1465828315.76,1.966691,-0.914561,0.427276,-0.013280,-1.175133,0.023330,0.562945,0.792295,0.235290,-0.929767,-0.774183,-1.145629,-0.802920,28.197145,-73.637482,,,,,,
1465828315.77,1.954403,-0.914279,0.427380,-0.017641,-1.254769,0.024889,0.566001,0.792123,0.228439,-0.950813,-0.775979,-1.131683,-0.802920,28.197145,-73.637482,,,,,,
1465828315.78,1.941333,-0.913981,0.427461,-0.013488,-1.337595,0.026477,0.569158,0.791941,0.221107,-0.948095,-0.769877,-1.117912,-2.400505,28.215651,-73.595634,,,,,,
1465828315.79,1.926986,-0.913652,0.427607,-0.021124,-1.481999,0.028440,0.572517,0.791740,0.213010,-0.960456,-0.773643,-1.121320,-2.400505,28.215651,-73.595634,,,,,,
1465828315.80,1.911549,-0.913300,0.427777,-0.020181,-1.577565,0.030104,0.575998,0.791525,0.204240,-0.986490,-0.768484,-1.087663,-2.400505,28.215651,-73.595634,,,,,,
1465828315.81,1.895333,-0.912919,0.427949,-0.022412,-1.652961,0.033768,0.579520,0.791292,0.194969,-1.004310,-0.772310,-1.062874,-6.451344,28.274677,-73.328873,,,,,,
1465828315.82,1.877926,-0.912522,0.428152,-0.022604,-1.807981,0.033676,0.583126,0.791049,0.184947,-0.980282,-0.758151,-1.069957,-6.451344,28.274677,-73.328873,,,,,,
1465828315.83,1.858432,-0.912084,0.428377,-0.031380,-2.008666,0.038119,0.586952,0.790781,0.173644,-1.014412,-0.780054,-1.055984,-6.451344,28.274677,-73.328873,,,,,,
1465828315.84,1.837692,-0.911594,0.428657,-0.030469,-2.126535,0.042053,0.590801,0.790481,0.161536,-1.023006,-0.770553,-1.012870,-8.915488,28.313843,-73.055061,,,,,,
1465828315.85,1.815133,-0.911060,0.428974,-0.035010,-2.344215,0.047671,0.594704,0.790154,0.148270,-1.028328,-0.784005,-0.989808,-8.915488,28.313843,-73.055061,,,,,,
1465828315.86,1.789864,-0.910459,0.429423,-0.040709,-2.635160,0.054812,0.598724,0.789785,0.133300,-1.038070,-0.769049,-0.959304,-8.915488,28.313843,-73.055061,,,,,,
1465828315.87,1.761861,-0.909792,0.429941,-0.046383,-2.908053,0.060776,0.602738,0.789376,0.116584,-1.051926,-0.768746,-0.935371,-15.325960,28.429058,-71.938210,,,,,,
1465828315.89,1.698920,-0.908524,0.431004,-0.051196,-3.347643,0.065657,0.609870,0.788597,0.078569,-1.127830,-0.757210,-0.837419,-15.325960,28.429058,-71.938210,,,,,,
1465828315.88,1.731618,-0.909121,0.430535,-0.045574,-3.117219,0.058895,0.606511,0.788964,0.098390,-1.080052,-0.753945,-0.865404,-15.325960,28.429058,-71.938210,,,,,,
1465828315.90,1.664081,-0.907824,0.431649,-0.048328,-3.608845,0.066234,0.612787,0.788166,0.057330,-1.138086,-0.746845,-0.791354,-19.515427,28.515635,-70.881653,,,,,,
1465828315.91,1.626981,-0.907167,0.432360,-0.064527,-3.782988,0.072632,0.615008,0.787762,0.034591,-1.195940,-0.778515,-0.745605,-19.515427,28.515635,-70.881653,,,,,,
1465828315.92,1.588794,-0.906578,0.432995,-0.058260,-3.879619,0.074308,0.616344,0.787399,0.011094,-1.276455,-0.766738,-0.672211,-19.515427,28.515635,-70.881653,,,,,,
1465828315.93,1.551178,-0.905795,0.434053,-0.062464,-3.828662,0.078242,0.616942,0.786916,-0.012105,-1.313460,-0.769841,-0.568416,-29.464592,28.694714,-67.280403,,,,,,
1465828315.94,1.512630,-0.905167,0.434884,-0.063680,-3.945469,0.082166,0.616510,0.786529,-0.035900,-1.339654,-0.760070,-0.551761,-29.464592,28.694714,-67.280403,,,,,,
1465828315.95,1.473959,-0.904521,0.435871,-0.059387,-3.921047,0.080953,0.615167,0.786129,-0.059758,-1.361367,-0.745266,-0.461772,-29.464592,28.694714,-67.280403,,,,,,
1465828315.96,1.431921,-0.906789,0.433953,-0.065701,-3.882822,0.077507,0.610344,0.787529,-0.085311,-1.456337,-0.744057,-0.438966,-34.552410,28.815748,-64.760986,,,,,,
1465828315.97,1.396852,-0.906385,0.434885,-0.053397,-3.426227,0.065075,0.607291,0.787280,-0.106713,-1.622215,-0.713351,-0.304710,-34.552410,28.815748,-64.760986,,,,,,
1465828315.98,1.368765,-0.905920,0.435810,-0.045025,-2.704188,0.054168,0.604414,0.786993,-0.123799,-1.667570,-0.755346,-0.275508,-34.552410,28.815748,-64.760986,,,,,,
1465828315.99,1.345773,-0.905536,0.436428,-0.022099,-2.262472,0.045034,0.601702,0.786756,-0.137730,-1.592638,-0.752103,-0.300014,-43.541206,28.830688,-59.086014,,,,,,
1465828316.00,1.324276,-0.905150,0.437105,-0.035878,-2.204080,0.049977,0.598897,0.786518,-0.150706,-1.523488,-0.786670,-0.300878,-43.541206,28.830688,-59.086014,,,,,,
1465828316.01,1.302847,-0.904737,0.437882,-0.034817,-2.204087,0.052107,0.595843,0.786263,-0.163590,-1.462176,-0.768395,-0.268249,-43.541206,28.830688,-59.086014,,,,,,
1465828316.02,1.280367,-0.904299,0.438727,-0.040358,-2.373978,0.055295,0.592346,0.785992,-0.177041,-1.378921,-0.751202,-0.238014,-46.156895,28.907658,-57.027103,,,,,,
1465828316.03,1.254520,-0.903877,0.439694,-0.048303,-2.762600,0.059854,0.587888,0.785731,-0.192393,-1.353772,-0.737879,-0.249669,-46.156895,28.907658,-57.027103,,,,,,
1465828316.04,1.226461,-0.903469,0.440684,-0.044209,-2.899566,0.057523,0.582560,0.785478,-0.208919,-1.398082,-0.705110,-0.139637,-46.156895,28.907658,-57.027103,,,,,,
1465828316.05,1.197256,-0.903132,0.441690,-0.045444,-3.045015,0.052048,0.576458,0.785270,-0.225938,-1.396236,-0.717780,-0.152877,-51.584614,29.106760,-52.057907,,,,,,
1465828316.06,1.166848,-0.902798,0.442678,-0.044484,-3.126777,0.053626,0.569563,0.785063,-0.243463,-1.461134,-0.736845,-0.069816,-51.584614,29.106760,-52.057907,,,,,,
1465828316.07,1.136204,-0.902443,0.443758,-0.047744,-3.163965,0.063436,0.562089,0.784843,-0.260916,-1.471772,-0.769615,-0.017495,-51.584614,29.106760,-52.057907,,,,,,
1465828316.08,1.104852,-0.902380,0.444559,-0.046702,-3.180962,0.065672,0.553678,0.784804,-0.278430,-1.484998,-0.768279,0.046741,-54.638783,29.209478,-48.781265,,,,,,
1465828316.10,1.043703,-0.903143,0.445510,-0.046326,-2.886851,0.064888,0.535110,0.785277,-0.311444,-1.545822,-0.725890,0.159955,-54.638783,29.209478,-48.781265,,,,,,
1465828316.09,1.072320,-0.903480,0.444324,-0.056233,-3.138505,0.070714,0.543570,0.785485,-0.295879,-1.534522,-0.749902,0.108745,-54.638783,29.209478,-48.781265,,,,,,
1465828316.11,1.016746,-0.902890,0.446545,-0.037639,-2.772146,0.051404,0.526690,0.785120,-0.325859,-1.483401,-0.702769,0.207130,-60.292473,29.314970,-41.516895,,,,,,
1465828316.12,0.988543,-0.902670,0.447650,-0.046403,-2.963275,0.055787,0.517436,0.784984,-0.340677,-1.410197,-0.733653,0.169229,-60.292473,29.314970,-41.516895,,,,,,
1465828316.13,0.957734,-0.902450,0.448750,-0.047822,-3.244655,0.058615,0.506837,0.784847,-0.356553,-1.342927,-0.717160,0.247484,-60.292473,29.314970,-41.516895,,,,,,
1465828316.14,0.923386,-0.902232,0.450097,-0.055791,-3.643909,0.068562,0.494431,0.784712,-0.373852,-1.320969,-0.754118,0.263561,-62.520611,29.417450,-37.999844,,,,,,
1465828316.15,0.885943,-0.901980,0.451643,-0.061492,-3.929558,0.079928,0.480242,0.784556,-0.392223,-1.307253,-0.757243,0.335476,-62.520611,29.417450,-37.999844,,,,,,
1465828316.16,0.845348,-0.901749,0.453394,-0.071540,-4.285283,0.091729,0.464064,0.784413,-0.411510,-1.308729,-0.751408,0.404324,-62.520611,29.417450,-37.999844,,,,,,
1465828316.17,0.802465,-0.901519,0.455256,-0.068589,-4.474294,0.096110,0.446126,0.784270,-0.431152,-1.290364,-0.740462,0.500320,-67.341881,29.681419,-28.324669,,,,,,
1465828316.18,0.757422,-0.901317,0.457235,-0.075297,-4.722764,0.101920,0.426368,0.784145,-0.450918,-1.273033,-0.732601,0.587087,-67.341881,29.681419,-28.324669,,,,,,
1465828316.19,0.709473,-0.901203,0.459347,-0.079962,-5.046612,0.103946,0.404324,0.784074,-0.470903,-1.200299,-0.730058,0.623796,-67.341881,29.681419,-28.324669,,,,,,
1465828316.20,0.658081,-0.901168,0.461585,-0.087856,-5.394886,0.108251,0.379616,0.784053,-0.491073,-1.173012,-0.711833,0.716095,-69.575424,29.851866,-22.052866,,,,,,
1465828316.21,0.603428,-0.901246,0.463953,-0.096810,-5.735731,0.114638,0.352190,0.784101,-0.511026,-1.135057,-0.723371,0.793619,-69.575424,29.851866,-22.052866,,,,,,
1465828316.22,0.546207,-0.901421,0.466410,-0.096041,-5.966151,0.119277,0.322317,0.784210,-0.530214,-1.119741,-0.740463,0.886766,-71.403694,30.033749,-14.754248,,,,,,
1465828316.23,0.487105,-0.901662,0.469007,-0.101639,-6.167921,0.131181,0.290347,0.784359,-0.548160,-1.075137,-0.747357,1.018619,-71.403694,30.033749,-14.754248,,,,,,
1465828316.24,0.425567,-0.901977,0.471701,-0.103021,-6.411090,0.139092,0.255984,0.784555,-0.564753,-1.042437,-0.735208,1.076411,-71.403694,30.033749,-14.754248,,,,,,
1465828316.25,0.364399,-0.902441,0.474398,-0.106023,-6.264548,0.133912,0.220852,0.784842,-0.579005,-1.092968,-0.720755,1.214397,-72.699982,30.417416,2.774002,,,,,,
1465828316.26,0.305456,-0.902949,0.476872,-0.097209,-6.038371,0.126116,0.186240,0.785157,-0.590630,-1.068900,-0.704560,1.248314,-72.699982,30.417416,2.774002,,,,,,
1465828316.27,0.249814,-0.903581,0.479151,-0.099870,-5.627428,0.115020,0.152982,0.785548,-0.599592,-1.089277,-0.712886,1.332884,-72.699982,30.417416,2.774002,,,,,,
1465828316.28,0.198704,-0.904234,0.481129,-0.088596,-5.144285,0.101357,0.122050,0.785952,-0.606121,-1.052851,-0.705248,1.389965,-72.699982,30.417416,2.774002,,,,,,
1465828316.29,0.151329,-0.904860,0.482912,-0.078576,-4.802377,0.094965,0.093134,0.786339,-0.610735,-0.973184,-0.722878,1.403094,-69.908546,30.721979,19.676317,,,,,,
1465828316.30,0.107100,-0.905488,0.484596,-0.072832,-4.460491,0.097084,0.065986,0.786727,-0.613765,-0.936821,-0.734175,1.417415,-69.908546,30.721979,19.676317,,,,,,
1465828316.31,0.066536,-0.906064,0.486132,-0.064908,-4.095217,0.088414,0.041012,0.787082,-0.615484,-0.851056,-0.740603,1.446066,-69.908546,30.721979,19.676317,,,,,,
1465828316.32,0.027589,-0.906634,0.487550,-0.060512,-3.994334,0.082464,0.017004,0.787433,-0.616165,-0.732199,-0.723636,1.441147,-67.682961,30.818642,26.218882,,,,,,
1465828316.33,-0.010801,-0.907199,0.488918,-0.054018,-3.908334,0.082995,-0.006653,0.787782,-0.615919,-0.682220,-0.720841,1.439970,-67.682961,30.818642,26.218882,,,,,,
1465828316.34,-0.046645,-0.907806,0.490128,-0.059994,-3.589773,0.074605,-0.028699,0.788155,-0.614807,-0.678607,-0.713662,1.500427,-67.682961,30.818642,26.218882,,,,,,
1465828316.35,-0.078837,-0.908328,0.491200,-0.047797,-3.211762,0.066924,-0.048440,0.788476,-0.613155,-0.655066,-0.719079,1.491786,-62.602123,30.960533,36.614491,,,,,,
1465828316.36,-0.107950,-0.908879,0.492116,-0.049526,-2.899580,0.060706,-0.066221,0.788815,-0.611053,-0.617602,-0.713193,1.527648,-62.602123,30.960533,36.614491,,,,,,
1465828316.37,-0.133523,-0.909325,0.492969,-0.035239,-2.549183,0.055330,-0.081777,0.789090,-0.608810,-0.552562,-0.727764,1.516510,-62.602123,30.960533,36.614491,,,,,,
1465828316.38,-0.158237,-0.909750,0.493733,-0.036310,-2.557671,0.053253,-0.096743,0.789350,-0.606273,-0.415235,-0.724638,1.511012,-60.136635,31.002850,40.504456,,,,,,
1465828316.39,-0.184303,-0.910261,0.494552,-0.039698,-2.705271,0.058433,-0.112438,0.789664,-0.603149,-0.355076,-0.739692,1.468063,-60.136635,31.002850,40.504456,,,,,,
1465828316.40,-0.212237,-0.910790,0.495366,-0.047412,-2.910202,0.061840,-0.129152,0.789989,-0.599364,-0.248030,-0.721873,1.498428,-60.136635,31.002850,40.504456,,,,,,
1465828316.41,-0.242378,-0.911401,0.496189,-0.046616,-3.122566,0.064237,-0.147040,0.790363,-0.594731,-0.216851,-0.729069,1.483495,-55.400841,31.065870,46.731789,,,,,,
1465828316.42,-0.272868,-0.912030,0.496993,-0.049783,-3.101328,0.064100,-0.164969,0.790748,-0.589494,-0.209711,-0.731040,1.538377,-55.400841,31.065870,46.731789,,,,,,
1465828316.43,-0.303620,-0.912687,0.497781,-0.047725,-3.156546,0.065513,-0.182861,0.791150,-0.583647,-0.167863,-0.726804,1.521666,-55.400841,31.065870,46.731789,,,,,,
1465828316.44,-0.335038,-0.913374,0.498552,-0.052049,-3.206451,0.066886,-0.200926,0.791570,-0.577101,-0.118120,-0.728185,1.542570,-52.362808,31.087408,50.099010,,,,,,
1465828316.45,-0.366273,-0.914084,0.499300,-0.049892,-3.186275,0.065697,-0.218649,0.792004,-0.570020,-0.073084,-0.735851,1.550077,-52.362808,31.087408,50.099010,,,,,,
1465828316.46,-0.399191,-0.914806,0.500039,-0.052315,-3.413511,0.071378,-0.237069,0.792444,-0.561988,0.037499,-0.733698,1.535743,-52.362808,31.087408,50.099010,,,,,,
1465828316.47,-0.433958,-0.915659,0.500772,-0.058904,-3.568540,0.075537,-0.256176,0.792964,-0.552794,0.068737,-0.733226,1.527846,-45.410847,31.111187,56.463715,,,,,,
1465828316.48,-0.470677,-0.916527,0.501446,-0.064489,-3.776651,0.076837,-0.275984,0.793493,-0.542403,0.157973,-0.718115,1.545119,-45.410847,31.111187,56.463715,,,,,,
1465828316.49,-0.509440,-0.917541,0.502106,-0.069018,-3.980535,0.085562,-0.296405,0.794110,-0.530598,0.180499,-0.730847,1.532047,-45.410847,31.111187,56.463715,,,,,,
1465828316.50,-0.549368,-0.918608,0.502698,-0.076552,-4.045301,0.085961,-0.316906,0.794757,-0.517621,0.218136,-0.737155,1.561246,-41.147423,31.106550,59.644566,,,,,,
1465828316.51,-0.590744,-0.919658,0.503363,-0.062983,-4.252378,0.093660,-0.337581,0.795394,-0.503375,0.322536,-0.761001,1.544025,-41.147423,31.106550,59.644566,,,,,,
1465828316.52,-0.633673,-0.920706,0.503953,-0.062048,-4.363853,0.089037,-0.358379,0.796029,-0.487753,0.381679,-0.760171,1.558431,-41.147423,31.106550,59.644566,,,,,,
1465828316.53,-0.678213,-0.922113,0.504218,-0.066475,-4.495521,0.091986,-0.379038,0.796880,-0.470439,0.432627,-0.754186,1.531581,-30.677502,31.058714,65.669235,,,,,,
1465828316.54,-0.723537,-0.923559,0.504374,-0.067581,-4.526320,0.094306,-0.399200,0.797753,-0.451918,0.459868,-0.742074,1.518477,-30.677502,31.058714,65.669235,,,,,,
1465828316.55,-0.769200,-0.925001,0.504449,-0.078278,-4.567723,0.093490,-0.418612,0.798621,-0.432398,0.509936,-0.735511,1.517969,-30.677502,31.058714,65.669235,,,,,,
1465828316.56,-0.813973,-0.926450,0.504291,-0.075918,-4.388274,0.090237,-0.436704,0.799492,-0.412434,0.512983,-0.719521,1.485264,-24.572952,30.975552,68.226730,,,,,,
1465828316.57,-0.856006,-0.927802,0.504001,-0.076602,-4.090961,0.085178,-0.452832,0.800304,-0.393010,0.510159,-0.720989,1.492848,-24.572952,30.975552,68.226730,,,,,,
1465828316.58,-0.894447,-0.929036,0.503715,-0.064410,-3.705539,0.084901,-0.466831,0.801043,-0.374698,0.510792,-0.747454,1.481189,-24.572952,30.975552,68.226730,,,,,,
1465828316.59,-0.928885,-0.930121,0.503359,-0.054289,-3.298837,0.068522,-0.478759,0.801692,-0.357881,0.547225,-0.758693,1.460161,-12.524417,30.759075,71.520760,,,,,,
1465828316.60,-0.958921,-0.931039,0.502917,-0.033820,-2.816663,0.055950,-0.488689,0.802240,-0.342919,0.590114,-0.784296,1.407022,-12.524417,30.759075,71.520760,,,,,,
1465828316.61,-0.983145,-0.931768,0.502395,-0.026627,-2.196539,0.039294,-0.496364,0.802676,-0.330658,0.557552,-0.753848,1.400497,-12.524417,30.759075,71.520760,,,,,,
1465828316.62,-1.001538,-0.932333,0.501907,-0.022739,-1.653943,0.029507,-0.501980,0.803012,-0.321228,0.583416,-0.739734,1.386917,-7.894585,30.658606,72.221375,,,,,,
1465828316.63,-1.016135,-0.933234,0.500364,-0.019945,-1.128352,0.025147,-0.506000,0.803549,-0.313485,0.570178,-0.718390,1.332177,-7.894585,30.658606,72.221375,,,,,,
1465828316.64,-1.022663,-0.933484,0.500272,-0.015931,-0.483825,0.015787,-0.507864,0.803698,-0.310071,0.588293,-0.719103,1.328840,-7.894585,30.658606,72.221375,,,,,,
1465828316.65,-1.023055,-0.933534,0.500262,-0.003464,0.101251,0.001485,-0.507951,0.803728,-0.309851,0.606462,-0.743974,1.334219,-3.393730,30.472593,72.650574,,,,,,
1465828316.66,-1.017901,-0.933396,0.500367,0.022782,0.636416,-0.012489,-0.506442,0.803646,-0.312523,0.623416,-0.760189,1.314934,-3.393730,30.472593,72.650574,,,,,,
1465828316.67,-1.008011,-0.933096,0.500491,0.021252,1.099389,-0.024975,-0.503530,0.803467,-0.317645,0.639577,-0.777512,1.357303,-3.393730,30.472593,72.650574,,,,,,
1465828316.68,-0.993019,-0.932606,0.500758,0.041062,1.601633,-0.035556,-0.499041,0.803175,-0.325373,0.630786,-0.768553,1.351191,-3.735503,30.479244,72.631012,,,,,,
1465828316.69,-0.973464,-0.932024,0.500955,0.045884,2.042293,-0.043637,-0.492970,0.802828,-0.335332,0.630849,-0.748843,1.361592,-3.735503,30.479244,72.631012,,,,,,
1465828316.70,-0.950146,-0.931365,0.501130,0.044214,2.403316,-0.049096,-0.485447,0.802435,-0.347042,0.630558,-0.728674,1.355648,-3.735503,30.479244,72.631012,,,,,,
1465828316.71,-0.923425,-0.930686,0.501198,0.043610,2.765400,-0.054561,-0.476436,0.802030,-0.360217,0.626583,-0.726621,1.393069,-8.642388,30.579233,72.169395,,,,,,
1465828316.72,-0.893392,-0.929917,0.501251,0.049291,3.045722,-0.059507,-0.465885,0.801570,-0.374748,0.631947,-0.738948,1.394965,-8.642388,30.579233,72.169395,,,,,,
1465828316.73,-0.862127,-0.929128,0.501171,0.048396,3.174212,-0.064571,-0.454423,0.801098,-0.389540,0.586046,-0.760479,1.451704,-8.642388,30.579233,72.169395,,,,,,
1465828316.74,-0.828660,-0.928237,0.501128,0.058273,3.406745,-0.067084,-0.441660,0.800565,-0.405009,0.571970,-0.767499,1.484125,-12.748408,30.634388,71.534706,,,,,,
1465828316.75,-0.793791,-0.927244,0.501119,0.066911,3.495944,-0.071893,-0.427839,0.799969,-0.420717,0.580686,-0.757062,1.452898,-12.748408,30.634388,71.534706,,,,,,
1465828316.76,-0.759263,-0.926269,0.501016,0.067921,3.447109,-0.074779,-0.413597,0.799384,-0.435801,0.560082,-0.744391,1.484538,-12.748408,30.634388,71.534706,,,,,,
1465828316.77,-0.725673,-0.925332,0.500829,0.059277,3.345183,-0.075213,-0.399225,0.798820,-0.450006,0.541498,-0.741051,1.465036,-22.293232,30.752537,69.104958,,,,,,
1465828316.78,-0.693586,-0.924459,0.500594,0.055867,3.182711,-0.067811,-0.385028,0.798295,-0.463118,0.496951,-0.732637,1.474104,-22.293232,30.752537,69.104958,,,,,,
1465828316.79,-0.663315,-0.923663,0.500300,0.049254,3.008570,-0.063532,-0.371226,0.797815,-0.475060,0.454844,-0.751428,1.484673,-22.293232,30.752537,69.104958,,,,,,
1465828316.80,-0.634393,-0.922918,0.499992,0.049084,2.880080,-0.058468,-0.357685,0.797366,-0.486075,0.439823,-0.752338,1.493368,-26.844870,30.799204,67.446014,,,,,,
1465828316.81,-0.607741,-0.922205,0.499747,0.045532,2.605058,-0.050360,-0.344929,0.796936,-0.495900,0.413869,-0.754287,1.493230,-26.844870,30.799204,67.446014,,,,,,
1465828316.82,-0.583966,-0.921539,0.499503,0.046230,2.320479,-0.043252,-0.333336,0.796533,-0.504403,0.407722,-0.760492,1.484460,-26.844870,30.799204,67.446014,,,,,,
1465828316.83,-0.563703,-0.920921,0.499305,0.041493,1.946715,-0.036655,-0.323310,0.796159,-0.511470,0.376319,-0.753724,1.490794,-34.184635,30.858366,64.010735,,,,,,
1465828316.84,-0.546814,-0.920426,0.499129,0.035743,1.618601,-0.027152,-0.314831,0.795860,-0.517193,0.376492,-0.757362,1.478176,-34.184635,30.858366,64.010735,,,,,,
1465828316.85,-0.534195,-0.919999,0.499020,0.026633,1.146103,-0.024198,-0.308453,0.795601,-0.521417,0.383328,-0.743721,1.463601,-34.184635,30.858366,64.010735,,,,,,
1465828316.86,-0.526608,-0.919728,0.498987,0.022773,0.632163,-0.010334,-0.304596,0.795437,-0.523929,0.357636,-0.747494,1.455768,-36.581150,30.882328,62.660217,,,,,,
1465828316.87,-0.523852,-0.919576,0.499009,0.007277,0.167092,-0.004239,-0.303212,0.795345,-0.524871,0.352238,-0.758586,1.442443,-36.581150,30.882328,62.660217,,,,,,
1465828316.88,-0.525022,-0.919492,0.499155,0.009945,-0.240662,0.005772,-0.303859,0.795294,-0.524574,0.346996,-0.742834,1.445594,-36.581150,30.882328,62.660217,,,,,,
1465828316.89,-0.530599,-0.919558,0.499322,-0.001252,-0.672822,0.012729,-0.306753,0.795334,-0.522825,0.357992,-0.752212,1.456557,-37.950600,30.915552,61.823799,,,,,,
1465828316.90,-0.540295,-0.919720,0.499599,-0.010322,-1.102865,0.021803,-0.311742,0.795432,-0.519716,0.362218,-0.720252,1.432360,-37.950600,30.915552,61.823799,,,,,,
1465828316.91,-0.553818,-0.919980,0.499864,-0.015031,-1.456452,0.027210,-0.318632,0.795590,-0.515277,0.357832,-0.740277,1.473911,-37.950600,30.915552,61.823799,,,,,,
1465828316.92,-0.570626,-0.920403,0.500151,-0.026097,-1.777134,0.037725,-0.327066,0.795846,-0.509566,0.339517,-0.726052,1.436827,-36.969193,30.924862,62.411007,,,,,,
1465828316.93,-0.589338,-0.920862,0.500435,-0.032669,-1.926840,0.036529,-0.336340,0.796123,-0.503054,0.353888,-0.726284,1.505556,-36.969193,30.924862,62.411007,,,,,,
1465828316.94,-0.610256,-0.921469,0.500643,-0.038322,-2.180622,0.043437,-0.346512,0.796490,-0.495512,0.372864,-0.723492,1.445235,-36.969193,30.924862,62.411007,,,,,,
1465828316.95,-0.633389,-0.922089,0.500875,-0.047082,-2.368566,0.047800,-0.357588,0.796865,-0.486966,0.374098,-0.733389,1.495877,-32.415119,30.904737,64.902695,,,,,,
1465828316.96,-0.657512,-0.922775,0.501085,-0.039747,-2.454590,0.053669,-0.368896,0.797280,-0.477766,0.401184,-0.752205,1.487593,-32.415119,30.904737,64.902695,,,,,,
1465828316.97,-0.682547,-0.923463,0.501304,-0.046228,-2.529972,0.053071,-0.380394,0.797695,-0.467957,0.410912,-0.756328,1.504883,-32.415119,30.904737,64.902695,,,,,,
1465828316.98,-0.707567,-0.924100,0.501568,-0.033430,-2.512990,0.052978,-0.391651,0.798079,-0.457907,0.440067,-0.760176,1.514395,-29.258375,30.876518,66.398727,,,,,,
1465828316.99,-0.732657,-0.924727,0.501804,-0.036650,-2.534224,0.053108,-0.402681,0.798456,-0.447566,0.463091,-0.744684,1.468638,-29.258375,30.876518,66.398727,,,,,,
1465828317.00,-0.757823,-0.925372,0.501990,-0.044084,-2.520414,0.051949,-0.413462,0.798845,-0.436917,0.481821,-0.733980,1.459561,-29.258375,30.876518,66.398727,,,,,,
1465828317.02,-0.806296,-0.926739,0.502153,-0.048123,-2.342035,0.052955,-0.433358,0.799666,-0.415614,0.506966,-0.764083,1.449808,-22.344788,30.821049,69.057770,,,,,,
1465828317.01,-0.782544,-0.926056,0.502110,-0.044015,-2.462021,0.053712,-0.423750,0.799256,-0.426176,0.488737,-0.727051,1.454924,-22.344788,30.821049,69.057770,,,,,,
1465828317.03,-0.828462,-0.927318,0.502266,-0.035142,-2.189124,0.045622,-0.442122,0.800014,-0.405593,0.519148,-0.762294,1.444503,-22.344788,30.821049,69.057770,,,,,,
1465828317.05,-0.865170,-0.928141,0.502491,-0.022685,-1.615722,0.029265,-0.456208,0.800507,-0.388668,0.512910,-0.738144,1.402034,-18.930895,30.779652,70.088776,,,,,,
1465828317.04,-0.848378,-0.927782,0.502357,-0.017754,-1.921535,0.035446,-0.449834,0.800292,-0.396463,0.513829,-0.788497,1.456812,-18.930895,30.779652,70.088776,,,,,,
1465828317.06,-0.878528,-0.928382,0.502702,-0.004144,-1.269574,0.023919,-0.461211,0.800651,-0.382416,0.531203,-0.734306,1.413132,-18.930895,30.779652,70.088776,,,,,,
1465828317.07,-0.889015,-0.928668,0.502711,-0.016543,-0.971196,0.019907,-0.465017,0.800823,-0.377414,0.540991,-0.712932,1.366519,-13.746611,30.743313,71.302750,,,,,,
1465828317.08,-0.896124,-0.928885,0.502735,-0.017181,-0.634598,0.015666,-0.467553,0.800953,-0.373990,0.556115,-0.721851,1.370511,-13.746611,30.743313,71.302750,,,,,,
1465828317.09,-0.900196,-0.929044,0.502711,-0.006149,-0.336222,0.008484,-0.468972,0.801048,-0.372004,0.567071,-0.754677,1.392481,-13.746611,30.743313,71.302750,,,,,,
1465828317.10,-0.901393,-0.929092,0.502717,-0.000458,-0.048468,0.003491,-0.469387,0.801077,-0.371419,0.574856,-0.762853,1.405888,-12.475554,30.727013,71.543083,,,,,,
1465828317.11,-0.899529,-0.928988,0.502792,0.013789,0.262654,-0.005897,-0.468760,0.801014,-0.372345,0.578928,-0.774113,1.405044,-12.475554,30.727013,71.543083,,,,,,
1465828317.12,-0.894708,-0.928788,0.502872,0.016284,0.544048,-0.014046,-0.467084,0.800895,-0.374700,0.576260,-0.744453,1.389013,-12.475554,30.727013,71.543083,,,,,,
1465828317.13,-0.887121,-0.928504,0.503038,0.029401,0.811622,-0.017840,-0.464404,0.800725,-0.378377,0.568820,-0.749547,1.415196,-12.569687,30.735615,71.522911,,,,,,
1465828317.14,-0.877297,-0.928215,0.503074,0.021177,1.043105,-0.021429,-0.460842,0.800551,-0.383069,0.560315,-0.733580,1.381665,-12.569687,30.735615,71.522911,,,,,,
1465828317.15,-0.864788,-0.927816,0.503179,0.027908,1.307505,-0.028402,-0.456257,0.800313,-0.389010,0.559437,-0.746968,1.407748,-12.569687,30.735615,71.522911,,,,,,
1465828317.16,-0.849823,-0.927371,0.503228,0.037802,1.552783,-0.032060,-0.450652,0.800046,-0.396029,0.544189,-0.754514,1.420642,-13.812725,30.763338,71.281326,,,,,,
1465828317.17,-0.832664,-0.926840,0.503299,0.037000,1.758779,-0.035481,-0.444105,0.799727,-0.403989,0.538465,-0.753615,1.432508,-15.774479,30.798698,70.857658,,,,,,
1465828317.18,-0.813919,-0.926262,0.503347,0.042514,1.903193,-0.040639,-0.436791,0.799380,-0.412560,0.549401,-0.745913,1.423363,-15.774479,30.798698,70.857658,,,,,,
1465828317.19,-0.794251,-0.925682,0.503327,0.036224,1.981769,-0.041138,-0.428924,0.799031,-0.421396,0.546493,-0.733616,1.417962,-15.774479,30.798698,70.857658,,,,,,
1465828317.20,-0.774293,-0.925107,0.503299,0.037316,2.001946,-0.042328,-0.420749,0.798685,-0.430200,0.537509,-0.732798,1.433923,-18.324537,30.841953,70.222404,,,,,,
1465828317.21,-0.754481,-0.924607,0.503173,0.029843,1.986023,-0.042236,-0.412418,0.798384,-0.438742,0.523319,-0.731566,1.432943,-18.324537,30.841953,70.222404,,,,,,
1465828317.22,-0.735012,-0.924086,0.503044,0.029785,1.939303,-0.041943,-0.404077,0.798070,-0.446996,0.519556,-0.737249,1.450307,-18.324537,30.841953,70.222404,,,,,,
1465828317.23,-0.716376,-0.923610,0.502870,0.031802,1.853290,-0.039273,-0.395927,0.797784,-0.454735,0.502418,-0.744713,1.455803,-23.868603,30.906195,68.507652,,,,,,
1465828317.24,-0.698855,-0.923166,0.502654,0.024202,1.737555,-0.037490,-0.388127,0.797516,-0.461873,0.489476,-0.743622,1.453389,-23.868603,30.906195,68.507652,,,,,,
1465828317.25,-0.693308,-0.930843,0.494040,0.022934,1.581433,-0.033333,-0.381635,0.802124,-0.459296,0.461026,-0.751327,1.452002,-23.868603,30.906195,68.507652,,,,,,
1465828317.27,-0.677197,-0.939580,0.483465,0.022648,1.359475,-0.028764,-0.369780,0.807310,-0.459905,0.432677,-0.763106,1.450231,-26.374376,30.923260,67.574745,,,,,,
1465828317.26,-0.686093,-0.936149,0.487632,0.021756,1.491161,-0.032777,-0.375609,0.805281,-0.458738,0.436599,-0.758970,1.460081,-26.374376,30.923260,67.574745,,,,,,
1465828317.28,-0.665148,-0.939252,0.483349,0.021330,1.164092,-0.023282,-0.364375,0.807117,-0.464535,0.421123,-0.773410,1.455838,-26.374376,30.923260,67.574745,,,,,,
1465828317.29,-0.655179,-0.938939,0.483294,0.023180,0.946413,-0.018721,-0.359880,0.806932,-0.468345,0.425813,-0.771349,1.452765,-26.374376,30.923260,67.574745,,,,,,
1465828317.30,-0.647400,-0.938669,0.483290,0.020763,0.720244,-0.015176,-0.356358,0.806772,-0.471304,0.416599,-0.764231,1.445883,-26.374376,30.923260,67.574745,,,,,,
1465828317.31,-0.641843,-0.938452,0.483335,0.018348,0.499378,-0.009536,-0.353838,0.806644,-0.473417,0.398699,-0.755588,1.444670,-30.839323,29.647064,66.243408,,,,,,
1465828317.32,-0.638278,-0.938295,0.483373,0.012775,0.304004,-0.006187,-0.352224,0.806551,-0.474777,0.387395,-0.752047,1.444168,-30.839323,29.647064,66.243408,,,,,,
1465828317.33,-0.636750,-0.938204,0.483387,0.006134,0.104385,-0.003878,-0.351541,0.806498,-0.475374,0.385461,-0.750528,1.436785,-31.443321,29.663023,65.951683,,,,,,
1465828317.34,-0.637062,-0.938161,0.483457,0.003761,-0.083565,0.001557,-0.351710,0.806472,-0.475292,0.384913,-0.751571,1.444287,-31.443321,29.663023,65.951683,,,,,,
1465828317.35,-0.639265,-0.938172,0.483539,0.001385,-0.274697,0.005946,-0.352751,0.806479,-0.474509,0.380522,-0.756781,1.444907,-31.443321,29.663023,65.951683,,,,,,
1465828317.36,-0.643299,-0.938224,0.483617,-0.003098,-0.452019,0.008118,-0.354637,0.806510,-0.473048,0.381691,-0.751288,1.443950,-31.443321,29.663023,65.951683,,,,,,
1465828317.37,-0.648872,-0.938328,0.483728,-0.004360,-0.603865,0.012263,-0.357217,0.806571,-0.470998,0.384042,-0.756537,1.446645,-31.096611,29.674744,66.110603,,,,,,
1465828317.38,-0.656038,-0.938481,0.483853,-0.007764,-0.768448,0.015421,-0.360508,0.806661,-0.468328,0.392750,-0.749304,1.443456,-31.096611,29.674744,66.110603,,,,,,
1465828317.39,-0.664948,-0.938678,0.483988,-0.012253,-0.947897,0.018670,-0.364568,0.806778,-0.464973,0.399953,-0.752853,1.442207,-30.231339,29.674942,66.510635,,,,,,
1465828317.40,-0.675374,-0.938924,0.484133,-0.013494,-1.083815,0.022715,-0.369272,0.806923,-0.460992,0.400888,-0.756111,1.445397,-30.231339,29.674942,66.510635,,,,,,
1465828317.41,-0.686594,-0.939186,0.484287,-0.014642,-1.148588,0.024184,-0.374287,0.807078,-0.456656,0.398640,-0.759715,1.453192,-30.231339,29.674942,66.510635,,,,,,
1465828317.42,-0.698394,-0.939456,0.484447,-0.013652,-1.208049,0.024558,-0.379510,0.807237,-0.452041,0.409585,-0.758851,1.448135,-30.231339,29.674942,66.510635,,,,,,
1465828317.43,-0.710710,-0.939739,0.484626,-0.014778,-1.253712,0.026972,-0.384898,0.807404,-0.447160,0.410716,-0.753815,1.442475,-27.328892,29.664188,67.759644,,,,,,
1465828317.44,-0.727819,-0.943132,0.480886,-0.015824,-1.238855,0.025809,-0.390668,0.809401,-0.438461,0.428128,-0.756438,1.445007,-27.328892,29.664188,67.759644,,,,,,
1465828317.45,-0.772080,-0.963567,0.455211,-0.016966,-1.288837,0.027151,-0.398062,0.821232,-0.408809,0.453909,-0.763035,1.404781,-25.494865,29.402733,68.583473,,,,,,
1465828317.46,-0.846261,-0.997831,0.404775,-0.021335,-1.359046,0.027528,-0.405948,0.840297,-0.359314,0.467838,-0.785533,1.356034,-25.494865,29.402733,68.583473,,,,,,
1465828317.47,-0.863674,-1.000109,0.401448,-0.017042,-1.329329,0.028406,-0.410687,0.841530,-0.350947,0.468807,-0.789025,1.359919,-21.365326,24.750475,71.757500,,,,,,
1465828317.48,-0.881715,-1.002788,0.397336,-0.018083,-1.309164,0.028275,-0.415210,0.842974,-0.342047,0.485827,-0.791811,1.348059,-21.365326,24.750475,71.757500,,,,,,
1465828317.49,-0.899736,-1.005396,0.393025,-0.019109,-1.278378,0.027011,-0.419583,0.844374,-0.333141,0.484677,-0.794997,1.339626,-21.365326,24.750475,71.757500,,,,,,
1465828317.50,-0.915337,-1.007174,0.390090,-0.014726,-1.183877,0.023227,-0.423538,0.845325,-0.325639,0.491104,-0.795872,1.337266,-21.365326,24.750475,71.757500,,,,,,
1465828317.51,-0.930271,-1.009055,0.386817,-0.013531,-1.080888,0.021514,-0.427077,0.846329,-0.318327,0.502120,-0.795136,1.328093,-21.365326,24.750475,71.757500,,,,,,
1465828317.52,-0.940297,-1.009308,0.386840,-0.013397,-0.975766,0.019791,-0.430075,0.846463,-0.313903,0.505789,-0.794324,1.325881,-17.203403,23.919586,73.144363,,,,,,
1465828317.53,-0.949192,-1.009503,0.386884,-0.008996,-0.865335,0.016974,-0.432716,0.846567,-0.309969,0.512153,-0.791925,1.319872,-17.203403,23.919586,73.144363,,,,,,
1465828317.54,-0.956850,-1.009677,0.386900,-0.008823,-0.731542,0.014006,-0.434956,0.846660,-0.306561,0.516713,-0.789867,1.317913,-15.558006,23.734921,73.571770,,,,,,
1465828317.55,-0.962956,-1.009821,0.386951,-0.004366,-0.573336,0.013018,-0.436720,0.846736,-0.303830,0.516005,-0.792156,1.309018,-15.558006,23.734921,73.571770,,,,,,
1465828317.56,-0.967300,-1.009923,0.386988,-0.004135,-0.393882,0.008699,-0.437965,0.846791,-0.301881,0.518409,-0.795796,1.317277,-15.558006,23.734921,73.571770,,,,,,
1465828317.57,-1.059027,-1.039803,0.310799,0.000331,-0.213517,0.003247,-0.441511,0.862305,-0.247990,0.519804,-0.814438,1.259571,-13.543629,23.721340,73.973442,,,,,,
1465828317.58,-1.160706,-1.066344,0.223002,0.004812,-0.015111,-0.000191,-0.443253,0.875439,-0.192699,0.521195,-0.827084,1.206157,-13.543629,23.721340,73.973442,,,,,,
1465828317.59,-1.266132,-1.087688,0.129064,0.010346,0.170562,-0.005674,-0.443141,0.885555,-0.139348,0.523387,-0.835995,1.155721,-9.452375,16.281685,76.575195,,,,,,
1465828317.60,-1.373065,-1.103845,0.031394,0.011584,0.331814,-0.008876,-0.441395,0.892945,-0.088433,0.522327,-0.837952,1.094750,-9.452375,16.281685,76.575195,,,,,,
1465828317.61,-1.478385,-1.115049,-0.066907,0.013875,0.486695,-0.009904,-0.438255,0.897932,-0.040615,0.524376,-0.840666,1.049878,-9.452375,16.281685,76.575195,,,,,,
1465828317.63,-1.647419,-1.124253,-0.230416,0.019110,0.713854,-0.015624,-0.430584,0.901945,0.033057,0.531551,-0.851500,0.974999,-6.031853,8.884659,78.120941,,,,,,
1465828317.62,-1.577893,-1.121851,-0.161580,0.015808,0.612006,-0.012825,-0.434004,0.900906,0.003080,0.529082,-0.845303,0.999117,-6.031853,8.884659,78.120941,,,,,,
1465828317.64,-1.693671,-1.124882,-0.278953,0.020245,0.781748,-0.017137,-0.428031,0.902217,0.052861,0.534110,-0.853175,0.949062,-6.031853,8.884659,78.120941,,,,,,
1465828317.65,-1.713450,-1.124812,-0.304119,0.019234,0.832681,-0.017470,-0.426964,0.902187,0.061325,0.536111,-0.856364,0.942459,-6.031853,8.884659,78.120941,,,,,,
1465828317.66,-1.735524,-1.124558,-0.331663,0.024591,0.866622,-0.018756,-0.425733,0.902077,0.070771,0.531751,-0.851418,0.927657,-6.031853,8.884659,78.120941,,,,,,
1465828317.67,-1.747578,-1.124209,-0.350409,0.020353,0.887838,-0.019967,-0.425159,0.901926,0.075953,0.528614,-0.848520,0.923711,-3.170584,-3.583729,78.710266,,,,,,
1465828317.68,-1.764397,-1.123675,-0.373499,0.020343,0.887806,-0.019977,-0.424294,0.901695,0.083185,0.524926,-0.848366,0.914373,-3.170584,-3.583729,78.710266,,,,,,
1465828317.69,-1.829711,-1.121318,-0.440304,0.021382,0.894082,-0.018982,-0.420013,0.900674,0.111245,0.515899,-0.847741,0.883216,-3.877573,-4.986528,78.602165,,,,,,
1465828317.70,-1.844575,-1.120038,-0.461532,0.021353,0.877066,-0.019949,-0.419423,0.900117,0.117787,0.514867,-0.851228,0.880458,-3.877573,-4.986528,78.602165,,,,,,
1465828317.71,-1.870280,-1.118172,-0.492155,0.021275,0.831360,-0.017548,-0.417861,0.899303,0.129023,0.517287,-0.850169,0.867330,-3.877573,-4.986528,78.602165,,,,,,
1465828317.72,-1.895058,-1.116226,-0.521275,0.019036,0.754872,-0.018147,-0.416194,0.898450,0.139894,0.519619,-0.849332,0.849990,-3.844475,-7.948685,78.359688,,,,,,
1465828317.73,-1.920482,-1.113869,-0.550256,0.016787,0.677310,-0.014483,-0.414492,0.897412,0.151154,0.508593,-0.845181,0.836258,-3.844475,-7.948685,78.359688,,,,,,
1465828317.74,-1.973102,-1.108594,-0.602927,0.015604,0.606096,-0.015124,-0.410318,0.895073,0.174596,0.497858,-0.841072,0.815379,-3.844475,-7.948685,78.359688,,,,,,
1465828317.75,-2.029481,-1.101659,-0.658018,0.013314,0.509382,-0.011351,-0.405384,0.891959,0.200183,0.493244,-0.840018,0.786404,-3.824768,-12.793339,77.716820,,,,,,
1465828317.76,-2.094920,-1.092123,-0.719906,0.012054,0.388238,-0.009555,-0.398773,0.887607,0.230510,0.489791,-0.836352,0.753025,-3.824768,-12.793339,77.716820,,,,,,
1465828317.78,-2.233181,-1.064910,-0.846006,0.008470,0.157607,-0.003913,-0.382107,0.874746,0.298018,0.469479,-0.822194,0.682054,-2.603661,-17.001015,76.957054,,,,,,
1465828317.77,-2.165894,-1.079548,-0.785313,0.007599,0.271329,-0.006727,-0.390634,0.881745,0.264445,0.483530,-0.831971,0.719991,-2.603661,-17.001015,76.957054,,,,,,
1465828317.79,-2.295588,-1.048627,-0.901005,0.006165,0.053453,-0.003290,-0.373392,0.866739,0.330669,0.456629,-0.815286,0.649647,-2.603661,-17.001015,76.957054,,,,,,
1465828317.81,-2.405442,-1.012806,-0.993911,0.003679,-0.154849,0.001154,-0.355516,0.848321,0.392378,0.431276,-0.796181,0.591799,-2.603661,-17.001015,76.957054,,,,,,
1465828317.80,-2.352822,-1.031059,-0.950134,0.003855,-0.052822,-0.001589,-0.364614,0.857843,0.362162,0.442998,-0.808512,0.622945,-2.603661,-17.001015,76.957054,,,,,,
1465828317.82,-2.454098,-0.994115,-1.033026,0.000308,-0.255811,0.004953,-0.346014,0.838277,0.421386,0.422643,-0.787801,0.562516,1.241558,-26.521118,74.251541,,,,,,
1465828317.83,-2.499134,-0.975269,-1.067858,-0.001980,-0.347207,0.006565,-0.336099,0.827853,0.449107,0.413324,-0.774920,0.535467,1.241558,-26.521118,74.251541,,,,,,
1465828317.84,-2.540609,-0.956340,-1.098687,-0.004250,-0.424795,0.008092,-0.325992,0.817087,0.475497,0.402408,-0.764811,0.511457,3.294526,-30.712769,72.553932,,,,,,
1465828317.85,-2.578218,-0.937567,-1.125478,-0.005419,-0.477950,0.007339,-0.316020,0.806121,0.500301,0.387553,-0.753630,0.487263,3.294526,-30.712769,72.553932,,,,,,
1465828317.86,-2.612146,-0.919014,-1.148733,-0.005488,-0.499254,0.009581,-0.306369,0.795004,0.523552,0.371295,-0.741949,0.466667,3.294526,-30.712769,72.553932,,,,,,
1465828317.87,-2.643723,-0.899971,-1.169760,-0.004464,-0.502496,0.008518,-0.296864,0.783309,0.546168,0.357395,-0.734023,0.452840,7.369585,-37.827797,68.796425,,,,,,
1465828317.89,-2.699454,-0.863420,-1.205155,-0.004545,-0.506854,0.009573,-0.278050,0.760070,0.587352,0.341664,-0.708144,0.414784,7.369585,-37.827797,68.796425,,,,,,
1465828317.88,-2.673093,-0.881069,-1.188755,-0.004496,-0.499364,0.007415,-0.287332,0.771420,0.567760,0.347727,-0.719357,0.430058,7.369585,-37.827797,68.796425,,,,,,
1465828317.90,-2.725388,-0.845495,-1.220944,-0.005652,-0.511154,0.009582,-0.268191,0.748300,0.606730,0.339816,-0.695657,0.387884,9.229938,-40.924248,66.769867,,,,,,
1465828317.91,-2.749407,-0.828137,-1.235057,-0.004621,-0.509081,0.009554,-0.258469,0.736673,0.624906,0.331299,-0.682809,0.373202,9.229938,-40.924248,66.769867,,,,,,
1465828317.92,-2.771311,-0.811310,-1.247545,-0.004621,-0.482579,0.008308,-0.249171,0.725190,0.641883,0.321803,-0.674729,0.357659,9.229938,-40.924248,66.769867,,,,,,
1465828317.93,-2.791536,-0.794554,-1.258931,-0.003528,-0.433778,0.006924,-0.240273,0.713551,0.658114,0.310066,-0.661687,0.340879,12.423882,-46.157890,62.716011,,,,,,
1465828317.94,-2.809929,-0.778127,-1.269182,-0.001370,-0.383916,0.006599,-0.231914,0.701946,0.673414,0.300426,-0.652783,0.327760,12.423882,-46.157890,62.716011,,,,,,
1465828317.96,-2.842316,-0.746159,-1.287274,-0.001295,-0.272500,0.003744,-0.216494,0.678823,0.701662,0.286120,-0.625631,0.301069,13.720310,-48.439362,60.692535,,,,,,
1465828317.95,-2.826813,-0.761925,-1.278588,-0.001333,-0.328740,0.005174,-0.224003,0.690315,0.687959,0.291432,-0.638695,0.312896,13.720310,-48.439362,60.692535,,,,,,
1465828317.97,-2.856437,-0.730753,-1.295277,0.000878,-0.210955,0.003347,-0.209482,0.667431,0.714600,0.278955,-0.612987,0.285888,13.720310,-48.439362,60.692535,,,,,,
1465828317.98,-2.869279,-0.715772,-1.302715,-0.000139,-0.148342,0.001877,-0.202954,0.656200,0.726781,0.275921,-0.603344,0.278300,13.720310,-48.439362,60.692535,,,,,,
1465828317.99,-2.890730,-0.687027,-1.315912,0.003072,-0.083641,0.000387,-0.191923,0.634241,0.748935,0.268141,-0.583475,0.252560,15.617854,-52.440487,56.782742,,,,,,
1465828318.00,-2.900446,-0.673376,-1.321831,0.004199,-0.010409,-0.001146,-0.186688,0.623628,0.759102,0.261761,-0.572786,0.244805,15.617854,-52.440487,56.782742,,,,,,
1465828318.01,-2.909109,-0.660187,-1.327403,0.004244,0.052201,-0.000484,-0.181984,0.613265,0.768627,0.258110,-0.560256,0.231617,15.617854,-52.440487,56.782742,,,,,,
1465828318.02,-2.916837,-0.647433,-1.332668,0.006421,0.111634,-0.002992,-0.177767,0.603141,0.777573,0.255770,-0.548469,0.222244,16.482178,-54.975910,54.075768,,,,,,
1465828318.03,-2.923646,-0.635037,-1.337583,0.008580,0.158323,-0.004356,-0.174072,0.593207,0.786005,0.250656,-0.539298,0.213201,16.482178,-54.975910,54.075768,,,,,,
1465828318.04,-2.929762,-0.622976,-1.342279,0.006482,0.206075,-0.005731,-0.170753,0.583455,0.793992,0.250832,-0.531941,0.207747,16.482178,-54.975910,54.075768,,,,,,
1465828318.05,-2.935317,-0.611286,-1.346772,0.007561,0.240023,-0.007015,-0.167726,0.573921,0.801550,0.249452,-0.522697,0.195734,17.114187,-57.821007,50.813751,,,,,,
1465828318.06,-2.940353,-0.599898,-1.351071,0.007565,0.267598,-0.007195,-0.164983,0.564558,0.808737,0.248525,-0.515638,0.191035,17.114187,-57.821007,50.813751,,,,,,
1465828318.07,-2.945043,-0.588901,-1.355197,0.009688,0.285615,-0.007313,-0.162391,0.555448,0.815541,0.247276,-0.504346,0.180721,17.114187,-57.821007,50.813751,,,,,,
1465828318.08,-2.949400,-0.578215,-1.359136,0.009671,0.294081,-0.008437,-0.159960,0.546530,0.822021,0.244555,-0.494513,0.172578,17.256557,-59.065548,49.312012,,,,,,
1465828318.09,-2.953797,-0.567899,-1.363022,0.009630,0.288734,-0.006280,-0.157389,0.537862,0.828211,0.247462,-0.484853,0.165411,17.256557,-59.065548,49.312012,,,,,,
1465828318.10,-2.958132,-0.557860,-1.366722,0.008510,0.267466,-0.006154,-0.154774,0.529372,0.834153,0.243413,-0.475768,0.158996,17.256557,-59.065548,49.312012,,,,,,
1465828318.11,-2.962611,-0.548114,-1.370297,0.008445,0.238766,-0.005979,-0.151948,0.521078,0.839875,0.242418,-0.467154,0.151428,17.256557,-59.065548,49.312012,,,,,,
1465828318.12,-2.967271,-0.538568,-1.373770,0.007307,0.204754,-0.004707,-0.148889,0.512907,0.845434,0.241327,-0.460920,0.146830,17.407793,-61.246635,46.519035,,,,,,
1465828318.13,-2.972187,-0.529240,-1.377095,0.005098,0.162255,-0.005512,-0.145531,0.504878,0.850834,0.239083,-0.454310,0.139690,17.407793,-61.246635,46.519035,,,,,,
1465828318.14,-2.977306,-0.520116,-1.380273,0.006075,0.117623,-0.003106,-0.141921,0.496981,0.856077,0.234359,-0.447130,0.135042,17.504915,-62.209614,45.185654,,,,,,
1465828318.15,-2.982753,-0.511185,-1.383330,0.004925,0.071936,-0.002825,-0.137953,0.489211,0.861186,0.232176,-0.440749,0.129887,17.504915,-62.209614,45.185654,,,,,,
1465828318.16,-2.988439,-0.502513,-1.386238,0.005901,0.023064,-0.002521,-0.133696,0.481630,0.866117,0.227339,-0.429384,0.127017,17.504915,-62.209614,45.185654,,,,,,
1465828318.17,-2.994387,-0.494037,-1.388976,0.002610,-0.030056,-0.001130,-0.129136,0.474184,0.870904,0.220094,-0.421251,0.119025,17.859037,-63.932766,42.565926,,,,,,
1465828318.19,-3.007030,-0.477644,-1.394068,-0.002878,-0.117177,0.000469,-0.119142,0.459688,0.880052,0.208788,-0.405107,0.112288,17.859037,-63.932766,42.565926,,,,,,
1465828318.18,-3.000637,-0.485779,-1.391597,0.001453,-0.078931,0.001301,-0.124236,0.466898,0.875541,0.215484,-0.412103,0.112038,17.859037,-63.932766,42.565926,,,,,,
1465828318.20,-3.013418,-0.469598,-1.396345,0.000245,-0.151183,0.001746,-0.113987,0.452528,0.884435,0.199055,-0.402525,0.107050,18.121431,-64.695618,41.283085,,,,,,
1465828318.21,-3.019768,-0.461687,-1.398466,0.000195,-0.170318,0.001863,-0.108800,0.445459,0.888667,0.192007,-0.396128,0.107107,18.121431,-64.695618,41.283085,,,,,,
1465828318.22,-3.025982,-0.453932,-1.400450,-0.000910,-0.179899,0.002984,-0.103671,0.438503,0.892730,0.184832,-0.389110,0.102738,18.121431,-64.695618,41.283085,,,,,,
1465828318.23,-3.031989,-0.446425,-1.402276,0.001191,-0.184165,0.001946,-0.098664,0.431743,0.896584,0.176789,-0.378246,0.098075,18.729874,-66.069481,38.758446,,,,,,
1465828318.24,-3.037746,-0.439071,-1.404000,0.002241,-0.175691,0.001892,-0.093828,0.425099,0.900271,0.172228,-0.372212,0.099119,18.729874,-66.069481,38.758446,,,,,,
1465828318.25,-3.043152,-0.431852,-1.405607,-0.002026,-0.160845,0.002856,-0.089259,0.418554,0.903795,0.165003,-0.364537,0.092115,18.729874,-66.069481,38.758446,,,,,,
1465828318.26,-3.048109,-0.424765,-1.407082,0.000110,-0.139622,0.000594,-0.085052,0.412107,0.907157,0.157699,-0.358762,0.089883,19.016970,-66.675926,37.561649,,,,,,
1465828318.27,-3.052704,-0.417823,-1.408494,0.002251,-0.108851,0.001466,-0.081135,0.405772,0.910366,0.155674,-0.354350,0.088215,19.016970,-66.675926,37.561649,,,,,,
1465828318.28,-3.056784,-0.410984,-1.409794,0.001208,-0.075945,-0.000873,-0.077653,0.399512,0.913433,0.150346,-0.349676,0.087162,19.016970,-66.675926,37.561649,,,,,,
1465828318.29,-3.060367,-0.404318,-1.411011,0.001230,-0.038798,-0.001107,-0.074595,0.393392,0.916340,0.145838,-0.342610,0.082119,19.448360,-67.763420,35.328201,,,,,,
1465828318.30,-3.063567,-0.397868,-1.412179,0.003380,-0.005896,-0.002378,-0.071858,0.387454,0.919084,0.144261,-0.334200,0.080641,19.448360,-67.763420,35.328201,,,,,,
1465828318.31,-3.066337,-0.391585,-1.413305,0.004465,0.029128,-0.002598,-0.069494,0.381654,0.921689,0.142049,-0.327303,0.078754,19.448360,-67.763420,35.328201,,,,,,
1465828318.32,-3.068822,-0.385435,-1.414406,0.004474,0.054595,-0.002759,-0.067372,0.375962,0.924183,0.142399,-0.322526,0.073773,19.575748,-68.246674,34.313007,,,,,,
1465828318.34,-3.072956,-0.373398,-1.416472,0.004483,0.095978,-0.004086,-0.063857,0.364782,0.928901,0.140700,-0.315496,0.069192,19.575748,-68.246674,34.313007,,,,,,
1465828318.33,-3.070988,-0.379360,-1.415451,0.001291,0.080068,-0.003988,-0.065531,0.370326,0.926587,0.140573,-0.318950,0.069125,19.575748,-68.246674,34.313007,,,,,,
1465828318.35,-3.074800,-0.367615,-1.417489,0.005539,0.108700,-0.003101,-0.062284,0.359391,0.931106,0.141202,-0.308777,0.065949,19.686020,-69.113937,32.464233,,,,,,
1465828318.36,-3.076549,-0.361941,-1.418478,0.006596,0.117184,-0.005283,-0.060786,0.354090,0.933234,0.142177,-0.304591,0.064569,19.686020,-69.113937,32.464233,,,,,,
1465828318.37,-3.078318,-0.356450,-1.419465,0.005505,0.115042,-0.004207,-0.059258,0.348950,0.935266,0.142876,-0.296597,0.060294,19.686020,-69.113937,32.464233,,,,,,
1465828318.38,-3.080169,-0.351084,-1.420434,0.004399,0.101221,-0.003058,-0.057641,0.343916,0.937230,0.141472,-0.290846,0.054317,19.701572,-69.505890,31.606670,,,,,,
1465828318.39,-3.082154,-0.345777,-1.421393,0.002226,0.085276,-0.001897,-0.055887,0.338928,0.939151,0.141123,-0.287781,0.055371,19.701572,-69.505890,31.606670,,,,,,
1465828318.40,-3.084389,-0.340619,-1.422337,0.004303,0.058717,-0.002793,-0.053888,0.334071,0.941006,0.141489,-0.282160,0.050693,19.701572,-69.505890,31.606670,,,,,,
1465828318.41,-3.086795,-0.335552,-1.423256,0.001062,0.037466,-0.002663,-0.051716,0.329291,0.942811,0.139316,-0.276526,0.049834,19.740435,-70.213669,29.975960,,,,,,
1465828318.42,-3.089437,-0.330569,-1.424154,0.003136,0.009843,-0.002489,-0.049310,0.324581,0.944572,0.138543,-0.273906,0.046807,19.740435,-70.213669,29.975960,,,,,,
1465828318.43,-3.092224,-0.325692,-1.425007,0.002023,-0.012470,-0.002350,-0.046754,0.319965,0.946275,0.135148,-0.267917,0.046279,19.740435,-70.213669,29.975960,,,,,,
1465828318.44,-3.095172,-0.320893,-1.425828,0.001970,-0.036909,-0.001133,-0.044035,0.315414,0.947932,0.131682,-0.264236,0.043508,19.790146,-70.536255,29.175146,,,,,,
1465828318.45,-3.098221,-0.316179,-1.426605,0.000858,-0.058159,-0.001001,-0.041209,0.310937,0.949537,0.126643,-0.259210,0.042391,19.790146,-70.536255,29.175146,,,,,,
1465828318.46,-3.101355,-0.311525,-1.427341,0.000815,-0.077285,-0.000881,-0.038291,0.306511,0.951097,0.122077,-0.256172,0.043898,19.861494,-70.838577,28.383440,,,,,,
1465828318.47,-3.104498,-0.307017,-1.428041,0.000776,-0.088983,0.001321,-0.035352,0.302217,0.952583,0.116315,-0.248231,0.040031,19.861494,-70.838577,28.383440,,,,,,
1465828318.48,-3.107631,-0.302550,-1.428699,-0.000315,-0.096425,0.000302,-0.032413,0.297955,0.954029,0.113086,-0.245801,0.042186,19.861494,-70.838577,28.383440,,,,,,
1465828318.50,-3.113418,-0.293802,-1.429882,0.000733,-0.079459,0.000196,-0.026963,0.289594,0.956770,0.104249,-0.238752,0.040056,20.039408,-71.387505,26.841173,,,,,,
1465828318.49,-3.110620,-0.298130,-1.429305,0.001802,-0.091128,0.000271,-0.029601,0.293733,0.955429,0.107970,-0.243822,0.041397,20.039408,-71.387505,26.841173,,,,,,
1465828318.51,-3.116010,-0.289544,-1.430426,0.000729,-0.067790,0.000123,-0.024515,0.285516,0.958060,0.100748,-0.234887,0.039468,20.039408,-71.387505,26.841173,,,,,,
1465828318.52,-3.118365,-0.285396,-1.430924,0.000734,-0.050809,-0.001048,-0.022286,0.281537,0.959291,0.096779,-0.229947,0.038359,20.039408,-71.387505,26.841173,,,,,,
1465828318.53,-3.120505,-0.281351,-1.431407,-0.000331,-0.034894,-0.000084,-0.020257,0.277653,0.960468,0.094491,-0.224171,0.035031,20.185629,-71.870003,25.405615,,,,,,
1465828318.54,-3.122512,-0.277409,-1.431869,0.002863,-0.022161,-0.001225,-0.018350,0.273864,0.961593,0.094262,-0.220199,0.035096,20.185629,-71.870003,25.405615,,,,,,
1465828318.55,-3.124249,-0.273527,-1.432304,0.003932,-0.005182,-0.001330,-0.016698,0.270129,0.962679,0.090307,-0.216983,0.034757,20.229872,-72.085670,24.750969,,,,,,
1465828318.56,-3.125832,-0.269688,-1.432728,0.002882,0.017112,-0.003600,-0.015190,0.266430,0.963734,0.092690,-0.215466,0.033626,20.229872,-72.085670,24.750969,,,,,,
1465828318.57,-3.127170,-0.265922,-1.433126,0.006076,0.030905,-0.003683,-0.013915,0.262799,0.964750,0.089629,-0.212506,0.032900,20.229872,-72.085670,24.750969,,,,,,
1465828318.58,-3.128389,-0.262236,-1.433535,0.003945,0.046817,-0.001656,-0.012752,0.259241,0.965728,0.090999,-0.208292,0.034195,20.229872,-72.085670,24.750969,,,,,,
1465828318.59,-3.129477,-0.258657,-1.433924,0.005004,0.054243,-0.002766,-0.011712,0.255782,0.966663,0.089165,-0.203109,0.031093,20.262682,-72.480171,23.542511,,,,,,
1465828318.60,-3.130567,-0.255158,-1.434311,0.000730,0.055297,-0.002776,-0.010668,0.252399,0.967565,0.090411,-0.198138,0.027461,20.262682,-72.480171,23.542511,,,,,,
1465828318.61,-3.131654,-0.251694,-1.434683,0.002842,0.053166,-0.003825,-0.009626,0.249045,0.968444,0.090146,-0.196783,0.029313,20.262682,-72.480171,23.542511,,,,,,
1465828318.62,-3.132817,-0.248276,-1.435073,0.002816,0.048903,-0.001669,-0.008506,0.245733,0.969300,0.091163,-0.194830,0.025909,20.260584,-72.658493,22.988129,,,,,,
1465828318.63,-3.134074,-0.244930,-1.435457,0.004917,0.037215,-0.002658,-0.007295,0.242488,0.970127,0.090745,-0.192562,0.021954,20.260584,-72.658493,22.988129,,,,,,
1465828318.64,-3.135386,-0.241687,-1.435814,0.003712,0.028006,-0.004625,-0.006026,0.239341,0.970917,0.090621,-0.188194,0.024185,20.260584,-72.658493,22.988129,,,,,,
1465828318.65,-3.136803,-0.238510,-1.436160,0.002614,0.016312,-0.002424,-0.004654,0.236255,0.971680,0.089157,-0.184649,0.022842,20.262840,-72.988388,21.916073,,,,,,
1465828318.66,-3.138340,-0.235384,-1.436519,0.001511,-0.000688,-0.001253,-0.003163,0.233217,0.972420,0.087788,-0.180879,0.022133,20.262840,-72.988388,21.916073,,,,,,
1465828318.67,-3.139993,-0.232339,-1.436870,0.000412,-0.015564,-0.000096,-0.001557,0.230255,0.973129,0.085038,-0.175933,0.017914,20.275282,-73.138252,21.398846,,,,,,
1465828318.68,3.141419,-0.229329,-1.437205,0.002507,-0.031501,0.000006,0.000169,0.227324,0.973819,0.082701,-0.174468,0.019024,20.275282,-73.138252,21.398846,,,,,,
1465828318.69,3.139538,-0.226340,-1.437527,-0.000715,-0.044246,-0.000981,0.002002,0.224412,0.974492,0.081600,-0.172624,0.020472,20.275282,-73.138252,21.398846,,,,,,
1465828318.70,3.137629,-0.223394,-1.437822,0.002460,-0.050623,-0.002002,0.003865,0.221541,0.975143,0.079082,-0.171095,0.019302,20.275282,-73.138252,21.398846,,,,,,
1465828318.71,3.135731,-0.220496,-1.438117,0.000313,-0.051695,-0.000932,0.005720,0.218713,0.975772,0.077365,-0.167825,0.019040,20.326557,-73.414551,20.379784,,,,,,
1465828318.72,3.133904,-0.217662,-1.438392,0.000300,-0.051702,-0.000932,0.007507,0.215947,0.976376,0.073441,-0.163731,0.018146,20.326557,-73.414551,20.379784,,,,,,
1465828318.74,3.130564,-0.212143,-1.438892,0.001348,-0.044284,-0.000976,0.010781,0.210555,0.977523,0.065711,-0.158431,0.015168,20.355762,-73.541885,19.885565,,,,,,
1465828318.73,3.132176,-0.214875,-1.438652,0.003483,-0.049587,-0.000941,0.009200,0.213225,0.976960,0.070039,-0.162017,0.020034,20.355762,-73.541885,19.885565,,,,,,
1465828318.75,3.129031,-0.209466,-1.439120,0.000278,-0.037919,-0.001017,0.012287,0.207937,0.978065,0.065075,-0.154776,0.019616,20.355762,-73.541885,19.885565,,,,,,
1465828318.76,3.127665,-0.206832,-1.439336,-0.000787,-0.026247,-0.000026,0.013630,0.205361,0.978591,0.061825,-0.151360,0.017884,20.355762,-73.541885,19.885565,,,,,,
1465828318.77,3.126424,-0.204244,-1.439532,0.000282,-0.016692,-0.002213,0.014853,0.202827,0.979102,0.060373,-0.149619,0.014871,20.355762,-73.541885,19.885565,,,,,,
1465828318.78,3.125307,-0.201665,-1.439728,0.001352,-0.001833,-0.002305,0.015955,0.200301,0.979605,0.061804,-0.149535,0.021647,20.396496,-73.773247,18.965591,,,,,,
1465828318.79,3.124340,-0.199129,-1.439929,0.002418,0.010899,-0.001318,0.016910,0.197816,0.980093,0.060696,-0.148057,0.015161,20.396496,-73.773247,18.965591,,,,,,
1465828318.80,3.123506,-0.196683,-1.440111,0.003485,0.020452,-0.002441,0.017737,0.195417,0.980560,0.059564,-0.143583,0.016312,20.405088,-73.879448,18.538103,,,,,,
1465828318.81,3.122792,-0.194249,-1.440285,-0.001841,0.030002,-0.001441,0.018446,0.193030,0.981019,0.058321,-0.140952,0.016539,20.405088,-73.879448,18.538103,,,,,,
1465828318.82,3.122045,-0.191918,-1.440458,0.003469,0.027870,-0.001422,0.019187,0.190742,0.981453,0.059716,-0.137031,0.013603,20.402658,-73.980087,18.135075,,,,,,
1465828318.83,3.121289,-0.189609,-1.440636,0.003459,0.027867,-0.002486,0.019938,0.188475,0.981876,0.060323,-0.135573,0.012448,20.402658,-73.980087,18.135075,,,,,,
1465828318.84,3.120501,-0.187336,-1.440817,0.001311,0.023612,-0.001396,0.020721,0.186242,0.982285,0.060135,-0.133340,0.011504,20.402658,-73.980087,18.135075,,,,,,
1465828318.85,3.119728,-0.185062,-1.440995,0.001301,0.024667,-0.001402,0.021490,0.184007,0.982690,0.059824,-0.133089,0.012656,20.402658,-73.980087,18.135075,,,,,,
1465828318.86,3.118919,-0.182832,-1.441164,0.002348,0.018293,-0.002425,0.022294,0.181816,0.983080,0.059417,-0.130882,0.012648,20.388708,-74.163681,17.385384,,,,,,
1465828318.87,3.118036,-0.180673,-1.441329,0.003392,0.010854,-0.002377,0.023171,0.179692,0.983450,0.058632,-0.127507,0.011835,20.388708,-74.163681,17.385384,,,,,,
1465828318.88,3.117044,-0.178559,-1.441513,0.002300,0.001286,-0.000188,0.024156,0.177612,0.983804,0.059645,-0.125030,0.011954,20.388708,-74.163681,17.385384,,,,,,
1465828318.89,3.115955,-0.176501,-1.441683,0.001216,-0.009331,-0.002251,0.025237,0.175586,0.984141,0.058733,-0.120761,0.008230,20.379793,-74.330833,16.667122,,,,,,
1465828318.90,3.114790,-0.174415,-1.441843,0.002252,-0.022082,-0.001105,0.026393,0.173532,0.984474,0.056493,-0.122171,0.010093,20.379793,-74.330833,16.667122,,,,,,
1465828318.91,3.113586,-0.172357,-1.441996,-0.000956,-0.026330,-0.002146,0.027588,0.171505,0.984797,0.054566,-0.120510,0.010473,20.383940,-74.407799,16.314911,,,,,,
1465828318.92,3.112387,-0.170312,-1.442133,0.002221,-0.031646,-0.002108,0.028779,0.169490,0.985112,0.051848,-0.120296,0.009990,20.383940,-74.407799,16.314911,,,,,,
