timestamp,attitude_roll,attitude_pitch,attitude_yaw,rotation_rate_x,rotation_rate_y,rotation_rate_z,gravity_x,gravity_y,gravity_z,user_acc_x,user_acc_y,user_acc_z,magnetic_field_x,magnetic_field_y,magnetic_field_z,latitude(degree),longitude(degree),altitude(meter),speed(m/s),course(degree),timestamp
1466441163.54,0.788253,-1.064409,-1.208324,0.018405,-0.277078,-0.000041,0.343939,0.874503,-0.341981,-0.795584,-0.870963,-0.551040,5.083292,-8.645625,-24.663256,,,,,,
1466441163.55,0.752837,-1.059810,-1.237052,0.015344,-0.246338,-0.000286,0.334361,0.872263,-0.356876,-0.813212,-0.872827,-0.521358,4.405193,-9.813617,-24.354671,,,,,,
1466441163.56,0.718258,-1.055238,-1.265235,0.014396,-0.228340,-0.001513,0.324444,0.870018,-0.371221,-0.810833,-0.866997,-0.486323,4.405193,-9.813617,-24.354671,,,,,,
1466441163.57,0.684098,-1.050381,-1.293118,0.013457,-0.201851,-0.001729,0.314243,0.867613,-0.385356,-0.817402,-0.869337,-0.478886,4.405193,-9.813617,-24.354671,,,,,,
1466441163.58,0.651014,-1.045547,-1.320560,0.011512,-0.128641,-0.003304,0.303863,0.865199,-0.398872,-0.815170,-0.861979,-0.448785,4.052993,-10.378579,-24.181007,,,,,,
,,,,,,,,,,,,,,,,29.719977,-95.399049,10.298757,-1.000000,-1.000000,1466441189.60
1466441163.59,0.649989,-1.045497,-1.320724,0.009451,-0.075547,-0.004703,0.303480,0.865174,-0.399217,-0.818967,-0.866212,-0.446853,4.052993,-10.378579,-24.181007,,,,,,
1466441163.60,0.649271,-1.045435,-1.320926,0.009486,-0.045819,-0.003825,0.303225,0.865143,-0.399477,-0.813281,-0.865814,-0.453275,4.052993,-10.378579,-24.181007,,,,,,
1466441163.61,0.648812,-1.045397,-1.321068,0.008440,-0.029894,-0.002861,0.303062,0.865124,-0.399643,-0.810203,-0.862713,-0.457336,4.052993,-10.378579,-24.181007,,,,,,
1466441163.62,0.648575,-1.045351,-1.321204,0.004597,-0.007210,-0.001606,0.302991,0.865100,-0.399747,-0.807935,-0.872562,-0.461703,3.717884,-10.923645,-23.994043,,,,,,
1466441163.63,0.648512,-1.045340,-1.321328,0.006751,0.008722,-0.003833,0.302972,0.865095,-0.399773,-0.814553,-0.864943,-0.455772,3.717884,-10.923645,-23.994043,,,,,,
1466441163.64,0.648670,-1.045310,-1.321473,0.004657,0.037392,-0.004015,0.303051,0.865080,-0.399746,-0.823070,-0.866530,-0.446644,3.707598,-10.927060,-23.994081,,,,,,
1466441163.66,0.651189,-1.045311,-1.321703,0.003793,0.197724,-0.005021,0.304056,0.865081,-0.398981,-0.810511,-0.861830,-0.446784,3.707598,-10.927060,-23.994081,,,,,,
1466441163.65,0.649520,-1.045316,-1.321573,0.003690,0.113845,-0.005560,0.303387,0.865083,-0.399484,-0.828625,-0.862855,-0.439734,3.707598,-10.927060,-23.994081,,,,,,
1466441163.67,0.653274,-1.045343,-1.321824,0.000628,0.216844,-0.007273,0.304871,0.865097,-0.398324,-0.781525,-0.864807,-0.477271,3.707598,-10.927060,-23.994081,,,,,,
1466441163.68,0.654724,-1.045338,-1.322005,0.007977,0.134020,-0.006746,0.305450,0.865094,-0.397885,-0.761108,-0.861219,-0.496570,3.782594,-10.930794,-23.980671,,,,,,
1466441163.69,0.655006,-1.045304,-1.322173,0.007821,0.012969,-0.003858,0.305580,0.865077,-0.397822,-0.759011,-0.866801,-0.504918,3.782594,-10.930794,-23.980671,,,,,,
1466441163.70,0.654229,-1.045243,-1.322337,0.009823,-0.086845,-0.002166,0.305303,0.865046,-0.398101,-0.775167,-0.865977,-0.488999,3.875093,-10.931958,-23.965364,,,,,,
1466441163.71,0.652891,-1.045173,-1.322493,0.010841,-0.124008,-0.001932,0.304807,0.865011,-0.398558,-0.794935,-0.867224,-0.473452,3.875093,-10.931958,-23.965364,,,,,,
1466441163.72,0.651668,-1.045095,-1.322663,0.010870,-0.100649,-0.002078,0.304360,0.864972,-0.398984,-0.793771,-0.864560,-0.462451,3.875093,-10.931958,-23.965364,,,,,,
1466441163.73,0.650533,-1.045028,-1.322830,0.009805,-0.102769,-0.003130,0.303942,0.864939,-0.399375,-0.789202,-0.865458,-0.473077,3.816741,-10.940966,-23.970619,,,,,,
1466441163.74,0.649136,-1.044961,-1.322993,0.010827,-0.136747,-0.002916,0.303419,0.864905,-0.399845,-0.781324,-0.864096,-0.479168,3.816741,-10.940966,-23.970619,,,,,,
1466441163.75,0.647218,-1.044868,-1.323174,0.012889,-0.187720,-0.000466,0.302701,0.864858,-0.400490,-0.780743,-0.863485,-0.479484,3.816741,-10.940966,-23.970619,,,,,,
1466441163.76,0.644870,-1.044767,-1.323332,0.011772,-0.229130,-0.000207,0.301812,0.864807,-0.401270,-0.788521,-0.865143,-0.473989,3.816741,-10.940966,-23.970619,,,,,,
1466441163.77,0.642203,-1.044664,-1.323501,0.013868,-0.257797,-0.001090,0.300794,0.864756,-0.402145,-0.787794,-0.864374,-0.464753,3.668352,-10.951833,-23.988817,,,,,,
1466441163.78,0.639283,-1.044536,-1.323675,0.014897,-0.284346,0.000142,0.299684,0.864692,-0.403110,-0.786623,-0.866217,-0.466610,3.668352,-10.951833,-23.988817,,,,,,
1466441163.79,0.636011,-1.044401,-1.323826,0.015906,-0.325762,0.002532,0.298433,0.864624,-0.404183,-0.788561,-0.866363,-0.468818,3.541409,-10.958740,-24.004732,,,,,,
,,,,,,,,,,,,,,,,29.719978,-95.399051,10.298757,-1.000000,-1.000000,1466441198.64
,,,,,,,,,,,,,,,,29.719978,-95.399053,10.298757,-1.000000,-1.000000,1466441198.66
1466441163.81,0.628489,-1.044099,-1.324129,0.015869,-0.356551,0.001661,0.295538,0.864472,-0.406627,-0.803579,-0.864426,-0.443166,3.541409,-10.958740,-24.004732,,,,,,
1466441163.80,0.632265,-1.044245,-1.323973,0.016915,-0.370358,0.002813,0.296996,0.864545,-0.405407,-0.799285,-0.866666,-0.460789,3.541409,-10.958740,-24.004732,,,,,,
1466441163.82,0.624929,-1.043948,-1.324270,0.016949,-0.342752,0.002640,0.294165,0.864396,-0.407783,-0.819220,-0.865403,-0.440591,3.378478,-10.966682,-24.024582,,,,,,
1466441163.83,0.621601,-1.043797,-1.324412,0.016992,-0.308774,0.002427,0.292882,0.864320,-0.408866,-0.816320,-0.865922,-0.435113,3.378478,-10.966682,-24.024582,,,,,,
1466441163.84,0.618627,-1.043665,-1.324555,0.013835,-0.279042,0.002237,0.291731,0.864254,-0.409827,-0.806318,-0.863674,-0.436746,3.378478,-10.966682,-24.024582,,,,,,
1466441163.85,0.615580,-1.043519,-1.324693,0.014867,-0.303467,0.003456,0.290554,0.864180,-0.410818,-0.796352,-0.864104,-0.451548,3.378478,-10.966682,-24.024582,,,,,,
1466441163.86,0.569427,-1.033772,-1.361459,0.018106,-0.371493,0.002754,0.275819,0.859235,-0.430859,-0.775392,-0.860074,-0.434985,3.061583,-10.982435,-24.059834,,,,,,
1466441163.87,0.524797,-1.023484,-1.396108,0.019210,-0.439520,0.003116,0.260737,0.853926,-0.450362,-0.763758,-0.854430,-0.412675,2.756075,-11.401306,-23.901402,,,,,,
1466441163.88,0.482035,-1.012513,-1.428406,0.020319,-0.496936,0.006606,0.245575,0.848166,-0.469370,-0.746750,-0.850424,-0.394567,2.756075,-11.401306,-23.901402,,,,,,
1466441163.89,0.441166,-1.000881,-1.458204,0.021386,-0.589383,0.008189,0.230389,0.841947,-0.487900,-0.725491,-0.841870,-0.382187,2.756075,-11.401306,-23.901402,,,,,,
1466441163.90,0.402504,-0.989455,-1.484917,0.027733,-0.712617,0.008910,0.215113,0.835727,-0.505259,-0.715540,-0.835696,-0.362066,2.756075,-11.401306,-23.901402,,,,,,
,,,,,,,,,,,,,,,,29.719986,-95.399074,10.171622,-1.000000,-1.000000,1466441198.83
1466441163.91,0.376159,-0.982430,-1.500353,0.028745,-0.803976,0.011578,0.203881,0.831849,-0.516198,-0.714012,-0.831544,-0.339255,1.744763,-12.960196,-23.191633,,,,,,
1466441163.92,0.359565,-0.979038,-1.506979,0.028675,-0.881507,0.013114,0.196279,0.829961,-0.522148,-0.703847,-0.829748,-0.331902,1.744763,-12.960196,-23.191633,,,,,,
1466441163.93,0.339603,-0.974197,-1.515461,0.031748,-1.008949,0.014960,0.187154,0.827251,-0.529745,-0.676213,-0.826701,-0.339915,1.274773,-13.277454,-23.042284,,,,,,
1466441163.94,0.315810,-0.967873,-1.525400,0.037905,-1.233020,0.017411,0.176119,0.823682,-0.539009,-0.651506,-0.823666,-0.341850,1.274773,-13.277454,-23.042284,,,,,,
1466441163.95,0.291974,-0.962372,-1.533129,0.046110,-1.507003,0.024440,0.164524,0.820549,-0.547385,-0.638066,-0.820809,-0.334710,1.274773,-13.277454,-23.042284,,,,,,
1466441163.96,0.273160,-0.960801,-1.534410,0.053215,-1.786273,0.029388,0.154545,0.819651,-0.551624,-0.626835,-0.818705,-0.320325,1.274773,-13.277454,-23.042284,,,,,,
1466441163.97,0.252275,-0.959542,-1.535028,0.060308,-2.076154,0.032276,0.143248,0.818929,-0.555730,-0.622206,-0.818410,-0.305705,-0.064262,-13.779869,-22.780996,,,,,,
1466441163.98,0.228719,-0.958378,-1.535334,0.069507,-2.377724,0.038432,0.130336,0.818260,-0.559877,-0.643199,-0.817925,-0.274961,-0.064262,-13.779869,-22.780996,,,,,,
1466441164.00,0.177623,-0.956801,-1.534375,0.069124,-2.678223,0.043510,0.101798,0.817353,-0.567073,-0.687125,-0.818909,-0.187810,-1.059507,-13.836231,-22.722212,,,,,,
1466441163.99,0.203762,-0.957578,-1.534881,0.072449,-2.574168,0.042860,0.116456,0.817800,-0.563596,-0.671906,-0.818334,-0.225848,-1.059507,-13.836231,-22.722212,,,,,,
1466441164.01,0.150498,-0.955956,-1.533806,0.080690,-2.786547,0.049523,0.086484,0.816866,-0.570308,-0.695996,-0.815416,-0.155858,-1.059507,-13.836231,-22.722212,,,,,,
1466441164.02,0.121747,-0.955073,-1.533115,0.081492,-2.992543,0.052944,0.070141,0.816356,-0.573275,-0.628765,-0.816508,-0.177748,-1.059507,-13.836231,-22.722212,,,,,,
1466441164.03,0.089208,-0.953958,-1.532506,0.092662,-3.423644,0.056723,0.051535,0.815711,-0.576159,-0.564505,-0.817420,-0.210676,-3.543366,-13.900556,-22.429489,,,,,,
1466441164.04,0.051553,-0.952755,-1.531709,0.107988,-3.925909,0.068404,0.029859,0.815015,-0.578670,-0.630948,-0.805021,-0.130192,-3.543366,-13.900556,-22.429489,,,,,,
1466441164.05,0.012380,-0.951679,-1.530459,0.100371,-4.044847,0.076593,0.007184,0.814391,-0.580272,-0.580884,-0.825133,-0.062200,-5.146083,-13.946012,-22.088217,,,,,,
1466441164.06,-0.030193,-0.950526,-1.529133,0.123225,-4.502490,0.077357,-0.017547,0.813722,-0.580990,-0.562210,-0.803986,-0.073383,-5.146083,-13.946012,-22.088217,,,,,,
1466441164.07,-0.077605,-0.949299,-1.527538,0.129013,-4.969707,0.087744,-0.045140,0.813008,-0.580501,-0.589458,-0.816593,-0.002797,-5.146083,-13.946012,-22.088217,,,,,,
1466441164.08,-0.127189,-0.948076,-1.525785,0.132014,-5.123670,0.088713,-0.073982,0.812295,-0.578535,-0.619148,-0.806207,0.109938,-5.146083,-13.946012,-22.088217,,,,,,
1466441164.09,-0.177444,-0.946833,-1.523923,0.143654,-5.181013,0.089084,-0.103130,0.811569,-0.575082,-0.684071,-0.801636,0.218774,-5.146083,-13.946012,-22.088217,,,,,,
1466441164.10,-0.226984,-0.945676,-1.521923,0.134181,-5.088639,0.091689,-0.131692,0.810893,-0.570184,-0.690650,-0.809382,0.258356,-9.130742,-14.025874,-20.706692,,,,,,
1466441164.11,-0.275968,-0.944589,-1.519899,0.135278,-5.066337,0.089421,-0.159693,0.810256,-0.563900,-0.674642,-0.807281,0.281673,-11.233212,-14.063272,-19.618923,,,,,,
1466441164.12,-0.325262,-0.943566,-1.517710,0.135208,-5.118371,0.091876,-0.187549,0.809656,-0.556131,-0.636578,-0.810282,0.306666,-11.233212,-14.063272,-19.618923,,,,,,
1466441164.13,-0.375643,-0.942599,-1.515460,0.137157,-5.265956,0.090675,-0.215605,0.809088,-0.546709,-0.594926,-0.800482,0.313219,-11.233212,-14.063272,-19.618923,,,,,,
1466441164.14,-0.427570,-0.941669,-1.512990,0.142266,-5.428430,0.097021,-0.244002,0.808542,-0.535466,-0.556016,-0.805429,0.369877,-11.233212,-14.063272,-19.618923,,,,,,
1466441164.15,-0.481516,-0.940828,-1.510397,0.144095,-5.665218,0.100637,-0.272835,0.808046,-0.522132,-0.506111,-0.795488,0.381767,-15.082917,-14.114946,-16.796925,,,,,,
1466441164.16,-0.538204,-0.940017,-1.507581,0.155408,-5.976344,0.106857,-0.302315,0.807568,-0.506398,-0.491173,-0.793744,0.442006,-15.082917,-14.114946,-16.796925,,,,,,
1466441164.18,-0.657170,-0.938581,-1.501448,0.166589,-6.394709,0.112686,-0.360989,0.806720,-0.467856,-0.392200,-0.794391,0.526816,-16.937349,-14.128719,-14.912017,,,,,,
1466441164.17,-0.596635,-0.939261,-1.504561,0.158438,-6.105888,0.108737,-0.331714,0.807122,-0.488384,-0.447323,-0.797418,0.520901,-16.937349,-14.128719,-14.912017,,,,,,
1466441164.19,-0.721024,-0.937998,-1.498025,0.175740,-6.729199,0.121179,-0.390418,0.806376,-0.444221,-0.363107,-0.795069,0.602165,-16.937349,-14.128719,-14.912017,,,,,,
1466441164.20,-0.787043,-0.937520,-1.494408,0.180790,-6.940512,0.126767,-0.419146,0.806093,-0.417769,-0.333036,-0.791887,0.645674,-16.937349,-14.128719,-14.912017,,,,,,
1466441164.21,-0.854736,-0.937232,-1.490751,0.179528,-7.100838,0.125643,-0.446619,0.805922,-0.388613,-0.292516,-0.785628,0.728548,-20.248400,-14.127243,-9.964240,,,,,,
1466441164.22,-0.924279,-0.937035,-1.486845,0.191980,-7.348265,0.134658,-0.472670,0.805806,-0.356735,-0.198946,-0.782338,0.741638,-20.248400,-14.127243,-9.964240,,,,,,
1466441164.24,-1.073091,-0.937284,-1.478596,0.207195,-7.943955,0.142667,-0.520160,0.805954,-0.282617,-0.102292,-0.777511,0.881723,-21.496510,-14.104752,-6.915112,,,,,,
1466441164.23,-0.997457,-0.937096,-1.482825,0.194680,-7.736894,0.140291,-0.497446,0.805842,-0.321196,-0.150183,-0.784281,0.769056,-21.496510,-14.104752,-6.915112,,,,,,
1466441164.25,-1.150284,-0.937705,-1.474452,0.198471,-8.105351,0.145799,-0.540096,0.806203,-0.241524,-0.047047,-0.778859,0.895287,-21.496510,-14.104752,-6.915112,,,,,,
1466441164.26,-1.229224,-0.938298,-1.470158,0.220622,-8.264645,0.151078,-0.557010,0.806553,-0.198021,-0.007871,-0.778385,0.979027,-21.496510,-14.104752,-6.915112,,,,,,
1466441164.27,-1.309548,-0.939109,-1.466022,0.204479,-8.401608,0.151921,-0.570471,0.807032,-0.152520,0.047613,-0.768153,0.984277,-22.643158,-14.002421,0.287051,,,,,,
1466441164.28,-1.390637,-0.940139,-1.461895,0.218290,-8.426037,0.152088,-0.580132,0.807640,-0.105662,0.026726,-0.770698,1.064082,-22.643158,-14.002421,0.287051,,,,,,
1466441164.30,-1.544272,-0.942592,-1.454737,0.186161,-7.737952,0.140290,-0.587486,0.809084,-0.015587,0.016929,-0.769412,1.115181,-22.313324,-13.924513,4.133561,,,,,,
1466441164.29,-1.468908,-0.941319,-1.458064,0.200707,-8.017228,0.147378,-0.585669,0.808335,-0.059880,0.042700,-0.780900,1.159413,-22.313324,-13.924513,4.133561,,,,,,
1466441164.31,-1.614879,-0.943960,-1.451488,0.192253,-7.130595,0.133293,-0.586015,0.809888,0.025850,0.023744,-0.770047,1.236953,-22.313324,-13.924513,4.133561,,,,,,
1466441164.32,-1.680073,-0.945324,-1.448778,0.159831,-6.675048,0.124017,-0.581988,0.810687,0.063852,0.125735,-0.767504,1.077124,-22.313324,-13.924513,4.133561,,,,,,
1466441164.33,-1.744227,-0.946757,-1.446254,0.172704,-6.604963,0.119333,-0.575552,0.811525,0.100832,0.210592,-0.762743,1.015044,-20.153734,-13.751134,10.658151,,,,,,
1466441164.34,-1.807151,-0.948203,-1.443866,0.158019,-6.435055,0.113995,-0.566932,0.812369,0.136549,0.261802,-0.761160,1.014711,-20.153734,-13.751134,10.658151,,,,,,
1466441164.35,-1.867838,-0.949690,-1.441897,0.151991,-6.152604,0.109024,-0.556450,0.813235,0.170328,0.257042,-0.760882,1.001379,-18.617043,-13.665827,13.248157,,,,,,
1466441164.36,-1.924360,-0.951162,-1.439974,0.150464,-5.679028,0.101794,-0.544816,0.814091,0.201076,0.275972,-0.772983,1.063251,-18.617043,-13.665827,13.248157,,,,,,
1466441164.37,-1.977523,-0.952548,-1.438526,0.126363,-5.373210,0.097723,-0.532325,0.814895,0.229296,0.282279,-0.758697,0.941328,-18.617043,-13.665827,13.248157,,,,,,
1466441164.38,-2.026941,-0.953927,-1.437090,0.132268,-4.921926,0.087448,-0.519339,0.815693,0.254817,0.285925,-0.772252,0.991903,-16.918512,-13.583666,15.430837,,,,,,
1466441164.39,-2.070716,-0.955155,-1.436048,0.104293,-4.310305,0.080391,-0.506811,0.816403,0.276819,0.263509,-0.773511,0.967123,-16.918512,-13.583666,15.430837,,,,,,
1466441164.40,-2.108566,-0.956257,-1.435153,0.099736,-3.714605,0.067070,-0.495199,0.817039,0.295338,0.291967,-0.763542,0.943233,-16.918512,-13.583666,15.430837,,,,,,
1466441164.41,-2.141228,-0.957216,-1.434419,0.081242,-3.187927,0.058426,-0.484631,0.817592,0.310928,0.292996,-0.771327,0.903305,-16.918512,-13.583666,15.430837,,,,,,
1466441164.42,-2.168374,-0.958031,-1.433883,0.068121,-2.621965,0.049542,-0.475462,0.818061,0.323593,0.349699,-0.768424,0.860580,-13.773634,-13.451254,18.390585,,,,,,
1466441164.43,-2.191937,-0.958724,-1.433409,0.061027,-2.345875,0.041416,-0.467245,0.818459,0.334376,0.432470,-0.759087,0.782659,-13.773634,-13.451254,18.390585,,,,,,
1466441164.44,-2.214240,-0.959419,-1.432976,0.060090,-2.247121,0.038667,-0.459216,0.818858,0.344371,0.498462,-0.772655,0.704595,-12.644008,-13.407163,19.215616,,,,,,
1466441164.45,-2.236076,-0.960096,-1.432571,0.060143,-2.203590,0.039459,-0.451152,0.819247,0.353973,0.537852,-0.768984,0.684296,-12.644008,-13.407163,19.215616,,,,,,
1466441164.46,-2.257203,-0.960791,-1.432208,0.058114,-2.125012,0.037899,-0.443133,0.819645,0.363064,0.564715,-0.774448,0.655063,-12.644008,-13.407163,19.215616,,,,,,
1466441164.47,-2.278908,-0.961479,-1.431832,0.064337,-2.256679,0.038731,-0.434720,0.820039,0.372229,0.669324,-0.772096,0.610910,-10.882077,-13.339980,20.309801,,,,,,
1466441164.48,-2.304241,-0.962304,-1.431437,0.072314,-2.676116,0.048821,-0.424649,0.820511,0.382669,0.709226,-0.768417,0.510337,-10.882077,-13.339980,20.309801,,,,,,
1466441164.49,-2.333175,-0.963210,-1.431024,0.080435,-2.991478,0.051871,-0.412863,0.821028,0.394280,0.744635,-0.765746,0.523720,-10.882077,-13.339980,20.309801,,,,,,
1466441164.50,-2.364389,-0.964210,-1.430672,0.086542,-3.207042,0.058552,-0.399781,0.821599,0.406387,0.742203,-0.770619,0.536224,-9.912937,-13.303866,20.823151,,,,,,
1466441164.51,-2.398053,-0.965278,-1.430323,0.092628,-3.448074,0.060069,-0.385282,0.822207,0.418966,0.746610,-0.761340,0.528208,-9.912937,-13.303866,20.823151,,,,,,
1466441164.52,-2.433123,-0.966394,-1.430068,0.093569,-3.540463,0.064908,-0.369758,0.822842,0.431521,0.723167,-0.762371,0.535276,-9.912937,-13.303866,20.823151,,,,,,
1466441164.54,-2.506488,-0.968702,-1.429867,0.097498,-3.793192,0.072883,-0.336005,0.824151,0.455933,0.761359,-0.759134,0.489593,-7.157156,-13.209729,21.980467,,,,,,
1466441164.53,-2.468939,-0.967512,-1.429895,0.092397,-3.630707,0.062279,-0.353495,0.823477,0.443764,0.771021,-0.757269,0.521522,-7.157156,-13.209729,21.980467,,,,,,
1466441164.55,-2.545464,-0.969891,-1.429970,0.090948,-3.921667,0.073682,-0.317434,0.824824,0.467868,0.794088,-0.751643,0.469769,-7.157156,-13.209729,21.980467,,,,,,
1466441164.56,-2.585188,-0.971069,-1.430209,0.093064,-3.925927,0.077969,-0.298089,0.825490,0.479280,0.727853,-0.759511,0.487501,-5.539846,-13.159410,22.472267,,,,,,
1466441164.57,-2.622600,-0.972181,-1.430560,0.079588,-3.641345,0.071913,-0.279499,0.826117,0.489297,0.719746,-0.752020,0.516043,-5.539846,-13.159410,22.472267,,,,,,
1466441164.58,-2.658135,-0.973195,-1.431042,0.078054,-3.488082,0.073409,-0.261549,0.826688,0.498176,0.734648,-0.758038,0.484001,-5.539846,-13.159410,22.472267,,,,,,
1466441164.60,-2.725067,-0.975047,-1.432310,0.060452,-3.090959,0.070901,-0.227024,0.827728,0.513153,0.711125,-0.756821,0.446122,-5.539846,-13.159410,22.472267,,,,,,
1466441164.59,-2.692854,-0.974200,-1.431628,0.070731,-3.384021,0.072749,-0.243738,0.827253,0.506206,0.709421,-0.751706,0.432484,-5.539846,-13.159410,22.472267,,,,,,
1466441164.61,-2.754163,-0.975832,-1.433049,0.053419,-2.757546,0.067738,-0.211754,0.828168,0.518939,0.669366,-0.762754,0.438383,-0.631974,-13.035627,23.206373,,,,,,
1466441164.62,-2.779370,-0.976484,-1.433773,0.043272,-2.363603,0.062064,-0.198416,0.828534,0.523606,0.678473,-0.771954,0.428085,-0.631974,-13.035627,23.206373,,,,,,
1466441164.63,-2.800853,-0.977032,-1.434431,0.037352,-2.001505,0.052336,-0.186971,0.828841,0.527319,0.668767,-0.783049,0.395823,0.583759,-13.011972,23.220907,,,,,,
1466441164.64,-2.818002,-0.977457,-1.434999,0.028349,-1.551275,0.042052,-0.177789,0.829078,0.530114,0.661172,-0.785530,0.386802,0.583759,-13.011972,23.220907,,,,,,
1466441164.65,-2.830602,-0.977771,-1.435427,0.019325,-1.121214,0.029766,-0.171016,0.829254,0.532064,0.663921,-0.786697,0.372416,1.444148,-12.997033,23.191687,,,,,,
1466441164.66,-2.838913,-0.977959,-1.435762,0.011358,-0.692224,0.020681,-0.166542,0.829359,0.533318,0.653678,-0.783934,0.361504,1.444148,-12.997033,23.191687,,,,,,
1466441164.67,-2.842463,-0.978038,-1.435984,0.001322,-0.215452,0.011294,-0.164628,0.829403,0.533843,0.644410,-0.779156,0.367341,1.444148,-12.997033,23.191687,,,,,,
1466441164.68,-2.841152,-0.977971,-1.436101,-0.010855,0.254947,0.003010,-0.165344,0.829365,0.533680,0.647034,-0.773854,0.360989,1.444148,-12.997033,23.191687,,,,,,
1466441164.69,-2.835541,-0.977802,-1.436175,-0.019911,0.669064,-0.002790,-0.168378,0.829271,0.532878,0.653425,-0.771669,0.359929,1.949805,-12.991343,23.157852,,,,,,
1466441164.70,-2.825818,-0.977478,-1.436202,-0.032170,1.073632,-0.010662,-0.173635,0.829090,0.531470,0.671483,-0.767628,0.354058,1.949805,-12.991343,23.157852,,,,,,
1466441164.71,-2.812633,-0.977052,-1.436197,-0.042416,1.390060,-0.014785,-0.180741,0.828851,0.529469,0.695939,-0.768457,0.348628,1.949805,-12.991343,23.157852,,,,,,
1466441164.72,-2.796724,-0.976543,-1.436141,-0.048470,1.650216,-0.020681,-0.189284,0.828567,0.526924,0.722212,-0.770751,0.341713,1.593832,-13.002446,23.178848,,,,,,
1466441164.74,-2.756574,-0.975269,-1.435902,-0.061616,2.187525,-0.034708,-0.210678,0.827853,0.519879,0.746078,-0.785174,0.373431,1.593832,-13.002446,23.178848,,,,,,
1466441164.75,-2.733129,-0.974563,-1.435660,-0.059250,2.365924,-0.042211,-0.223040,0.827457,0.515334,0.759371,-0.792255,0.376954,1.593832,-13.002446,23.178848,,,,,,
1466441164.73,-2.778016,-0.975955,-1.436059,-0.055555,1.936918,-0.026744,-0.199281,0.828238,0.523746,0.724931,-0.778524,0.364362,1.593832,-13.002446,23.178848,,,,,,
1466441164.76,-2.707847,-0.973818,-1.435341,-0.060072,2.552814,-0.047642,-0.236255,0.827038,0.510090,0.763110,-0.795483,0.388790,0.004901,-13.048527,23.207729,,,,,,
1466441164.77,-2.680805,-0.973045,-1.434962,-0.059884,2.692989,-0.054908,-0.250244,0.826603,0.504088,0.787476,-0.799214,0.401933,0.004901,-13.048527,23.207729,,,,,,
1466441164.78,-2.653528,-0.972287,-1.434503,-0.052433,2.685561,-0.058047,-0.264193,0.826176,0.497629,0.806414,-0.799062,0.386267,-1.103034,-13.076968,23.165468,,,,,,
1466441164.79,-2.626368,-0.971561,-1.433993,-0.050311,2.674951,-0.061172,-0.277905,0.825767,0.490792,0.809201,-0.794838,0.395774,-1.103034,-13.076968,23.165468,,,,,,
1466441164.80,-2.599208,-0.970825,-1.433489,-0.048191,2.668576,-0.060065,-0.291445,0.825352,0.483585,0.825274,-0.784184,0.408841,-2.328288,-13.105718,23.058231,,,,,,
1466441164.81,-2.572555,-0.970121,-1.432995,-0.046141,2.603808,-0.060722,-0.304542,0.824954,0.476135,0.812888,-0.779315,0.409012,-2.328288,-13.105718,23.058231,,,,,,
1466441164.82,-2.546542,-0.969398,-1.432556,-0.046195,2.564516,-0.058346,-0.317157,0.824545,0.468547,0.801090,-0.762763,0.414983,-2.328288,-13.105718,23.058231,,,,,,
1466441164.83,-2.520722,-0.968698,-1.432208,-0.048372,2.529471,-0.056000,-0.329484,0.824149,0.460672,0.806061,-0.762733,0.440695,-2.328288,-13.105718,23.058231,,,,,,
1466441164.84,-2.497607,-0.968028,-1.431952,-0.041354,2.189679,-0.049604,-0.340375,0.823769,0.453375,0.867429,-0.754433,0.398996,-4.707519,-13.157973,22.662079,,,,,,
1466441164.85,-2.478587,-0.967511,-1.431757,-0.033348,1.794661,-0.038603,-0.349198,0.823476,0.447155,0.855378,-0.758413,0.370899,-4.707519,-13.157973,22.662079,,,,,,
1466441164.86,-2.462148,-0.967043,-1.431625,-0.031481,1.590785,-0.034129,-0.356743,0.823211,0.441654,0.834969,-0.759917,0.407680,-4.707519,-13.157973,22.662079,,,,,,
1466441164.87,-2.447637,-0.966666,-1.431487,-0.023234,1.379473,-0.029602,-0.363313,0.822996,0.436670,0.815156,-0.770842,0.432776,-6.559116,-13.203688,22.169874,,,,,,
1466441164.88,-2.436057,-0.966353,-1.431316,-0.014060,1.055616,-0.026497,-0.368512,0.822818,0.432630,0.835248,-0.774952,0.419696,-6.559116,-13.203688,22.169874,,,,,,
1466441164.89,-2.428096,-0.966174,-1.431110,-0.003881,0.690336,-0.018874,-0.372041,0.822717,0.429793,0.831849,-0.787073,0.402040,-6.559116,-13.203688,22.169874,,,,,,
1466441164.90,-2.423408,-0.966089,-1.430836,0.007426,0.367542,-0.016838,-0.374098,0.822669,0.428097,0.832365,-0.784384,0.410709,-6.559116,-13.203688,22.169874,,,,,,
1466441164.92,-2.424231,-0.966255,-1.430219,0.025689,-0.336469,-0.002825,-0.373655,0.822763,0.428302,0.810240,-0.771707,0.423383,-7.385872,-13.220103,21.898415,,,,,,
1466441164.91,-2.422028,-0.966118,-1.430547,0.014438,0.025621,-0.008300,-0.374673,0.822685,0.427563,0.822945,-0.780754,0.414539,-7.385872,-13.220103,21.898415,,,,,,
1466441164.93,-2.430216,-0.966535,-1.429893,0.035830,-0.728299,0.007094,-0.370935,0.822922,0.430356,0.802209,-0.772126,0.441378,-7.354689,-13.213455,21.912916,,,,,,
1466441164.94,-2.440509,-0.966935,-1.429541,0.046986,-1.166838,0.013049,-0.366273,0.823149,0.433900,0.807405,-0.771147,0.438048,-7.354689,-13.213455,21.912916,,,,,,
1466441164.95,-2.454521,-0.967453,-1.429205,0.054010,-1.502383,0.019418,-0.359888,0.823443,0.438660,0.791238,-0.769915,0.435837,-7.354689,-13.213455,21.912916,,,,,,
1466441164.96,-2.470549,-0.968033,-1.428885,0.057006,-1.657414,0.022522,-0.352514,0.823772,0.443997,0.771291,-0.769802,0.447833,-6.986632,-13.195518,22.043776,,,,,,
1466441164.97,-2.487622,-0.968642,-1.428585,0.060066,-1.762537,0.024249,-0.344577,0.824117,0.449552,0.765750,-0.774160,0.458178,-6.986632,-13.195518,22.043776,,,,,,
1466441164.98,-2.506639,-0.969313,-1.428323,0.062971,-1.987649,0.028857,-0.335638,0.824497,0.455578,0.780981,-0.771809,0.436954,-6.986632,-13.195518,22.043776,,,,,,
1466441164.99,-2.528357,-0.970064,-1.428059,0.071147,-2.255237,0.033737,-0.325309,0.824922,0.462253,0.797309,-0.764848,0.410519,-5.503375,-13.138581,22.493406,,,,,,
1466441165.01,-2.575345,-0.971619,-1.427873,0.064677,-2.310465,0.040463,-0.302549,0.825800,0.475940,0.731763,-0.753671,0.438153,-5.503375,-13.138581,22.493406,,,,,,
1466441165.00,-2.551919,-0.970849,-1.427913,0.068838,-2.393279,0.037793,-0.313968,0.825365,0.469251,0.780673,-0.760973,0.409701,-5.503375,-13.138581,22.493406,,,,,,
1466441165.02,-2.597520,-0.972334,-1.427918,0.057368,-2.195786,0.039737,-0.291616,0.826203,0.482026,0.721242,-0.756394,0.467071,-4.480572,-13.103673,22.739416,,,,,,
1466441165.03,-2.619778,-0.973034,-1.428018,0.058396,-2.223397,0.040975,-0.280527,0.826597,0.487896,0.741862,-0.761365,0.428273,-4.480572,-13.103673,22.739416,,,,,,
1466441165.04,-2.641503,-0.973739,-1.428110,0.057446,-2.135261,0.038293,-0.269583,0.826994,0.493362,0.731573,-0.774076,0.416321,-4.480572,-13.103673,22.739416,,,,,,
1466441165.05,-2.661850,-0.974381,-1.428174,0.055505,-1.991904,0.033134,-0.259244,0.827354,0.498274,0.742047,-0.782524,0.419206,-4.480572,-13.103673,22.739416,,,,,,
1466441165.07,-2.698352,-0.975608,-1.428195,0.052691,-1.698828,0.024906,-0.240452,0.828043,0.506486,0.723530,-0.778284,0.397277,-2.451393,-13.042786,23.081144,,,,,,
1466441165.06,-2.680885,-0.975020,-1.428204,0.055660,-1.872974,0.029195,-0.249478,0.827713,0.502645,0.731107,-0.789551,0.413386,-2.451393,-13.042786,23.081144,,,,,,
1466441165.08,-2.713946,-0.976148,-1.428188,0.046541,-1.514062,0.020548,-0.232339,0.828346,0.509767,0.716332,-0.777824,0.390319,-1.550579,-13.015806,23.174278,,,,,,
1466441165.09,-2.727127,-0.976604,-1.428170,0.041561,-1.241173,0.017767,-0.225448,0.828601,0.512439,0.698501,-0.771671,0.387708,-1.550579,-13.015806,23.174278,,,,,,
1466441165.10,-2.736860,-0.976977,-1.428133,0.033494,-0.890760,0.010239,-0.220328,0.828809,0.514325,0.695090,-0.776823,0.397830,-0.789352,-12.991506,23.226288,,,,,,
1466441165.11,-2.743513,-0.977250,-1.428005,0.027469,-0.609364,0.003146,-0.216814,0.828962,0.515571,0.692659,-0.783125,0.378762,-0.789352,-12.991506,23.226288,,,,,,
1466441165.12,-2.747535,-0.977473,-1.427824,0.021414,-0.350270,-0.002743,-0.214667,0.829087,0.516268,0.698920,-0.781449,0.372404,-0.789352,-12.991506,23.226288,,,,,,
1466441165.13,-2.748549,-0.977597,-1.427569,0.015417,-0.046576,-0.009975,-0.214104,0.829156,0.516390,0.698937,-0.780588,0.376249,-0.789352,-12.991506,23.226288,,,,,,
1466441165.14,-2.746794,-0.977656,-1.427266,0.010425,0.211456,-0.015857,-0.214992,0.829190,0.515968,0.709498,-0.776974,0.363747,-0.006065,-12.961249,23.256584,,,,,,
1466441165.15,-2.742558,-0.977629,-1.426905,0.004348,0.454621,-0.020581,-0.217184,0.829175,0.515074,0.710424,-0.777920,0.371477,-0.006065,-12.961249,23.256584,,,,,,
1466441165.16,-2.735881,-0.977556,-1.426508,0.001459,0.694596,-0.024218,-0.220642,0.829133,0.513668,0.717117,-0.773973,0.369938,-0.006065,-12.961249,23.256584,,,,,,
1466441165.17,-2.726860,-0.977398,-1.426095,-0.006766,0.923955,-0.027793,-0.225319,0.829045,0.511776,0.722039,-0.777989,0.374164,-0.243373,-12.952896,23.259964,,,,,,
1466441165.18,-2.715773,-0.977196,-1.425642,-0.009707,1.121461,-0.032228,-0.231049,0.828932,0.509400,0.720597,-0.770964,0.379837,-0.243373,-12.952896,23.259964,,,,,,
1466441165.19,-2.702556,-0.976920,-1.425184,-0.015820,1.337016,-0.035715,-0.237858,0.828778,0.506509,0.744542,-0.771939,0.387244,-0.243373,-12.952896,23.259964,,,,,,
1466441165.20,-2.687815,-0.976595,-1.424731,-0.018866,1.453818,-0.037515,-0.245417,0.828596,0.503189,0.770670,-0.767530,0.360306,-0.686694,-12.956285,23.249212,,,,,,
1466441165.21,-2.672837,-0.976245,-1.424293,-0.019920,1.462313,-0.037570,-0.253057,0.828400,0.499716,0.768377,-0.768097,0.365564,-0.686694,-12.956285,23.249212,,,,,,
1466441165.22,-2.657493,-0.975885,-1.423844,-0.019853,1.514345,-0.038960,-0.260833,0.828198,0.496038,0.778747,-0.766537,0.381830,-0.686694,-12.956285,23.249212,,,,,,
1466441165.23,-2.641650,-0.975490,-1.423439,-0.025129,1.553631,-0.038147,-0.268815,0.827977,0.492131,0.780824,-0.769063,0.378078,-1.985719,-12.975325,23.163778,,,,,,
1466441165.24,-2.630094,-0.974073,-1.426500,-0.024095,1.534501,-0.034835,-0.275059,0.827181,0.490014,0.779865,-0.764941,0.385764,-1.985719,-12.975325,23.163778,,,,,,
1466441165.25,-2.618987,-0.972614,-1.429827,-0.026244,1.517507,-0.035797,-0.281086,0.826361,0.487974,0.786213,-0.762762,0.386583,-1.985719,-12.975325,23.163778,,,,,,
1466441165.26,-2.615215,-0.969486,-1.438753,-0.024204,1.451644,-0.033259,-0.284222,0.824595,0.489143,0.772122,-0.760477,0.386314,-2.675701,-13.027546,23.064833,,,,,,
1466441165.28,-2.607861,-0.963776,-1.455245,-0.025458,1.309310,-0.029183,-0.290202,0.821351,0.491085,0.769496,-0.760286,0.380771,-2.675701,-13.027546,23.064833,,,,,,
1466441165.27,-2.607298,-0.967576,-1.443841,-0.025329,1.408091,-0.030861,-0.288887,0.823513,0.488232,0.782128,-0.761043,0.388446,-2.675701,-13.027546,23.064833,,,,,,
1466441165.29,-2.609457,-0.959663,-1.466580,-0.023461,1.210522,-0.025375,-0.291130,0.818998,0.494455,0.745598,-0.763517,0.398123,-3.844992,-13.388377,22.689867,,,,,,
1466441165.30,-2.601566,-0.958144,-1.469928,-0.023460,1.210515,-0.026441,-0.295661,0.818126,0.493208,0.741508,-0.760509,0.413118,-3.844992,-13.388377,22.689867,,,,,,
1466441165.31,-2.602476,-0.954572,-1.480340,-0.021388,1.169072,-0.025120,-0.296711,0.816066,0.495982,0.766010,-0.765316,0.389623,-3.844992,-13.388377,22.689867,,,,,,
1466441165.32,-2.594565,-0.953736,-1.482188,-0.018457,0.963069,-0.021697,-0.300980,0.815583,0.494202,0.784943,-0.759461,0.353836,-4.317723,-13.577134,22.491808,,,,,,
1466441165.33,-2.592090,-0.952414,-1.486337,-0.011350,0.695468,-0.015755,-0.302765,0.814817,0.494374,0.795365,-0.763197,0.351558,-4.317723,-13.577134,22.491808,,,,,,
1466441165.34,-2.586935,-0.952286,-1.486220,-0.006348,0.443809,-0.010979,-0.305365,0.814743,0.492896,0.799063,-0.760315,0.351114,-4.317723,-13.577134,22.491808,,,,,,
1466441165.35,-2.584436,-0.952244,-1.486111,0.002886,0.170913,-0.006065,-0.306613,0.814719,0.492160,0.797458,-0.763373,0.349362,-5.010494,-13.775220,22.226133,,,,,,
1466441165.36,-2.584691,-0.952283,-1.485994,0.007867,-0.100914,-0.003290,-0.306471,0.814741,0.492211,0.794813,-0.760008,0.355262,-5.010494,-13.775220,22.226133,,,,,,
1466441165.37,-2.587571,-0.952395,-1.485898,0.014986,-0.360010,0.002599,-0.305004,0.814806,0.493015,0.788372,-0.754931,0.349332,-5.010494,-13.775220,22.226133,,,,,,
1466441165.38,-2.592969,-0.952577,-1.485835,0.018932,-0.603176,0.008386,-0.302262,0.814912,0.494527,0.785065,-0.758759,0.357478,-5.054705,-13.774306,22.216688,,,,,,
1466441165.39,-2.600554,-0.952847,-1.485785,0.026118,-0.812361,0.011834,-0.298388,0.815068,0.496617,0.766330,-0.760792,0.363796,-5.054705,-13.774306,22.216688,,,,,,
1466441165.40,-2.609667,-0.953177,-1.485740,0.033413,-0.933419,0.015794,-0.293714,0.815259,0.499084,0.777173,-0.792585,0.377168,-5.054705,-13.774306,22.216688,,,,,,
1466441165.41,-2.616608,-0.953733,-1.485394,0.061184,-0.848515,0.024869,-0.290016,0.815581,0.500717,1.692878,-0.710128,-0.021653,-4.498159,-13.753964,22.348553,,,,,,
1466441165.42,-2.650445,-0.953709,-1.485883,-0.005018,-4.418222,0.032289,-0.272919,0.815567,0.510260,1.658829,-0.718720,-0.480032,-4.498159,-13.753964,22.348553,,,,,,
1466441165.43,-2.711781,-0.955191,-1.486608,0.151170,-6.279811,0.105858,-0.240624,0.816424,0.524930,1.811303,-0.738406,0.059848,-4.498159,-13.753964,22.348553,,,,,,
1466441165.44,-2.785262,-0.957333,-1.487727,0.175796,-7.795142,0.161157,-0.200827,0.817659,0.539539,2.183234,-0.761949,-0.108447,-3.590437,-13.743120,22.518841,,,,,,
1466441165.45,-2.891227,-0.960638,-1.489455,0.317056,-11.425592,0.211743,-0.141965,0.819557,0.555132,2.299070,-0.737160,-0.364611,-3.590437,-13.743120,22.518841,,,,,,
1466441165.46,-3.031962,-0.964397,-1.492691,0.347275,-14.448647,0.261601,-0.062355,0.821705,0.566491,2.239220,-0.766499,0.138694,-3.590437,-13.743120,22.518841,,,,,,
1466441165.47,3.087637,-0.968422,-1.497855,0.414959,-16.436508,0.322036,0.030556,0.823993,0.565776,2.251335,-0.735843,0.586003,4.858754,-13.540598,22.403294,,,,,,
1466441165.48,2.895785,-0.970842,-1.507142,0.264027,-19.319756,0.531569,0.137391,0.825361,0.547634,3.487502,-0.624998,0.327214,4.858754,-13.540598,22.403294,,,,,,
1466441165.49,2.609130,-0.966594,-1.524250,-0.135852,-30.573406,1.301092,0.288403,0.822956,0.489457,-3.718151,0.098706,0.110214,4.858754,-13.540598,22.403294,,,,,,
1466441165.50,2.523893,-0.969104,-1.527247,-0.282966,3.993582,-0.043097,0.327827,0.824379,0.461442,-3.330391,-1.866295,7.312957,12.033919,-13.458117,19.568512,,,,,,
1466441165.51,2.688885,-0.968365,-1.525417,0.424863,16.217285,-0.330879,0.247853,0.823960,0.509567,1.059062,-0.880021,2.487229,12.033919,-13.458117,19.568512,,,,,,
1466441165.52,2.775238,-0.968841,-1.517977,-0.503358,5.000424,-0.487120,0.202841,0.824230,0.528678,3.457041,-1.074733,-4.016426,12.033919,-13.458117,19.568512,,,,,,
1466441165.53,2.765701,-0.970098,-1.514030,0.330550,-2.150714,-0.245581,0.207493,0.824941,0.525756,0.974102,-1.005361,-1.152282,14.051622,-13.543473,18.110466,,,,,,
1466441165.54,2.783697,-0.971610,-1.511025,-0.135799,3.053231,-0.211623,0.197561,0.825795,0.528235,0.753931,-0.799092,0.190988,14.051622,-13.543473,18.110466,,,,,,
1466441165.55,2.823810,-0.971928,-1.508802,0.070938,3.432843,-0.064775,0.176137,0.825974,0.535483,1.143993,-0.655839,-1.062842,14.065072,-13.456294,18.164930,,,,,,
1466441165.56,2.834216,-0.971699,-1.507026,-0.073884,-0.019995,-0.069875,0.170613,0.825845,0.537468,1.861446,-0.635720,-1.308907,14.065072,-13.456294,18.164930,,,,,,
1466441165.57,2.812479,-0.972746,-1.508249,0.161366,-2.504916,0.013004,0.181975,0.826435,0.532814,1.422304,-0.792454,-0.923714,14.065072,-13.456294,18.164930,,,,,,
1466441165.58,2.781642,-0.972866,-1.509603,-0.001269,-3.027435,0.086373,0.198281,0.826502,0.526857,0.738838,-0.768183,-0.373583,14.065072,-13.456294,18.164930,,,,,,
1466441165.59,2.757018,-0.973452,-1.511129,0.112333,-2.002470,0.062256,0.211011,0.826832,0.521367,0.343005,-0.761265,0.254467,14.139688,-13.423268,18.131405,,,,,,
1466441165.60,2.745388,-0.973450,-1.511339,-0.024660,-0.944714,0.007586,0.217061,0.826831,0.518878,0.277126,-0.726657,0.418057,14.139688,-13.423268,18.131405,,,,,,
1466441165.61,2.740842,-0.973740,-1.511529,0.047603,-0.237537,-0.015938,0.219324,0.826994,0.517666,0.246069,-0.761015,0.499989,14.139688,-13.423268,18.131405,,,,,,
1466441165.62,2.744211,-0.973798,-1.511279,-0.017564,0.451582,-0.011809,0.217560,0.827026,0.518358,0.319412,-0.755127,0.428023,14.753246,-13.417100,17.640465,,,,,,
1466441165.64,2.764637,-0.973977,-1.510641,0.002826,1.412530,-0.027395,0.206873,0.827127,0.522555,0.496298,-0.852518,0.109784,14.753246,-13.417100,17.640465,,,,,,
1466441165.63,2.752125,-0.973864,-1.510890,0.005303,0.856118,-0.014323,0.213430,0.827064,0.520012,0.387995,-0.769416,0.352226,14.753246,-13.417100,17.640465,,,,,,
1466441165.65,2.785195,-0.973615,-1.509904,-0.070885,2.069817,-0.029462,0.196192,0.826924,0.526978,0.939306,-0.812993,-0.487442,14.428804,-13.402857,17.917471,,,,,,
1466441165.66,2.793810,-0.973205,-1.509718,-0.013680,0.219990,0.032226,0.191760,0.826693,0.528967,1.259473,-0.728045,-0.620459,14.428804,-13.402857,17.917471,,,,,,
1466441165.67,2.780758,-0.973167,-1.511017,0.006525,-1.433359,0.083064,0.198659,0.826672,0.526449,0.963771,-0.745190,-0.695974,13.917024,-13.416267,18.308004,,,,,,
1466441165.68,2.770467,-0.972690,-1.512232,-0.014791,-0.608315,0.073610,0.204209,0.826403,0.524744,0.467910,-0.738162,0.056356,13.917024,-13.416267,18.308004,,,,,,
1466441165.69,2.777403,-0.972402,-1.512779,-0.028431,1.184129,0.020842,0.200649,0.826241,0.526370,0.455891,-0.783593,0.205304,13.917024,-13.416267,18.308004,,,,,,
1466441165.70,2.791472,-0.971768,-1.512528,-0.061381,1.213903,0.011042,0.193403,0.825884,0.529633,0.925112,-0.797914,-0.334382,14.282956,-13.437219,18.008362,,,,,,
1466441165.71,2.792322,-0.971543,-1.512744,-0.008932,-0.252491,0.026678,0.193017,0.825757,0.529972,1.011893,-0.808896,-0.583408,14.282956,-13.437219,18.008362,,,,,,
,,,,,,,,,,,,,,,,29.719981,-95.399079,10.141656,-1.000000,-1.000000,1466441200.66
1466441165.72,2.787091,-0.971418,-1.513254,0.000458,-0.406457,0.027653,0.195822,0.825687,0.529051,0.777048,-0.811130,-0.240050,14.282956,-13.437219,18.008362,,,,,,
1466441165.73,2.787869,-0.971252,-1.513537,-0.014671,0.261430,0.021320,0.195458,0.825593,0.529332,0.634925,-0.765534,-0.060644,13.953016,-13.469038,18.241741,,,,,,
1466441165.74,2.793016,-0.971009,-1.513590,-0.024925,0.553469,0.005641,0.192800,0.825455,0.530520,0.735209,-0.776261,-0.170230,13.953016,-13.469038,18.241741,,,,,,
1466441165.75,2.796650,-0.970876,-1.513564,-0.006107,0.267850,0.002128,0.190907,0.825381,0.531320,0.841380,-0.785449,-0.298913,13.953016,-13.469038,18.241741,,,,,,
1466441165.77,2.796315,-0.971118,-1.513566,0.014806,-0.060217,-0.010696,0.191018,0.825517,0.531068,0.820075,-0.791002,-0.236207,13.835334,-13.479308,18.323606,,,,,,
1466441165.76,2.796885,-0.970949,-1.513599,0.010566,-0.028390,-0.000255,0.190762,0.825422,0.531309,0.839816,-0.784971,-0.286161,13.835334,-13.479308,18.323606,,,,,,
1466441165.78,2.795347,-0.971338,-1.513450,0.020045,-0.131354,-0.012373,0.191470,0.825641,0.530712,0.802899,-0.774341,-0.251308,13.835334,-13.479308,18.323606,,,,,,
1466441165.79,2.793183,-0.971646,-1.513425,0.028434,-0.232233,-0.010668,0.192531,0.825815,0.530058,0.735233,-0.771601,-0.235944,13.797216,-13.471540,18.358028,,,,,,
1466441165.80,2.793499,-0.971964,-1.513367,0.026786,0.144720,-0.017291,0.192274,0.825994,0.529872,0.687700,-0.778372,-0.126872,13.797216,-13.471540,18.358028,,,,,,
1466441165.81,2.796772,-0.972155,-1.513144,0.013162,0.319921,-0.017339,0.190486,0.826102,0.530350,0.746404,-0.783530,-0.197388,13.797216,-13.471540,18.358028,,,,,,
1466441165.82,2.798899,-0.972385,-1.512938,0.018262,0.138356,-0.018324,0.189293,0.826232,0.530574,0.803489,-0.785903,-0.283046,13.835832,-13.457489,18.339262,,,,,,
1466441165.83,2.799755,-0.972622,-1.512780,0.021366,0.071452,-0.014708,0.188773,0.826365,0.530552,0.782723,-0.779795,-0.245121,13.835832,-13.457489,18.339262,,,,,,
1466441165.84,2.800784,-0.972834,-1.512823,0.020336,0.119199,-0.002235,0.188169,0.826485,0.530581,0.750506,-0.766075,-0.211031,13.835832,-13.457489,18.339262,,,,,,
1466441165.85,2.801841,-0.972963,-1.513032,0.014992,0.120234,0.008397,0.187573,0.826557,0.530679,0.754322,-0.759083,-0.221200,13.717944,-13.436300,18.443064,,,,,,
1466441165.86,2.802505,-0.973027,-1.513394,0.011750,0.095791,0.017063,0.187202,0.826593,0.530753,0.758965,-0.762995,-0.231940,13.717944,-13.436300,18.443064,,,,,,
1466441165.87,2.803406,-0.973030,-1.513695,0.005405,0.126592,0.014735,0.186723,0.826595,0.530919,0.756941,-0.775356,-0.222982,13.717944,-13.436300,18.443064,,,,,,
1466441165.88,2.805040,-0.973018,-1.513878,0.000183,0.197753,0.007896,0.185858,0.826588,0.531233,0.754922,-0.788594,-0.201170,13.674265,-13.434236,18.476974,,,,,,
1466441165.89,2.807438,-0.972989,-1.513924,-0.000809,0.248732,0.003318,0.184592,0.826572,0.531700,0.771096,-0.789844,-0.203025,13.674265,-13.434236,18.476974,,,,,,
1466441165.90,2.809631,-0.972994,-1.513972,0.001289,0.220068,0.001371,0.183424,0.826574,0.532100,0.762987,-0.784445,-0.216365,13.674265,-13.434236,18.476974,,,,,,
1466441165.91,2.812275,-0.972966,-1.513866,-0.006092,0.265750,-0.006374,0.182024,0.826559,0.532604,0.773725,-0.783438,-0.217938,13.529100,-13.437162,18.581411,,,,,,
1466441165.92,2.815238,-0.972958,-1.513690,-0.001811,0.278498,-0.009643,0.180447,0.826554,0.533148,0.768665,-0.779298,-0.205664,13.529100,-13.437162,18.581411,,,,,,
1466441165.93,2.818041,-0.972995,-1.513572,0.002426,0.265745,-0.006366,0.178942,0.826575,0.533623,0.772458,-0.784202,-0.196480,13.529100,-13.437162,18.581411,,,,,,
1466441165.94,2.820671,-0.973028,-1.513503,0.001344,0.255122,-0.004171,0.177530,0.826594,0.534066,0.775030,-0.782923,-0.208367,13.430904,-13.436870,18.652723,,,,,,
1466441165.95,2.822927,-0.973076,-1.513438,0.004477,0.205219,-0.004919,0.176312,0.826621,0.534427,0.787753,-0.779914,-0.218173,13.430904,-13.436870,18.652723,,,,,,
1466441165.96,2.824673,-0.973192,-1.513398,0.011883,0.163811,-0.006781,0.175349,0.826686,0.534643,0.786138,-0.779002,-0.201635,13.430904,-13.436870,18.652723,,,,,,
1466441165.97,2.826352,-0.973313,-1.513361,0.009758,0.169118,-0.005752,0.174420,0.826754,0.534842,0.772998,-0.776064,-0.202185,13.261947,-13.430624,18.777699,,,,,,
1466441165.98,2.827992,-0.973386,-1.513366,0.006537,0.156363,-0.000353,0.173524,0.826795,0.535069,0.774932,-0.774122,-0.205815,13.261947,-13.430624,18.777699,,,,,,
1466441165.99,2.829284,-0.973478,-1.513425,0.010761,0.129813,0.000882,0.172809,0.826847,0.535221,0.774380,-0.778308,-0.200672,13.261947,-13.430624,18.777699,,,,,,
1466441166.00,2.830527,-0.973572,-1.513466,0.009700,0.129819,-0.001248,0.172120,0.826900,0.535361,0.774444,-0.781688,-0.192969,13.201079,-13.426235,18.823669,,,,,,
1466441166.01,2.832071,-0.973655,-1.513388,0.005488,0.153205,-0.009914,0.171273,0.826946,0.535561,0.776313,-0.786510,-0.194008,13.201079,-13.426235,18.823669,,,,,,
1466441166.02,2.739291,-0.934694,-1.590570,0.004405,0.192279,-0.005861,0.232598,0.804417,0.546636,0.704200,-0.762501,-0.198903,13.201079,-13.426235,18.823669,,,,,,
1466441166.04,2.602240,-0.859190,-1.700793,0.001110,0.200412,-0.000518,0.335394,0.757314,0.560345,0.597101,-0.707357,-0.208004,12.902631,-14.530127,18.200558,,,,,,
1466441166.03,2.664590,-0.896120,-1.651298,0.006465,0.185714,-0.001522,0.286786,0.780909,0.554918,0.639697,-0.731608,-0.197634,12.902631,-14.530127,18.200558,,,,,,
1466441166.05,2.550611,-0.823745,-1.740995,0.001080,0.225719,0.007873,0.378590,0.733695,0.564235,0.552929,-0.685233,-0.206371,12.902631,-14.530127,18.200558,,,,,,
1466441166.06,2.508856,-0.790475,-1.772916,0.000004,0.255305,0.011975,0.416022,0.710688,0.567317,0.483606,-0.651255,-0.198451,12.320216,-16.370358,17.002541,,,,,,
1466441166.07,2.470270,-0.759720,-1.801874,-0.006467,0.237090,0.023825,0.450984,0.688719,0.567697,0.509527,-0.639234,-0.221491,12.320216,-16.370358,17.002541,,,,,,
1466441166.08,2.436203,-0.730660,-1.826073,0.006138,0.128655,0.025613,0.482834,0.667361,0.567010,0.446640,-0.610476,-0.215631,12.320216,-16.370358,17.002541,,,,,,
1466441166.09,2.405951,-0.703052,-1.847025,-0.002314,0.165777,-0.000145,0.511936,0.646549,0.565594,0.441922,-0.603092,-0.216793,10.963139,-18.932594,15.173307,,,,,,
1466441166.10,2.381686,-0.676426,-1.864046,-0.003306,0.243196,-0.003797,0.537179,0.626010,0.565288,0.427390,-0.594760,-0.192043,10.963139,-18.932594,15.173307,,,,,,
1466441166.11,2.383832,-0.676364,-1.864196,0.006233,0.238891,0.015400,0.535991,0.625961,0.566468,0.346989,-0.576370,-0.158051,10.963139,-18.932594,15.173307,,,,,,
1466441166.12,2.386624,-0.676292,-1.864292,-0.005422,0.296214,0.022480,0.534438,0.625906,0.567995,0.407456,-0.596334,-0.194704,10.285195,-19.857210,14.448833,,,,,,
1466441166.13,2.387284,-0.676063,-1.864687,0.011214,0.012643,0.046628,0.534161,0.625727,0.568452,0.388095,-0.555186,-0.224885,10.285195,-19.857210,14.448833,,,,,,
1466441166.14,2.389668,-0.676318,-1.864536,-0.003022,0.367603,-0.068444,0.532696,0.625926,0.569607,0.402897,-0.603312,-0.188183,10.285195,-19.857210,14.448833,,,,,,
1466441166.15,2.394347,-0.676349,-1.864037,-0.010742,0.268663,0.003487,0.530012,0.625950,0.572079,0.531161,-0.629169,-0.240322,10.158060,-19.858147,14.537213,,,,,,
1466441166.16,2.392824,-0.675936,-1.865506,0.058949,0.004955,0.130816,0.531058,0.625628,0.571461,0.062311,-0.490801,-0.031086,10.158060,-19.858147,14.537213,,,,,,
1466441166.17,2.402884,-0.676386,-1.864200,-0.083615,1.283251,-0.195614,0.525092,0.625979,0.576566,0.571831,-0.620165,-0.202024,10.158060,-19.858147,14.537213,,,,,,
1466441166.18,2.403435,-0.675890,-1.864405,0.049475,-0.740455,0.146125,0.524984,0.625592,0.577085,0.579875,-0.537182,-0.427610,10.087106,-19.862944,14.580008,,,,,,
1466441166.19,2.405021,-0.676459,-1.865637,0.042895,1.270203,-0.107057,0.523829,0.626035,0.577653,-0.236170,-0.515073,0.339247,10.087106,-19.862944,14.580008,,,,,,
1466441166.20,2.422389,-0.675978,-1.862998,-0.155931,0.768915,-0.025342,0.513915,0.625661,0.586890,1.236344,-0.748799,-0.661551,10.087106,-19.862944,14.580008,,,,,,
1466441166.21,2.417808,-0.676342,-1.865164,0.184535,0.010119,0.160713,0.516448,0.625945,0.584358,-0.410872,-0.496382,0.151283,9.704788,-19.867100,14.831664,,,,,,
1466441166.22,2.433461,-0.675823,-1.864327,-0.197401,1.707490,-0.002529,0.507449,0.625539,0.592617,0.699734,-0.674627,-0.169415,9.704788,-19.867100,14.831664,,,,,,
1466441166.23,2.437994,-0.675938,-1.863830,0.073201,0.092429,-0.019806,0.504711,0.625629,0.594857,0.423542,-0.602482,-0.463067,9.704788,-19.867100,14.831664,,,,,,
1466441166.24,2.442149,-0.675950,-1.864776,-0.018881,0.668797,0.062708,0.502231,0.625639,0.596943,0.274991,-0.566633,0.001919,9.509913,-19.867252,14.957158,,,,,,
1466441166.25,2.451560,-0.675464,-1.864256,-0.048156,0.929243,-0.044336,0.496784,0.625260,0.601877,0.468853,-0.586792,-0.234461,9.509913,-19.867252,14.957158,,,,,,
1466441166.26,2.452716,-0.675717,-1.863954,0.026044,-0.180384,-0.035173,0.495987,0.625457,0.602329,0.637421,-0.580398,-0.393360,9.509913,-19.867252,14.957158,,,,,,
1466441166.27,2.455041,-0.675839,-1.863923,-0.007244,0.494851,-0.007508,0.494538,0.625552,0.603421,0.276382,-0.597048,-0.042035,9.226826,-19.869833,15.130042,,,,,,
1466441166.28,2.461708,-0.675582,-1.863665,-0.025257,0.588258,0.006791,0.490604,0.625352,0.606830,0.387722,-0.570603,-0.107837,9.226826,-19.869833,15.130042,,,,,,
1466441166.29,2.465234,-0.675505,-1.863799,0.003131,0.313217,0.015995,0.488492,0.625291,0.608594,0.381702,-0.568147,-0.174115,9.226826,-19.869833,15.130042,,,,,,
1466441166.30,2.468863,-0.675291,-1.863880,-0.020206,0.386487,0.017641,0.486363,0.625124,0.610467,0.414394,-0.551729,-0.208948,9.094970,-19.872759,15.205845,,,,,,
1466441166.31,2.472352,-0.675172,-1.863973,0.005292,0.330219,0.010568,0.484276,0.625032,0.612219,0.415687,-0.573060,-0.150808,9.094970,-19.872759,15.205845,,,,,,
1466441166.32,2.475879,-0.675259,-1.864074,0.006452,0.380167,-0.005711,0.482081,0.625099,0.613880,0.405020,-0.611153,-0.124744,9.094970,-19.872759,15.205845,,,,,,
1466441166.34,2.481566,-0.675759,-1.863906,0.026487,0.199695,-0.020526,0.478390,0.625489,0.616365,0.435260,-0.587892,-0.173692,8.865684,-19.877634,15.334341,,,,,,
1466441166.33,2.479361,-0.675431,-1.863959,0.011724,0.312256,-0.022311,0.479874,0.625234,0.615470,0.454452,-0.594457,-0.184501,8.865684,-19.877634,15.334341,,,,,,
1466441166.35,2.484243,-0.676085,-1.863856,0.021288,0.295265,-0.023259,0.476614,0.625744,0.617482,0.386057,-0.585964,-0.126607,8.865684,-19.877634,15.334341,,,,,,
1466441166.36,2.487492,-0.676358,-1.863815,0.020238,0.315425,-0.018064,0.474501,0.625957,0.618892,0.390459,-0.570369,-0.141398,8.788083,-19.869200,15.389843,,,,,,
1466441166.37,2.489982,-0.676615,-1.863877,0.025451,0.241073,-0.009077,0.472861,0.626157,0.619943,0.393564,-0.575269,-0.159311,8.788083,-19.869200,15.389843,,,,,,
1466441166.38,2.492869,-0.676860,-1.863948,0.021293,0.319652,-0.010639,0.470976,0.626349,0.621183,0.380205,-0.582754,-0.134962,8.788083,-19.869200,15.389843,,,,,,
1466441166.40,2.500330,-0.677219,-1.863941,0.013902,0.370619,-0.009901,0.466194,0.626628,0.624500,0.388817,-0.581706,-0.147342,8.625887,-19.849775,15.506235,,,,,,
1466441166.39,2.496608,-0.677053,-1.863940,0.012850,0.378058,-0.012078,0.468578,0.626498,0.622844,0.389133,-0.582675,-0.132411,8.625887,-19.849775,15.506235,,,,,,
1466441166.41,2.504252,-0.677339,-1.863954,0.009676,0.403525,-0.005854,0.463697,0.626721,0.626263,0.384112,-0.575559,-0.145047,8.625887,-19.849775,15.506235,,,,,,
1466441166.42,2.508561,-0.677437,-1.863959,0.006523,0.438563,-0.005012,0.460958,0.626798,0.628206,0.386820,-0.578519,-0.132555,8.514365,-19.843485,15.575766,,,,,,
1466441166.43,2.512907,-0.677553,-1.863955,0.009712,0.429014,-0.008143,0.458180,0.626888,0.630145,0.398128,-0.582683,-0.141497,8.514365,-19.843485,15.575766,,,,,,
1466441166.44,2.517087,-0.677700,-1.863930,0.010762,0.412034,-0.011228,0.455489,0.627003,0.631979,0.404573,-0.587452,-0.145499,8.514365,-19.843485,15.575766,,,,,,
1466441166.45,2.521156,-0.677879,-1.863869,0.013950,0.400364,-0.015410,0.452848,0.627143,0.633736,0.406711,-0.590232,-0.137795,8.258007,-19.835058,15.723823,,,,,,
1466441166.46,2.524955,-0.678150,-1.863866,0.022433,0.372753,-0.015228,0.450339,0.627353,0.635313,0.403970,-0.590213,-0.135405,8.258007,-19.835058,15.723823,,,,,,
1466441166.47,2.528586,-0.678443,-1.863868,0.024552,0.361078,-0.017282,0.447923,0.627581,0.636794,0.403639,-0.592700,-0.132857,8.140627,-19.827265,15.794698,,,,,,
1466441166.48,2.532248,-0.678759,-1.863898,0.027758,0.371692,-0.016281,0.445475,0.627828,0.638267,0.391607,-0.580434,-0.132942,8.140627,-19.827265,15.794698,,,,,,
1466441166.49,2.536230,-0.679069,-1.863926,0.027805,0.410975,-0.015463,0.442819,0.628069,0.639876,0.382560,-0.583910,-0.125425,8.140627,-19.827265,15.794698,,,,,,
1466441166.50,2.540614,-0.679379,-1.863956,0.026787,0.448139,-0.015697,0.439899,0.628310,0.641650,0.383038,-0.578917,-0.126300,8.140627,-19.827265,15.794698,,,,,,
1466441166.51,2.545354,-0.679625,-1.863933,0.017247,0.482121,-0.015919,0.436766,0.628501,0.643601,0.380587,-0.584373,-0.126648,7.904054,-19.805454,15.941540,,,,,,
1466441166.52,2.550365,-0.679810,-1.863903,0.013003,0.501224,-0.011786,0.433470,0.628646,0.645684,0.386613,-0.578704,-0.132226,7.904054,-19.805454,15.941540,,,,,,
1466441166.53,2.555387,-0.679950,-1.863898,0.010868,0.503337,-0.007543,0.430174,0.628754,0.647780,0.385027,-0.579529,-0.131743,7.904054,-19.805454,15.941540,,,,,,
1466441166.54,2.560526,-0.680092,-1.863926,0.013010,0.518193,-0.004441,0.426790,0.628864,0.649907,0.384397,-0.580967,-0.126729,7.754191,-19.797949,16.024250,,,,,,
1466441166.55,2.565654,-0.680216,-1.863962,0.011938,0.513943,-0.003351,0.423409,0.628961,0.652022,0.392249,-0.579400,-0.127821,7.754191,-19.797949,16.024250,,,,,,
1466441166.56,2.570873,-0.680294,-1.864015,0.007690,0.527740,-0.000248,0.419975,0.629021,0.654181,0.386986,-0.582970,-0.125220,7.754191,-19.797949,16.024250,,,,,,
1466441166.57,2.576172,-0.680343,-1.864075,0.007697,0.535170,0.000770,0.416486,0.629059,0.656372,0.388095,-0.584122,-0.129883,7.426543,-19.789211,16.189392,,,,,,
1466441166.58,2.581651,-0.680427,-1.864117,0.007229,0.551484,-0.002283,0.412855,0.629125,0.658599,0.390123,-0.589452,-0.117889,7.426543,-19.789211,16.189392,,,,,,
1466441166.59,2.586861,-0.680494,-1.864139,0.007178,0.511135,-0.002030,0.409396,0.629177,0.660705,0.392881,-0.583813,-0.130309,7.426543,-19.789211,16.189392,,,,,,
1466441166.60,2.591836,-0.680572,-1.864179,0.007160,0.500511,0.000166,0.406078,0.629237,0.662692,0.392201,-0.583370,-0.122333,7.250652,-19.786671,16.272015,,,,,,
1466441166.61,2.596898,-0.680620,-1.864243,0.006106,0.512186,0.002221,0.402703,0.629275,0.664714,0.388252,-0.581072,-0.123973,7.250652,-19.786671,16.272015,,,,,,
1466441166.62,2.601951,-0.680603,-1.864311,0.000771,0.510053,0.006486,0.399344,0.629262,0.666749,0.381357,-0.575032,-0.120790,7.250652,-19.786671,16.272015,,,,,,
1466441166.63,2.607140,-0.680565,-1.864426,0.000790,0.530218,0.009553,0.395891,0.629232,0.668832,0.389540,-0.582723,-0.124979,6.916078,-19.783186,16.421211,,,,,,
1466441166.64,2.612429,-0.680465,-1.864516,-0.007733,0.531276,0.012732,0.392380,0.629155,0.670971,0.390838,-0.582432,-0.125332,6.916078,-19.783186,16.421211,,,,,,
1466441166.65,2.617597,-0.680360,-1.864604,-0.005609,0.522786,0.010658,0.388940,0.629073,0.673047,0.381232,-0.583358,-0.113233,6.916078,-19.783186,16.421211,,,,,,
1466441166.66,2.603252,-0.659918,-1.876951,-0.005622,0.545000,0.014822,0.405065,0.613052,0.678300,0.378596,-0.571822,-0.121369,6.737425,-19.785213,16.492880,,,,,,
1466441166.67,2.591543,-0.642359,-1.887283,-0.003567,0.508830,0.016156,0.418542,0.599086,0.682582,0.363136,-0.557994,-0.131817,6.737425,-19.785213,16.492880,,,,,,
1466441166.68,2.578878,-0.623569,-1.897782,-0.005747,0.489653,0.015252,0.433082,0.583936,0.686628,0.341210,-0.537641,-0.134504,6.737425,-19.785213,16.492880,,,,,,
1466441166.69,2.567784,-0.605173,-1.906998,-0.008988,0.473667,0.014326,0.446429,0.568905,0.690687,0.313886,-0.526241,-0.130323,5.897239,-20.676542,15.702415,,,,,,
1466441166.70,2.554921,-0.585341,-1.916908,-0.002654,0.459780,0.017658,0.461432,0.552483,0.694149,0.313379,-0.510568,-0.135082,5.897239,-20.676542,15.702415,,,,,,
1466441166.71,2.542830,-0.566621,-1.925906,-0.003814,0.406621,0.018034,0.475538,0.536784,0.696941,0.291964,-0.493556,-0.143550,5.897239,-20.676542,15.702415,,,,,,
1466441166.72,2.529686,-0.546186,-1.935025,-0.002793,0.394870,0.017091,0.490856,0.519432,0.699465,0.277073,-0.476097,-0.137026,5.386667,-21.231230,15.135438,,,,,,
1466441166.73,2.518303,-0.527065,-1.942996,-0.004945,0.399053,0.016042,0.504493,0.502999,0.701769,0.261560,-0.464394,-0.137712,5.386667,-21.231230,15.135438,,,,,,
1466441166.74,2.508291,-0.509686,-1.949935,-0.001817,0.371376,0.018388,0.516589,0.487903,0.703624,0.236768,-0.446445,-0.144450,5.386667,-21.231230,15.135438,,,,,,
1466441166.75,2.499543,-0.492904,-1.955971,-0.007178,0.358586,0.016373,0.527554,0.473186,0.705536,0.210300,-0.432384,-0.141114,4.370462,-22.223848,13.995088,,,,,,
1466441166.76,2.490634,-0.476613,-1.961957,-0.000808,0.371254,0.020596,0.538419,0.458772,0.706847,0.216754,-0.416246,-0.140823,4.370462,-22.223848,13.995088,,,,,,
1466441166.77,2.482091,-0.461649,-1.967522,-0.003011,0.332970,0.021934,0.548583,0.445425,0.707569,0.206849,-0.404302,-0.152667,4.370462,-22.223848,13.995088,,,,,,
1466441166.78,2.473913,-0.447202,-1.972618,0.005440,0.295751,0.021146,0.558277,0.432444,0.708038,0.188763,-0.384700,-0.147293,3.900599,-22.617731,13.493934,,,,,,
1466441166.79,2.465044,-0.433297,-1.977798,0.002193,0.274453,0.023440,0.568245,0.419865,0.707680,0.186562,-0.377522,-0.165077,3.900599,-22.617731,13.493934,,,,,,
1466441166.80,2.457477,-0.419200,-1.982044,0.001030,0.217061,0.025962,0.577267,0.407030,0.707877,0.164463,-0.375399,-0.141745,3.900599,-22.617731,13.493934,,,,,,
1466441166.81,2.450080,-0.405675,-1.986152,0.010626,0.241435,0.023722,0.585945,0.394639,0.707763,0.170464,-0.365952,-0.137039,3.078799,-23.234152,12.631626,,,,,,
1466441166.82,2.442406,-0.393822,-1.990211,0.005250,0.211662,0.021805,0.594328,0.383721,0.706776,0.163027,-0.340279,-0.160420,3.078799,-23.234152,12.631626,,,,,,
1466441166.83,2.434900,-0.382511,-1.993893,0.015805,0.148970,0.020109,0.602395,0.373251,0.705552,0.145423,-0.329810,-0.155777,3.078799,-23.234152,12.631626,,,,,,
1466441166.84,2.428120,-0.371388,-1.997126,0.008323,0.142557,0.021235,0.609845,0.362909,0.704547,0.127795,-0.327020,-0.152423,2.713058,-23.481438,12.252520,,,,,,
1466441166.85,2.421330,-0.360830,-2.000283,0.012543,0.131883,0.025591,0.617108,0.353051,0.703231,0.130375,-0.318307,-0.153746,2.713058,-23.481438,12.252520,,,,,,
1466441166.86,2.413376,-0.351189,-2.003628,0.005007,0.078748,0.025943,0.624918,0.344015,0.700807,0.141012,-0.302313,-0.173250,2.713058,-23.481438,12.252520,,,,,,
1466441166.87,2.405721,-0.341754,-2.006524,0.013397,-0.007309,0.028645,0.632415,0.335140,0.698378,0.118531,-0.297817,-0.161986,2.116914,-23.858818,11.624896,,,,,,
1466441166.88,2.398491,-0.332800,-2.009176,0.013378,-0.007353,0.030798,0.639452,0.326690,0.695970,0.116727,-0.287506,-0.150316,2.116914,-23.858818,11.624896,,,,,,
1466441166.89,2.390879,-0.324204,-2.011839,0.021835,-0.050919,0.026845,0.646623,0.318554,0.693110,0.128188,-0.284436,-0.151683,2.116914,-23.858818,11.624896,,,,,,
1466441166.90,2.382552,-0.316291,-2.014518,0.029213,-0.107226,0.022971,0.654087,0.311044,0.689509,0.126980,-0.273736,-0.159205,1.878451,-24.007580,11.356509,,,,,,
1466441166.91,2.374785,-0.308584,-2.016785,0.027041,-0.142279,0.015759,0.661066,0.303709,0.686114,0.103353,-0.270750,-0.152682,1.878451,-24.007580,11.356509,,,,,,
1466441166.92,2.367461,-0.301230,-2.018870,0.029153,-0.142317,0.017911,0.667616,0.296695,0.682832,0.090043,-0.264301,-0.150285,1.878451,-24.007580,11.356509,,,,,,
1466441166.93,2.360113,-0.294288,-2.020889,0.020601,-0.152975,0.022247,0.674051,0.290058,0.679354,0.083838,-0.253849,-0.157809,1.504970,-24.240211,10.909172,,,,,,
1466441166.94,2.353162,-0.287716,-2.022747,0.021638,-0.160446,0.025507,0.680094,0.283763,0.675981,0.065908,-0.244258,-0.155931,1.504970,-24.240211,10.909172,,,,,,
1466441166.95,2.346649,-0.281332,-2.024480,0.011010,-0.129689,0.029580,0.685762,0.277635,0.672793,0.068419,-0.237154,-0.151995,1.504970,-24.240211,10.909172,,,,,,
1466441166.96,2.340390,-0.275166,-2.026161,0.013132,-0.118052,0.034849,0.691175,0.271707,0.669666,0.067980,-0.230416,-0.148242,1.352327,-24.333086,10.720766,,,,,,
1466441166.97,2.333812,-0.269261,-2.027939,0.006738,-0.115954,0.033782,0.696713,0.266019,0.666202,0.083576,-0.224881,-0.157932,1.352327,-24.333086,10.720766,,,,,,
1466441166.98,2.327522,-0.263384,-2.029520,0.009884,-0.142533,0.036098,0.702014,0.260349,0.662869,0.063565,-0.225010,-0.153134,1.352327,-24.333086,10.720766,,,,,,
1466441166.99,2.321712,-0.257717,-2.031019,0.004618,-0.090526,0.034718,0.706921,0.254873,0.659775,0.072071,-0.219061,-0.146515,1.066174,-24.489035,10.392936,,,,,,
1466441167.00,2.315516,-0.252258,-2.032579,0.002448,-0.112855,0.035937,0.712008,0.249591,0.656315,0.082060,-0.214068,-0.157490,1.066174,-24.489035,10.392936,,,,,,
1466441167.01,2.308898,-0.246938,-2.034121,0.005565,-0.163858,0.038405,0.717308,0.244436,0.652473,0.073037,-0.212621,-0.161521,1.066174,-24.489035,10.392936,,,,,,
1466441167.02,2.302531,-0.241791,-2.035538,0.005546,-0.169197,0.039518,0.722374,0.239441,0.648725,0.068184,-0.207337,-0.153485,0.933069,-24.555202,10.248619,,,,,,
1466441167.03,2.300776,-0.241490,-2.035819,-0.001909,-0.171317,0.039524,0.723564,0.239150,0.647505,0.083534,-0.202086,-0.160017,0.933069,-24.555202,10.248619,,,,,,
1466441167.04,2.298596,-0.241196,-2.036128,0.004411,-0.220171,0.043030,0.725027,0.238864,0.645972,0.075495,-0.205692,-0.172034,0.933069,-24.555202,10.248619,,,,,,
1466441167.05,2.296139,-0.240858,-2.036439,0.000114,-0.245661,0.046379,0.726672,0.238536,0.644242,0.087995,-0.204876,-0.166779,0.838173,-24.614172,10.114481,,,,,,
1466441167.06,2.293296,-0.240538,-2.036790,0.004328,-0.281765,0.046610,0.728558,0.238225,0.642224,0.093280,-0.205846,-0.163266,0.838173,-24.614172,10.114481,,,,,,
1466441167.07,2.290194,-0.240224,-2.037134,0.003223,-0.313618,0.046808,0.730603,0.237920,0.640010,0.094150,-0.203038,-0.172756,0.838173,-24.614172,10.114481,,,,,,
1466441167.08,2.286893,-0.239920,-2.037509,0.006421,-0.310434,0.046792,0.732766,0.237625,0.637643,0.084083,-0.209594,-0.159738,0.867567,-24.614504,10.111195,,,,,,
1466441167.09,2.283918,-0.239596,-2.037792,-0.002070,-0.299795,0.040330,0.734718,0.237310,0.635510,0.112984,-0.204580,-0.163571,0.867567,-24.614504,10.111195,,,,,,
1466441167.10,2.280334,-0.239328,-2.038087,0.004248,-0.357132,0.039631,0.737039,0.237050,0.632914,0.098593,-0.205571,-0.188487,0.867567,-24.614504,10.111195,,,,,,
1466441167.11,2.276505,-0.238979,-2.038365,-0.004319,-0.384755,0.047247,0.739520,0.236711,0.630141,0.101514,-0.207948,-0.188582,0.952624,-24.614508,10.103527,,,,,,
1466441167.12,2.272324,-0.238537,-2.038692,-0.004376,-0.416633,0.055963,0.742228,0.236281,0.627111,0.103994,-0.204345,-0.187811,0.952624,-24.614508,10.103527,,,,,,
