timestamp,attitude_roll,attitude_pitch,attitude_yaw,rotation_rate_x,rotation_rate_y,rotation_rate_z,gravity_x,gravity_y,gravity_z,user_acc_x,user_acc_y,user_acc_z,magnetic_field_x,magnetic_field_y,magnetic_field_z,latitude(degree),longitude(degree),altitude(meter),speed(m/s),course(degree),timestamp
1465825506.41,-0.264567,0.007639,-0.490217,-0.007978,0.163625,-0.007119,-0.261484,-0.007639,-0.965178,-0.054846,-0.004874,-0.038225,16.406963,-2.895919,-36.235329,,,,,,
1465825506.42,-0.262425,0.007621,-0.490325,-0.004572,0.326087,-0.012392,-0.259415,-0.007621,-0.965736,-0.029708,-0.000924,0.011711,16.406963,-2.895919,-36.235329,,,,,,
1465825506.43,-0.257255,0.007558,-0.490483,-0.012784,0.569244,-0.013926,-0.254420,-0.007557,-0.967064,-0.029180,-0.002407,0.014290,16.406963,-2.895919,-36.235329,,,,,,
1465825506.44,-0.250844,0.007477,-0.490658,-0.011616,0.652064,-0.014444,-0.248214,-0.007477,-0.968676,-0.011841,-0.000106,-0.002836,16.546722,-2.889823,-36.172207,,,,,,
1465825506.45,-0.244522,0.007394,-0.490826,-0.012724,0.617025,-0.014225,-0.242086,-0.007394,-0.970227,0.009329,-0.000220,0.002056,16.546722,-2.889823,-36.172207,,,,,,
1465825506.46,-0.238686,0.007287,-0.490977,-0.011788,0.518274,-0.011476,-0.236420,-0.007287,-0.971624,0.025192,0.001153,0.001607,16.546722,-2.889823,-36.172207,,,,,,
1465825506.47,-0.234436,0.007214,-0.491090,-0.009820,0.392974,-0.008559,-0.232288,-0.007214,-0.972620,0.026340,-0.003986,0.001444,16.546722,-2.889823,-36.172207,,,,,,
,,,,,,,,,,,,,,,,29.719984,-95.399046,10.137723,-1.000000,-1.000000,1465825416.83
1465825506.48,-0.231381,0.007126,-0.491171,-0.009967,0.280414,-0.004660,-0.229316,-0.007126,-0.973326,0.024421,-0.001786,0.003279,17.402082,-2.863063,-35.770718,,,,,,
1465825506.49,-0.229091,0.007059,-0.491232,-0.007921,0.215640,-0.003187,-0.227087,-0.007058,-0.973849,0.026571,0.001581,0.012515,17.402082,-2.863063,-35.770718,,,,,,
1465825506.50,-0.226617,0.006908,-0.491277,-0.003721,0.168923,-0.002890,-0.224677,-0.006908,-0.974409,0.037650,0.005534,0.023237,17.402082,-2.863063,-35.770718,,,,,,
1465825506.51,-0.225830,0.006892,-0.491283,-0.000693,0.041496,0.001105,-0.223910,-0.006891,-0.974585,0.031100,0.005961,0.004584,17.833044,-2.843816,-35.559372,,,,,,
1465825506.52,-0.226631,0.006895,-0.491263,0.001235,-0.117778,0.003171,-0.224691,-0.006895,-0.974406,0.022557,0.003446,-0.006948,17.833044,-2.843816,-35.559372,,,,,,
1465825506.53,-0.228489,0.006920,-0.491204,0.004323,-0.198483,0.005809,-0.226501,-0.006920,-0.973986,0.018050,0.002922,0.002551,17.833044,-2.843816,-35.559372,,,,,,
1465825506.54,-0.230287,0.006989,-0.491127,0.005386,-0.198485,0.006874,-0.228252,-0.006989,-0.973577,0.015346,-0.001693,0.012930,17.832493,-2.843775,-35.559654,,,,,,
1465825506.55,-0.232294,0.007015,-0.491050,0.004313,-0.204855,0.006913,-0.230205,-0.007015,-0.973117,0.016658,-0.001316,0.008471,17.832493,-2.843775,-35.559654,,,,,,
1465825506.56,-0.234721,0.007053,-0.490957,0.006374,-0.257949,0.008313,-0.232566,-0.007053,-0.972555,0.020682,0.000278,0.002767,17.832493,-2.843775,-35.559654,,,,,,
,,,,,,,,,,,,,,,,29.719986,-95.399048,10.137723,-1.000000,-1.000000,1465825506.57
,,,,,,,,,,,,,,,,29.719984,-95.399046,10.137723,-1.000000,-1.000000,1465825416.83
1465825506.57,-0.237928,0.007107,-0.490843,0.008396,-0.341836,0.009905,-0.235684,-0.007107,-0.971804,0.020123,0.001080,0.002123,17.543568,-2.856402,-35.702072,,,,,,
,,,,,,,,,,,,,,,,29.719987,-95.399050,10.137723,-1.000000,-1.000000,1465825506.58
1465825506.58,-0.241757,0.007142,-0.490712,0.009360,-0.420411,0.011463,-0.239403,-0.007142,-0.970894,0.012368,0.001466,0.002007,17.543568,-2.856402,-35.702072,,,,,,
1465825506.59,-0.246319,0.007215,-0.490573,0.010372,-0.462884,0.011731,-0.243830,-0.007214,-0.969791,0.005670,0.001309,-0.002545,17.291361,-2.865333,-35.824188,,,,,,
1465825506.60,-0.250913,0.007291,-0.490433,0.011449,-0.453328,0.011672,-0.248282,-0.007291,-0.968660,-0.000025,-0.000338,0.003817,17.291361,-2.865333,-35.824188,,,,,,
1465825506.61,-0.255151,0.007348,-0.490300,0.008303,-0.415102,0.011429,-0.252384,-0.007348,-0.967599,-0.002987,0.000604,0.004419,17.291361,-2.865333,-35.824188,,,,,,
1465825506.62,-0.259180,0.007368,-0.490165,0.009396,-0.390684,0.012342,-0.256281,-0.007367,-0.966574,-0.000586,0.002271,0.002448,16.962063,-2.876986,-35.980343,,,,,,
1465825506.63,-0.263039,0.007416,-0.490037,0.009401,-0.389617,0.010206,-0.260009,-0.007416,-0.965578,0.003845,0.000733,0.002763,16.962063,-2.876986,-35.980343,,,,,,
1465825506.64,-0.267051,0.007466,-0.489906,0.010441,-0.407671,0.011385,-0.263881,-0.007466,-0.964526,0.002620,0.000874,0.000324,16.962063,-2.876986,-35.980343,,,,,,
1465825506.65,-0.271321,0.007529,-0.489764,0.009346,-0.429971,0.012588,-0.267996,-0.007529,-0.963391,-0.003046,-0.001779,-0.002704,16.962063,-2.876986,-35.980343,,,,,,
1465825506.66,-0.275537,0.007592,-0.489622,0.009365,-0.415106,0.012495,-0.272056,-0.007592,-0.962251,-0.005974,-0.002662,-0.004729,16.378033,-2.895689,-36.248428,,,,,,
1465825506.67,-0.279356,0.007648,-0.489495,0.008364,-0.369439,0.009014,-0.275728,-0.007648,-0.961205,-0.007979,-0.003659,0.001626,16.378033,-2.895689,-36.248428,,,,,,
1465825506.68,-0.282818,0.007694,-0.489387,0.007358,-0.322720,0.008720,-0.279054,-0.007694,-0.960244,-0.003981,0.000263,0.000467,16.378033,-2.895689,-36.248428,,,,,,
1465825506.69,-0.285882,0.007741,-0.489284,0.007385,-0.301484,0.008587,-0.281995,-0.007741,-0.959385,-0.000826,0.002080,0.004673,15.803371,-2.915843,-36.501026,,,,,,
1465825506.70,-0.288882,0.007796,-0.489173,0.009511,-0.302549,0.009660,-0.284872,-0.007796,-0.958534,0.010397,0.004119,0.005683,15.803371,-2.915843,-36.501026,,,,,,
1465825506.71,-0.292212,0.007876,-0.489035,0.012647,-0.347150,0.011007,-0.288062,-0.007876,-0.957579,0.016135,0.002169,0.005217,15.803371,-2.915843,-36.501026,,,,,,
1465825506.72,-0.295730,0.007919,-0.488888,0.012567,-0.408735,0.012458,-0.291429,-0.007919,-0.956560,0.024294,0.002090,0.009386,15.803371,-2.915843,-36.501026,,,,,,
1465825506.73,-0.300441,0.008008,-0.488716,0.014587,-0.495856,0.015134,-0.295932,-0.008008,-0.955175,0.034168,-0.000567,0.011206,15.329691,-2.935402,-36.700920,,,,,,
1465825506.74,-0.306295,0.008106,-0.488509,0.015495,-0.619028,0.016972,-0.301518,-0.008106,-0.953426,0.039265,0.000568,0.011226,15.329691,-2.935402,-36.700920,,,,,,
1465825506.75,-0.313200,0.008202,-0.488265,0.017453,-0.750700,0.020993,-0.308094,-0.008202,-0.951321,0.039204,0.001274,0.009869,15.329691,-2.935402,-36.700920,,,,,,
1465825506.76,-0.321477,0.008319,-0.487960,0.021562,-0.862206,0.027019,-0.315957,-0.008318,-0.948737,0.047082,0.002307,0.017539,14.940333,-2.950746,-36.859913,,,,,,
1465825506.77,-0.330991,0.008465,-0.487625,0.025663,-0.987500,0.027809,-0.324969,-0.008465,-0.945687,0.052080,0.001140,0.019265,14.940333,-2.950746,-36.859913,,,,,,
,,,,,,,,,,,,,,,,29.720013,-95.399057,10.116499,-1.000000,-1.000000,1465825506.78
1465825506.78,-0.342044,0.008623,-0.487227,0.027581,-1.147848,0.034138,-0.335401,-0.008623,-0.942036,0.058622,0.001665,0.016575,14.940333,-2.950746,-36.859913,,,,,,
1465825506.80,-0.369745,0.009001,-0.486252,0.038761,-1.560915,0.044191,-0.361363,-0.009001,-0.932382,0.081898,0.001967,0.022287,13.610657,-2.999089,-37.367485,,,,,,
1465825506.79,-0.354789,0.008801,-0.486774,0.033746,-1.320934,0.038423,-0.347379,-0.008801,-0.937684,0.074551,0.001736,0.029145,13.610657,-2.999089,-37.367485,,,,,,
1465825506.81,-0.387334,0.009220,-0.485647,0.043744,-1.825318,0.050112,-0.377705,-0.009220,-0.925880,0.083241,0.002644,0.029121,13.610657,-2.999089,-37.367485,,,,,,
1465825506.82,-0.407610,0.009445,-0.484961,0.047660,-2.091845,0.056046,-0.396398,-0.009444,-0.918030,0.076391,0.001968,0.018036,12.568470,-3.035383,-37.727890,,,,,,
1465825506.83,-0.430122,0.009691,-0.484192,0.053787,-2.293602,0.061575,-0.416962,-0.009691,-0.908872,0.055649,0.000582,0.019208,12.568470,-3.035383,-37.727890,,,,,,
1465825506.84,-0.453819,0.009924,-0.483390,0.055803,-2.382797,0.063201,-0.438380,-0.009923,-0.898735,0.036326,-0.002573,0.020637,12.568470,-3.035383,-37.727890,,,,,,
1465825506.86,-0.501315,0.010301,-0.481755,0.052699,-2.307414,0.064854,-0.480554,-0.010301,-0.876905,-0.019904,-0.003371,0.005597,12.568470,-3.035383,-37.727890,,,,,,
1465825506.85,-0.477872,0.010135,-0.482575,0.055774,-2.406157,0.063347,-0.459867,-0.010135,-0.887930,0.003706,-0.001309,0.007192,12.568470,-3.035383,-37.727890,,,,,,
1465825506.87,-0.522889,0.010423,-0.480936,0.048686,-2.107799,0.065727,-0.499358,-0.010423,-0.866333,0.011138,0.002457,0.048721,7.501635,-3.189187,-39.040085,,,,,,
1465825506.88,-0.543878,0.010531,-0.480171,0.049754,-2.115214,0.059388,-0.517430,-0.010531,-0.855661,0.021046,0.006838,0.013299,7.501635,-3.189187,-39.040085,,,,,,
1465825506.89,-0.566090,0.010670,-0.479376,0.055966,-2.256437,0.060279,-0.536305,-0.010669,-0.843957,0.008122,0.001194,-0.012412,7.501635,-3.189187,-39.040085,,,,,,
1465825506.90,-0.588832,0.010772,-0.478557,0.052745,-2.272371,0.063569,-0.555358,-0.010772,-0.831542,0.023528,0.003554,0.030852,7.501635,-3.189187,-39.040085,,,,,,
1465825506.91,-0.611802,0.010835,-0.477754,0.049504,-2.311653,0.062748,-0.574310,-0.010835,-0.818566,0.013611,-0.000212,0.012627,4.054199,-3.284627,-39.539200,,,,,,
1465825506.92,-0.635384,0.010865,-0.476957,0.047319,-2.356248,0.063026,-0.593451,-0.010864,-0.804797,-0.047540,-0.005051,-0.032667,4.054199,-3.284627,-39.539200,,,,,,
1465825506.93,-0.657330,0.010885,-0.476211,0.046576,-2.107771,0.056144,-0.610969,-0.010885,-0.791579,-0.079582,-0.002375,-0.014664,4.054199,-3.284627,-39.539200,,,,,,
1465825506.95,-0.687467,0.010836,-0.475143,0.025468,-1.131926,0.036165,-0.634544,-0.010836,-0.772811,-0.111702,-0.002211,-0.006730,2.206467,-3.327998,-39.681602,,,,,,
1465825506.94,-0.674908,0.010858,-0.475614,0.033341,-1.634183,0.046774,-0.624789,-0.010858,-0.780718,-0.107267,-0.003058,-0.004758,2.206467,-3.327998,-39.681602,,,,,,
1465825506.96,-0.695866,0.010801,-0.474788,0.017433,-0.756029,0.028477,-0.641013,-0.010801,-0.767454,-0.081124,-0.004168,-0.001635,2.206467,-3.327998,-39.681602,,,,,,
1465825506.97,-0.702185,0.010812,-0.474477,0.019796,-0.574454,0.024148,-0.645850,-0.010812,-0.763388,-0.007211,-0.002372,0.020224,-0.200943,-3.380993,-39.737923,,,,,,
1465825506.98,-0.708975,0.010777,-0.474182,0.015334,-0.733729,0.027271,-0.651018,-0.010776,-0.758985,0.010409,0.000233,-0.001085,-0.200943,-3.380993,-39.737923,,,,,,
1465825506.99,-0.718256,0.010728,-0.473854,0.019280,-0.984313,0.027782,-0.658034,-0.010728,-0.752912,0.011947,0.002015,-0.036151,-0.200943,-3.380993,-39.737923,,,,,,
1465825507.00,-0.728423,0.010703,-0.473503,0.020324,-1.001302,0.027890,-0.665656,-0.010703,-0.746182,-0.010812,0.000861,-0.006625,-0.723179,-3.395571,-39.730602,,,,,,
1465825507.01,-0.736906,0.010692,-0.473189,0.021665,-0.787869,0.022295,-0.671962,-0.010692,-0.740509,0.004771,0.004329,0.028900,-0.723179,-3.395571,-39.730602,,,,,,
1465825507.02,-0.743860,0.010648,-0.472928,0.014344,-0.682747,0.021628,-0.677095,-0.010648,-0.735819,-0.009993,0.003247,0.015756,-0.723179,-3.395571,-39.730602,,,,,,
1465825507.03,-0.750915,0.010628,-0.472672,0.017496,-0.717785,0.020786,-0.682269,-0.010628,-0.731024,-0.001233,0.000969,-0.009272,-2.111368,-3.423377,-39.678665,,,,,,
1465825507.04,-0.758474,0.010596,-0.472384,0.017439,-0.760263,0.023182,-0.687776,-0.010596,-0.725846,-0.004790,-0.000375,-0.006088,-2.111368,-3.423377,-39.678665,,,,,,
1465825507.05,-0.765964,0.010543,-0.472095,0.017472,-0.731598,0.024066,-0.693193,-0.010543,-0.720674,0.004320,0.002669,0.012697,-2.111368,-3.423377,-39.678665,,,,,,
1465825507.06,-0.773104,0.010513,-0.471820,0.017505,-0.709294,0.021798,-0.698321,-0.010513,-0.715707,0.005450,0.004516,0.014749,-2.692232,-3.435567,-39.642433,,,,,,
1465825507.07,-0.780238,0.010455,-0.471572,0.010048,-0.712476,0.021810,-0.703410,-0.010454,-0.710707,0.004298,0.001345,0.001540,-2.692232,-3.435567,-39.642433,,,,,,
1465825507.08,-0.787383,0.010394,-0.471301,0.016430,-0.715667,0.022901,-0.708470,-0.010394,-0.705664,0.016164,0.003695,0.011755,-2.692232,-3.435567,-39.642433,,,,,,
1465825507.09,-0.794792,0.010348,-0.471004,0.018509,-0.756017,0.023156,-0.713680,-0.010347,-0.700396,0.026378,0.001848,0.015398,-3.839636,-3.456769,-39.545944,,,,,,
1465825507.10,-0.803122,0.010303,-0.470688,0.021564,-0.863266,0.025961,-0.719489,-0.010302,-0.694427,0.032111,0.000689,0.006790,-3.839636,-3.456769,-39.545944,,,,,,
1465825507.11,-0.812678,0.010244,-0.470335,0.023536,-0.984322,0.029915,-0.726093,-0.010243,-0.687520,0.033802,-0.001033,0.002065,-3.839636,-3.456769,-39.545944,,,,,,
1465825507.12,-0.823165,0.010179,-0.469945,0.025557,-1.067149,0.032566,-0.733263,-0.010178,-0.679869,0.031115,0.001893,0.009092,-4.462988,-3.469486,-39.479336,,,,,,
1465825507.13,-0.834230,0.010114,-0.469535,0.027629,-1.114928,0.031803,-0.740742,-0.010114,-0.671714,0.029560,0.003568,0.012122,-4.462988,-3.469486,-39.479336,,,,,,
1465825507.14,-0.845646,0.010045,-0.469117,0.026518,-1.149970,0.033086,-0.748362,-0.010045,-0.663215,0.035029,0.004140,0.020484,-4.462988,-3.469486,-39.479336,,,,,,
1465825507.15,-0.857800,0.009964,-0.468652,0.029592,-1.239175,0.037906,-0.756368,-0.009964,-0.654070,0.039464,0.000366,0.017138,-6.140959,-3.501363,-39.250511,,,,,,
1465825507.16,-0.871065,0.009852,-0.468183,0.029441,-1.358100,0.039716,-0.764978,-0.009852,-0.643981,0.048578,-0.000646,0.014541,-6.140959,-3.501363,-39.250511,,,,,,
1465825507.17,-0.885840,0.009753,-0.467651,0.034566,-1.514190,0.041765,-0.774410,-0.009753,-0.632609,0.047573,0.000598,0.011729,-6.140959,-3.501363,-39.250511,,,,,,
1465825507.18,-0.901957,0.009617,-0.467093,0.034412,-1.632059,0.045697,-0.784506,-0.009617,-0.620047,0.027365,-0.002575,-0.005106,-7.138844,-3.519080,-39.079746,,,,,,
1465825507.19,-0.918249,0.009460,-0.466508,0.035488,-1.618265,0.048805,-0.794504,-0.009460,-0.607185,0.024149,0.001327,0.015647,-7.138844,-3.519080,-39.079746,,,,,,
1465825507.20,-0.934287,0.009291,-0.465930,0.037639,-1.601277,0.048701,-0.804141,-0.009291,-0.594366,0.027636,0.002913,0.024008,-7.138844,-3.519080,-39.079746,,,,,,
1465825507.21,-0.950703,0.009114,-0.465311,0.040754,-1.660746,0.051206,-0.813790,-0.009114,-0.581087,0.033791,0.003026,0.020403,-9.599135,-3.558877,-38.545620,,,,,,
1465825507.22,-0.968339,0.008915,-0.464682,0.040583,-1.795597,0.053116,-0.823913,-0.008915,-0.566647,0.021072,0.002476,-0.004139,-9.599135,-3.558877,-38.545620,,,,,,
1465825507.23,-0.986511,0.008718,-0.464041,0.041638,-1.805151,0.052112,-0.834075,-0.008718,-0.551582,0.011489,0.005270,-0.000038,-9.599135,-3.558877,-38.545620,,,,,,
1465825507.24,-1.003982,0.008519,-0.463427,0.038539,-1.730821,0.050579,-0.843585,-0.008519,-0.536928,0.020236,0.007344,0.030306,-10.909063,-3.578916,-38.193680,,,,,,
1465825507.25,-1.021314,0.008286,-0.462819,0.039617,-1.720204,0.050513,-0.852766,-0.008286,-0.522228,0.001661,0.001541,0.003139,-10.909063,-3.578916,-38.193680,,,,,,
1465825507.26,-1.038375,0.008081,-0.462222,0.040714,-1.697901,0.048245,-0.861553,-0.008081,-0.507604,-0.003377,0.002466,0.000265,-10.909063,-3.578916,-38.193680,,,,,,
1465825507.27,-1.054837,0.007874,-0.461655,0.038684,-1.622506,0.045642,-0.869793,-0.007874,-0.493355,-0.015644,-0.000275,-0.005394,-13.561394,-3.615575,-37.330818,,,,,,
1465825507.28,-1.070028,0.007674,-0.461111,0.036736,-1.481279,0.042625,-0.877188,-0.007674,-0.480085,-0.013116,-0.000536,0.009138,-13.561394,-3.615575,-37.330818,,,,,,
1465825507.29,-1.084268,0.007457,-0.460605,0.035773,-1.399520,0.042111,-0.883937,-0.007457,-0.467547,-0.002233,0.002483,0.016375,-13.561394,-3.615575,-37.330818,,,,,,
1465825507.30,-1.098371,0.007250,-0.460088,0.035750,-1.418633,0.042231,-0.890444,-0.007250,-0.455036,0.011812,0.001711,0.004047,-14.738934,-3.631155,-36.880241,,,,,,
1465825507.31,-1.113084,0.007018,-0.459578,0.035654,-1.492962,0.043762,-0.897044,-0.007018,-0.441886,0.020197,0.000640,0.004142,-14.738934,-3.631155,-36.880241,,,,,,
1465825507.32,-1.128525,0.006766,-0.459038,0.037702,-1.554553,0.046279,-0.903761,-0.006766,-0.427984,0.023726,-0.000909,0.002966,-14.738934,-3.631155,-36.880241,,,,,,
1465825507.33,-1.144315,0.006497,-0.458474,0.040852,-1.586415,0.048611,-0.910408,-0.006497,-0.413661,0.037697,0.002011,0.021724,-16.875538,-3.655749,-35.950317,,,,,,
1465825507.34,-1.160781,0.006200,-0.457884,0.041800,-1.674554,0.052358,-0.917097,-0.006199,-0.398616,0.048063,0.004384,0.029399,-16.875538,-3.655749,-35.950317,,,,,,
1465825507.35,-1.178861,0.005845,-0.457276,0.043697,-1.852949,0.057736,-0.924156,-0.005845,-0.381971,0.050972,-0.000549,0.008741,-16.875538,-3.655749,-35.950317,,,,,,
1465825507.36,-1.198476,0.005446,-0.456600,0.049900,-1.994184,0.062886,-0.931472,-0.005446,-0.363772,0.061050,0.000640,0.021105,-18.029510,-3.667534,-35.384453,,,,,,
1465825507.37,-1.219615,0.004997,-0.455899,0.050750,-2.158776,0.068177,-0.938955,-0.004997,-0.344003,0.083608,0.001045,0.028345,-18.029510,-3.667534,-35.384453,,,,,,
1465825507.38,-1.243191,0.004468,-0.455120,0.057842,-2.431689,0.079476,-0.946806,-0.004468,-0.321773,0.098295,0.003140,0.031658,-19.354244,-3.676893,-34.676613,,,,,,
1465825507.39,-1.269907,0.003861,-0.454211,0.069136,-2.753441,0.088956,-0.955066,-0.003861,-0.296368,0.130557,0.004945,0.046521,-19.354244,-3.676893,-34.676613,,,,,,
1465825507.40,-1.300955,0.003151,-0.453204,0.079163,-3.237646,0.098389,-0.963808,-0.003151,-0.266577,0.166979,0.011589,0.068793,-19.354244,-3.676893,-34.676613,,,,,,
1465825507.41,-1.337828,0.002301,-0.452080,0.090106,-3.834414,0.112788,-0.972983,-0.002301,-0.230866,0.155570,0.008710,0.035935,-22.811104,-3.692339,-32.505287,,,,,,
1465825507.42,-1.379894,0.001314,-0.450842,0.103333,-4.309073,0.125358,-0.981833,-0.001314,-0.189745,0.136099,0.013948,0.037218,-22.811104,-3.692339,-32.505287,,,,,,
1465825507.43,-1.425251,0.000183,-0.449545,0.110413,-4.592601,0.135659,-0.989427,-0.000183,-0.145032,0.114381,0.009857,0.059857,-22.811104,-3.692339,-32.505287,,,,,,
1465825507.44,-1.472726,-0.001028,-0.448281,0.110144,-4.809206,0.135952,-0.995194,0.001028,-0.097913,0.106919,0.011927,0.083265,-25.311510,-3.695631,-30.598097,,,,,,
1465825507.45,-1.522212,-0.002365,-0.447016,0.117390,-4.967431,0.141210,-0.998817,0.002365,-0.048565,0.037468,0.006805,0.031017,-25.311510,-3.695631,-30.598097,,,,,,
1465825507.46,-1.572275,-0.003747,-0.445794,0.120543,-5.000349,0.141419,-0.999992,0.003747,0.001479,0.030921,0.012763,0.054338,-25.311510,-3.695631,-30.598097,,,,,,
1465825507.47,-1.622103,-0.005159,-0.444652,0.116325,-4.974851,0.136997,-0.998671,0.005159,0.051283,0.003294,0.012282,0.057588,-25.311510,-3.695631,-30.598097,,,,,,
1465825507.48,-1.671574,-0.006632,-0.443608,0.115303,-4.938753,0.137834,-0.994904,0.006632,0.100605,-0.015884,0.001837,0.042614,-30.713566,-3.667780,-25.175346,,,,,,
1465825507.49,-1.720438,-0.008115,-0.442626,0.115402,-4.863358,0.135233,-0.988792,0.008115,0.149079,-0.049828,0.002811,0.027160,-30.713566,-3.667780,-25.175346,,,,,,
1465825507.50,-1.767444,-0.009593,-0.441781,0.106123,-4.632923,0.126327,-0.980682,0.009592,0.195373,-0.089325,-0.007319,0.008209,-30.713566,-3.667780,-25.175346,,,,,,
1465825507.51,-1.810976,-0.011006,-0.441041,0.101298,-4.245344,0.117505,-0.971236,0.011005,0.237863,-0.127610,-0.002628,0.003684,-35.031231,-3.589593,-18.721684,,,,,,
1465825507.52,-1.849825,-0.012294,-0.440452,0.089148,-3.754771,0.109094,-0.961251,0.012294,0.275402,-0.153007,-0.004924,-0.005504,-35.031231,-3.589593,-18.721684,,,,,,
1465825507.53,-1.883020,-0.013492,-0.439951,0.080303,-3.183487,0.094858,-0.951566,0.013492,0.307147,-0.149462,-0.006610,-0.001819,-35.031231,-3.589593,-18.721684,,,,,,
1465825507.54,-1.911781,-0.014521,-0.439594,0.063779,-2.790585,0.082797,-0.942326,0.014521,0.334380,-0.143169,0.000189,-0.005767,-36.461189,-3.540123,-15.767785,,,,,,
1465825507.55,-1.937113,-0.015374,-0.439304,0.055744,-2.429527,0.065622,-0.933543,0.015374,0.358136,-0.181524,-0.001183,-0.072705,-36.461189,-3.540123,-15.767785,,,,,,
1465825507.56,-1.956147,-0.016055,-0.439075,0.040716,-1.697902,0.048245,-0.926547,0.016054,0.375835,-0.212048,-0.007662,-0.069454,-36.461189,-3.540123,-15.767785,,,,,,
1465825507.57,-1.966919,-0.016490,-0.438932,0.026854,-0.883460,0.031415,-0.922439,0.016489,0.385792,-0.178117,0.003820,-0.000141,-37.939209,-3.459318,-11.799301,,,,,,
1465825507.58,-1.971559,-0.016694,-0.438859,0.013711,-0.350387,0.013156,-0.920636,0.016693,0.390066,-0.149204,0.004379,-0.017156,-37.939209,-3.459318,-11.799301,,,,,,
1465825507.59,-1.972657,-0.016796,-0.438808,0.003463,-0.040321,0.005879,-0.920205,0.016795,0.391076,-0.122443,-0.002071,-0.030068,-38.118324,-3.445114,-11.211520,,,,,,
1465825507.60,-1.971434,-0.016811,-0.438774,0.003739,0.170992,-0.000768,-0.920682,0.016810,0.389951,-0.068606,0.005742,-0.020581,-38.118324,-3.445114,-11.211520,,,,,,
1465825507.61,-1.968790,-0.016778,-0.438805,-0.006760,0.285678,-0.003627,-0.921711,0.016777,0.387515,-0.032711,-0.004005,0.004651,-38.118324,-3.445114,-11.211520,,,,,,
1465825507.62,-1.965859,-0.016750,-0.438832,-0.003569,0.286733,-0.001502,-0.922843,0.016749,0.384812,-0.001519,-0.004420,0.013351,-38.118324,-3.445114,-11.211520,,,,,,
1465825507.63,-1.963581,-0.016752,-0.438866,-0.001552,0.203899,0.003278,-0.923717,0.016751,0.382709,0.020900,-0.001431,0.013013,-38.053947,-3.444093,-11.428422,,,,,,
1465825507.64,-1.962450,-0.016802,-0.438859,0.004680,0.080724,0.005121,-0.924149,0.016801,0.381663,0.032898,-0.006471,0.012578,-38.053947,-3.444093,-11.428422,,,,,,
1465825507.65,-1.962401,-0.016921,-0.438830,0.008802,-0.016984,0.013189,-0.924165,0.016920,0.381618,0.037218,-0.002409,0.010747,-38.053947,-3.444093,-11.428422,,,,,,
1465825507.66,-1.962948,-0.017079,-0.438812,0.008735,-0.070075,0.013522,-0.923954,0.017078,0.382122,0.050099,-0.004917,0.029789,-38.014961,-3.441788,-11.558129,,,,,,
1465825507.67,-1.964716,-0.017324,-0.438786,0.012779,-0.228309,0.023034,-0.923273,0.017324,0.383753,0.085352,0.002360,0.049917,-38.014961,-3.441788,-11.558129,,,,,,
1465825507.68,-1.969388,-0.017678,-0.438729,0.020866,-0.558557,0.033629,-0.921465,0.017677,0.388060,0.114534,0.001778,0.042451,-38.014961,-3.441788,-11.558129,,,,,,
1465825507.69,-1.978313,-0.018186,-0.438625,0.033056,-1.010917,0.046058,-0.917956,0.018185,0.396265,0.133029,0.002811,0.030157,-38.096863,-3.418155,-11.292429,,,,,,
1465825507.70,-1.991868,-0.018862,-0.438485,0.044171,-1.468592,0.060648,-0.912489,0.018861,0.408666,0.143278,0.001205,0.030497,-38.096863,-3.418155,-11.292429,,,,,,
1465825507.71,-2.009952,-0.019716,-0.438296,0.056356,-1.923079,0.074155,-0.904935,0.019714,0.425093,0.162625,0.005432,0.048418,-38.096863,-3.418155,-11.292429,,,,,,
1465825507.72,-2.033208,-0.020730,-0.438107,0.063105,-2.473117,0.085063,-0.894787,0.020728,0.446012,0.175228,0.002724,0.059390,-38.344456,-3.387928,-10.430645,,,,,,
1465825507.73,-2.062130,-0.021964,-0.437885,0.081555,-3.017875,0.104465,-0.881492,0.021962,0.471688,0.141609,0.009639,0.021171,-38.344456,-3.387928,-10.430645,,,,,,
1465825507.74,-2.095506,-0.023350,-0.437672,0.086342,-3.437304,0.112422,-0.865233,0.023348,0.500825,0.140181,0.005171,0.036131,-38.747898,-3.340032,-8.832796,,,,,,
1465825507.75,-2.132665,-0.024841,-0.437493,0.093312,-3.812142,0.121166,-0.846000,0.024839,0.532604,0.121116,0.011126,0.065388,-38.747898,-3.340032,-8.832796,,,,,,
1465825507.76,-2.173245,-0.026459,-0.437375,0.101425,-4.125454,0.131654,-0.823662,0.026456,0.566463,0.085579,0.009631,0.020924,-38.747898,-3.340032,-8.832796,,,,,,
1465825507.77,-2.215955,-0.028126,-0.437300,0.101191,-4.313391,0.131768,-0.798688,0.028122,0.601087,0.058530,0.010529,0.044481,-38.747898,-3.340032,-8.832796,,,,,,
1465825507.78,-2.259889,-0.029880,-0.437314,0.107447,-4.411094,0.137709,-0.771479,0.029876,0.635554,0.021509,0.010286,0.038000,-39.615562,-3.182323,-3.324692,,,,,,
1465825507.79,-2.304330,-0.031607,-0.437391,0.107404,-4.450372,0.134762,-0.742442,0.031601,0.669164,0.010966,0.010925,0.071146,-39.615562,-3.182323,-3.324692,,,,,,
1465825507.80,-2.349129,-0.033332,-0.437527,0.107357,-4.487535,0.134995,-0.711690,0.033326,0.701703,-0.041499,0.009963,0.026767,-39.615562,-3.182323,-3.324692,,,,,,
1465825507.81,-2.393133,-0.035018,-0.437736,0.107536,-4.350554,0.130943,-0.680094,0.035011,0.732289,-0.026465,0.012246,0.071605,-39.601532,-2.966992,3.672796,,,,,,
1465825507.82,-2.435297,-0.036540,-0.438009,0.091810,-4.173193,0.118106,-0.648587,0.036531,0.760264,-0.081943,0.009749,0.011816,-39.601532,-2.966992,3.672796,,,,,,
1465825507.83,-2.475339,-0.037981,-0.438307,0.093186,-3.932153,0.112338,-0.617599,0.037972,0.785576,-0.106934,0.004234,0.007210,-39.601532,-2.966992,3.672796,,,,,,
1465825507.84,-2.511638,-0.039282,-0.438634,0.080954,-3.511649,0.101173,-0.588654,0.039272,0.807431,-0.097183,0.002034,0.030856,-39.145752,-2.856145,7.072908,,,,,,
1465825507.85,-2.543430,-0.040407,-0.438975,0.070871,-3.073099,0.090961,-0.562666,0.040396,0.825697,-0.129305,0.000131,-0.003401,-39.145752,-2.856145,7.072908,,,,,,
1465825507.86,-2.571338,-0.041383,-0.439285,0.059649,-2.702489,0.075852,-0.539384,0.041371,0.841043,-0.180297,-0.004933,-0.064432,-39.145752,-2.856145,7.072908,,,,,,
1465825507.88,-2.611155,-0.042727,-0.439761,0.033631,-1.419742,0.040105,-0.505449,0.042714,0.861798,-0.182402,0.000422,-0.020200,-37.835648,-2.674886,12.324057,,,,,,
1465825507.87,-2.594865,-0.042158,-0.439562,0.050713,-2.207649,0.059966,-0.519433,0.042146,0.853471,-0.201575,-0.001008,-0.057145,-37.835648,-2.674886,12.324057,,,,,,
1465825507.89,-2.619217,-0.042973,-0.439890,0.012314,-0.613779,0.019063,-0.498480,0.042960,0.865836,-0.189920,0.000070,-0.039878,-37.318253,-2.621484,13.822071,,,,,,
1465825507.90,-2.620317,-0.043004,-0.439920,-0.002800,0.044591,-0.001048,-0.497526,0.042991,0.866383,-0.172304,-0.000526,-0.056416,-37.318253,-2.621484,13.822071,,,,,,
1465825507.91,-2.606811,-0.042485,-0.439463,-0.014858,0.592579,-0.020464,-0.509194,0.042473,0.859603,-0.163231,-0.005226,-0.058059,-37.318253,-2.621484,13.822071,,,,,,
1465825507.93,-2.581359,-0.041548,-0.439149,-0.041097,1.706488,-0.050894,-0.530925,0.041537,0.846400,-0.127949,-0.002016,-0.011760,-37.190865,-2.608948,14.163571,,,,,,
1465825507.92,-2.596965,-0.042111,-0.439345,-0.029084,1.119267,-0.033362,-0.517640,0.042099,0.854562,-0.154113,-0.004699,-0.045449,-37.190865,-2.608948,14.163571,,,,,,
1465825507.94,-2.560261,-0.040792,-0.438898,-0.053190,2.233180,-0.065919,-0.548681,0.040780,0.835037,-0.119105,0.005118,-0.015869,-37.190865,-2.608948,14.163571,,,,,,
1465825507.95,-2.534467,-0.039855,-0.438625,-0.065373,2.692971,-0.077330,-0.570056,0.039845,0.820639,-0.067578,0.010891,0.014993,-37.190865,-2.608948,14.163571,,,,,,
1465825507.96,-2.504786,-0.038768,-0.438353,-0.076639,3.034900,-0.088001,-0.594184,0.038759,0.803395,-0.027871,0.013335,0.028163,-37.967911,-2.702824,11.904032,,,,,,
1465825507.97,-2.473450,-0.037596,-0.438106,-0.077550,3.153829,-0.090877,-0.619091,0.037588,0.784419,-0.009647,0.007365,0.021413,-37.967911,-2.702824,11.904032,,,,,,
1465825507.98,-2.441950,-0.036374,-0.437876,-0.082879,3.141104,-0.096125,-0.643518,0.036366,0.764566,-0.018316,0.001613,0.007727,-37.967911,-2.702824,11.904032,,,,,,
1465825507.99,-2.410223,-0.035145,-0.437667,-0.077488,3.196312,-0.095401,-0.667478,0.035137,0.743800,-0.006274,-0.000027,0.046895,-39.097206,-2.864602,7.333237,,,,,,
1465825508.00,-2.376998,-0.033875,-0.437467,-0.081523,3.365159,-0.102851,-0.691847,0.033869,0.721249,0.033919,0.007757,0.084903,-39.097206,-2.864602,7.333237,,,,,,
1465825508.01,-2.342480,-0.032569,-0.437330,-0.082470,3.461777,-0.101329,-0.716357,0.032563,0.696973,0.081424,0.012969,0.097506,-39.097206,-2.864602,7.333237,,,,,,
1465825508.02,-2.309148,-0.031240,-0.437229,-0.082712,3.264291,-0.103284,-0.739218,0.031235,0.672741,0.065543,0.018616,0.035831,-39.484779,-2.951790,4.776266,,,,,,
1465825508.03,-2.278558,-0.029988,-0.437202,-0.079861,3.002004,-0.094185,-0.759477,0.029983,0.649843,0.094453,0.021653,0.054290,-39.484779,-2.951790,4.776266,,,,,,
1465825508.04,-2.249795,-0.028741,-0.437158,-0.076875,2.825760,-0.099463,-0.777881,0.028737,0.627754,0.122089,0.020107,0.093895,-39.484779,-2.951790,4.776266,,,,,,
1465825508.05,-2.223571,-0.027568,-0.437191,-0.072983,2.548601,-0.088141,-0.794099,0.027564,0.607163,0.122819,0.011712,0.062988,-39.758972,-3.117575,-0.280064,,,,,,
1465825508.06,-2.200327,-0.026508,-0.437188,-0.060593,2.244911,-0.083031,-0.808020,0.026504,0.588558,0.137168,0.010056,0.081898,-39.758972,-3.117575,-0.280064,,,,,,
1465825508.07,-2.180509,-0.025556,-0.437258,-0.058928,1.888121,-0.072276,-0.819545,0.025553,0.572445,0.138271,0.007345,0.057743,-39.758972,-3.117575,-0.280064,,,,,,
1465825508.08,-2.164269,-0.024747,-0.437293,-0.045538,1.539822,-0.062627,-0.828750,0.024744,0.559072,0.144515,0.010290,0.069544,-39.690853,-3.185519,-2.249968,,,,,,
1465825508.09,-2.151318,-0.024049,-0.437354,-0.042770,1.211703,-0.053115,-0.835935,0.024047,0.548301,0.164976,0.012208,0.075524,-39.690853,-3.185519,-2.249968,,,,,,
1465825508.10,-2.142019,-0.023480,-0.437385,-0.031556,0.828363,-0.042184,-0.841009,0.023478,0.540512,0.171346,0.006734,0.074295,-39.690853,-3.185519,-2.249968,,,,,,
1465825508.11,-2.137314,-0.023090,-0.437421,-0.020468,0.349452,-0.027461,-0.843550,0.023088,0.536554,0.166762,0.005507,0.059745,-39.484379,-3.273669,-4.565134,,,,,,
1465825508.12,-2.137541,-0.022886,-0.437413,-0.007270,-0.146446,-0.013693,-0.843432,0.022884,0.536748,0.155002,-0.005596,0.057246,-39.484379,-3.273669,-4.565134,,,,,,
1465825508.13,-2.142553,-0.022895,-0.437403,0.003832,-0.611559,0.003073,-0.840731,0.022893,0.540968,0.154559,-0.005544,0.055940,-39.484379,-3.273669,-4.565134,,,,,,
1465825508.14,-2.151738,-0.023087,-0.437366,0.016072,-1.019333,0.018416,-0.835723,0.023085,0.548665,0.139373,-0.007963,0.058726,-39.461945,-3.291224,-4.743048,,,,,,
1465825508.15,-2.164763,-0.023451,-0.437318,0.026235,-1.389933,0.030330,-0.828499,0.023449,0.559499,0.119927,-0.011334,0.054011,-39.461945,-3.291224,-4.743048,,,,,,
1465825508.16,-2.181016,-0.023966,-0.437254,0.036477,-1.697888,0.041852,-0.819287,0.023963,0.572883,0.100476,-0.003440,0.038643,-39.461945,-3.291224,-4.743048,,,,,,
1465825508.17,-2.199617,-0.024621,-0.437210,0.043652,-1.902848,0.053789,-0.808476,0.024619,0.588013,0.085591,-0.008017,0.051315,-39.633408,-3.262040,-3.020880,,,,,,
1465825508.18,-2.219631,-0.025347,-0.437181,0.046673,-2.034525,0.058876,-0.796532,0.025345,0.604064,0.085183,-0.004013,0.059449,-39.633408,-3.262040,-3.020880,,,,,,
1465825508.19,-2.241245,-0.026176,-0.437182,0.051767,-2.205499,0.067404,-0.783275,0.026174,0.621124,0.070079,-0.004018,0.044113,-39.633408,-3.262040,-3.020880,,,,,,
1465825508.20,-2.264744,-0.027084,-0.437207,0.056843,-2.394517,0.073917,-0.768445,0.027081,0.639342,0.054838,-0.000989,0.028489,-39.723915,-3.221374,-1.485596,,,,,,
1465825508.21,-2.289614,-0.028042,-0.437249,0.058826,-2.511316,0.074651,-0.752289,0.028038,0.658236,0.057602,0.005257,0.044584,-39.723915,-3.221374,-1.485596,,,,,,
1465825508.22,-2.315583,-0.029012,-0.437302,0.061877,-2.623872,0.076425,-0.734923,0.029008,0.677530,0.008376,0.002715,0.001914,-39.723915,-3.221374,-1.485596,,,,,,
1465825508.23,-2.341750,-0.029988,-0.437382,0.059791,-2.590952,0.075152,-0.716924,0.029984,0.696506,0.003759,0.015213,0.012082,-39.692307,-3.105609,2.334414,,,,,,
1465825508.24,-2.366202,-0.030881,-0.437499,0.051523,-2.396629,0.070732,-0.699661,0.030876,0.713807,0.020950,0.012566,0.054152,-39.692307,-3.105609,2.334414,,,,,,
1465825508.25,-2.389498,-0.031684,-0.437653,0.046309,-2.321218,0.062802,-0.682827,0.031678,0.729893,-0.003330,0.021544,0.014400,-39.692307,-3.105609,2.334414,,,,,,
1465825508.26,-2.412708,-0.032425,-0.437769,0.046329,-2.313771,0.057433,-0.665688,0.032419,0.745526,-0.045341,0.008566,-0.030636,-39.527832,-3.043133,4.343208,,,,,,
1465825508.27,-2.434676,-0.033103,-0.437909,0.041225,-2.143871,0.053169,-0.649136,0.033097,0.759952,-0.059177,-0.004533,-0.004443,-39.527832,-3.043133,4.343208,,,,,,
1465825508.28,-2.453745,-0.033716,-0.438035,0.037377,-1.817892,0.050057,-0.634515,0.033710,0.772175,-0.084250,-0.015491,0.001553,-39.527832,-3.043133,4.343208,,,,,,
1465825508.29,-2.468905,-0.034257,-0.438163,0.032576,-1.411202,0.041114,-0.622725,0.034250,0.781691,-0.077501,-0.019785,0.015169,-39.003498,-2.942389,7.787377,,,,,,
1465825508.30,-2.480134,-0.034722,-0.438263,0.028796,-1.034251,0.035553,-0.613898,0.034715,0.788621,-0.064401,-0.008363,0.011031,-39.003498,-2.942389,7.787377,,,,,,
1465825508.31,-2.488446,-0.035090,-0.438345,0.020606,-0.786823,0.025478,-0.607315,0.035083,0.793686,-0.049485,0.002042,-0.008439,-39.003498,-2.942389,7.787377,,,,,,
1465825508.32,-2.495256,-0.035356,-0.438414,0.015467,-0.646650,0.020336,-0.601890,0.035349,0.797796,-0.063454,0.012243,-0.046637,-38.786835,-2.905701,8.815439,,,,,,
1465825508.33,-2.500233,-0.035505,-0.438458,0.007230,-0.437445,0.009435,-0.597909,0.035498,0.800778,-0.067710,0.007746,-0.034817,-38.786835,-2.905701,8.815439,,,,,,
1465825508.34,-2.502161,-0.035552,-0.438475,0.001273,-0.101897,0.002003,-0.596363,0.035545,0.801928,-0.071087,0.003670,-0.015963,-38.786835,-2.905701,8.815439,,,,,,
1465825508.35,-2.497267,-0.035066,-0.438350,-0.005676,0.287825,-0.007901,-0.600290,0.035059,0.799014,-0.062628,-0.005442,0.005262,-38.585266,-2.874800,9.668846,,,,,,
1465825508.36,-2.491801,-0.034874,-0.438309,-0.014821,0.626562,-0.016421,-0.604653,0.034867,0.795726,-0.056175,-0.002153,-0.002192,-38.585266,-2.874800,9.668846,,,,,,
1465825508.37,-2.483487,-0.034604,-0.438239,-0.018731,0.894156,-0.024490,-0.611253,0.034597,0.790679,-0.035124,0.000330,0.001161,-38.585266,-2.874800,9.668846,,,,,,
1465825508.38,-2.473123,-0.034262,-0.438171,-0.024886,1.076795,-0.027770,-0.619422,0.034255,0.784311,-0.016137,0.006852,0.003211,-38.681740,-2.899851,9.267555,,,,,,
1465825508.39,-2.461527,-0.033850,-0.438070,-0.025808,1.180870,-0.034811,-0.628484,0.033843,0.777086,-0.004588,0.004990,0.002486,-38.681740,-2.899851,9.267555,,,,,,
1465825508.40,-2.449245,-0.033386,-0.437968,-0.029979,1.245650,-0.038415,-0.637990,0.033380,0.769320,-0.018946,0.002402,-0.008380,-38.681740,-2.899851,9.267555,,,,,,
1465825508.41,-2.435736,-0.032884,-0.437852,-0.030851,1.394312,-0.042541,-0.648335,0.032878,0.760645,-0.022655,0.001744,0.005240,-39.037350,-2.954244,7.611259,,,,,,
1465825508.42,-2.420061,-0.032319,-0.437749,-0.038006,1.630039,-0.045091,-0.660191,0.032314,0.750403,-0.015652,-0.000133,0.026499,-39.037350,-2.954244,7.611259,,,,,,
1465825508.43,-2.402102,-0.031679,-0.437625,-0.040918,1.843483,-0.053884,-0.673574,0.031674,0.738441,0.007284,0.006794,0.038628,-39.037350,-2.954244,7.611259,,,,,,
1465825508.44,-2.382847,-0.031005,-0.437523,-0.042925,1.941170,-0.054499,-0.687681,0.031000,0.725351,0.016370,0.003561,0.034369,-39.240196,-2.992577,6.467245,,,,,,
1465825508.45,-2.363338,-0.030302,-0.437421,-0.043973,1.950733,-0.056688,-0.701715,0.030298,0.711813,0.042779,0.009848,0.036127,-39.240196,-2.992577,6.467245,,,,,,
1465825508.46,-2.344543,-0.029641,-0.437338,-0.041920,1.891266,-0.055249,-0.714983,0.029637,0.698513,0.072985,0.006587,0.056080,-39.240196,-2.992577,6.467245,,,,,,
1465825508.47,-2.326883,-0.028984,-0.437282,-0.040023,1.712870,-0.049870,-0.727221,0.028980,0.685792,0.080919,0.010998,0.041381,-39.609543,-3.085349,3.484007,,,,,,
1465825508.48,-2.311465,-0.028397,-0.437221,-0.034984,1.488822,-0.046331,-0.737720,0.028393,0.674509,0.065433,0.008991,0.019781,-39.609543,-3.085349,3.484007,,,,,,
1465825508.49,-2.297518,-0.027818,-0.437179,-0.036192,1.375209,-0.045620,-0.747068,0.027815,0.664166,0.052808,0.007342,0.026813,-39.609543,-3.085349,3.484007,,,,,,
1465825508.50,-2.283890,-0.027280,-0.437163,-0.037212,1.410247,-0.045841,-0.756060,0.027277,0.653933,0.069537,0.011786,0.059873,-39.699993,-3.126584,2.169922,,,,,,
1465825508.51,-2.269689,-0.026727,-0.437138,-0.034024,1.410237,-0.042644,-0.765282,0.026723,0.643140,0.106667,0.010356,0.087069,-39.699993,-3.126584,2.169922,,,,,,
1465825508.52,-2.257235,-0.026219,-0.437148,-0.032206,1.169195,-0.036873,-0.773242,0.026216,0.633569,0.115329,0.006545,0.056403,-39.699993,-3.126584,2.169922,,,,,,
1465825508.53,-2.248472,-0.025837,-0.437147,-0.021000,0.777364,-0.026953,-0.778772,0.025834,0.626775,0.103876,0.002548,0.023127,-39.753777,-3.195408,0.010769,,,,,,
1465825508.54,-2.243333,-0.025583,-0.437150,-0.015033,0.453490,-0.017465,-0.781988,0.025581,0.622769,0.101263,0.000848,0.028782,-39.753777,-3.195408,0.010769,,,,,,
1465825508.55,-2.240407,-0.025434,-0.437159,-0.007853,0.245355,-0.009765,-0.783810,0.025432,0.620480,0.101345,-0.000056,0.042499,-39.753777,-3.195408,0.010769,,,,,,
1465825508.56,-2.239174,-0.025372,-0.437144,-0.001677,0.082884,-0.004483,-0.784576,0.025370,0.619514,0.098342,0.001898,0.049416,-39.748497,-3.214899,-0.543156,,,,,,
1465825508.57,-2.239694,-0.025410,-0.437149,0.002336,-0.099771,0.005183,-0.784253,0.025407,0.619921,0.093808,-0.000443,0.044889,-39.748497,-3.214899,-0.543156,,,,,,
1465825508.58,-2.242237,-0.025525,-0.437146,0.009522,-0.307897,0.009688,-0.782671,0.025522,0.621912,0.090990,0.000845,0.035940,-39.748497,-3.214899,-0.543156,,,,,,
1465825508.59,-2.246893,-0.025715,-0.437130,0.014575,-0.517086,0.015263,-0.779763,0.025712,0.625546,0.086495,0.001250,0.033221,-39.747719,-3.216799,-0.586828,,,,,,
1465825508.60,-2.253510,-0.025998,-0.437140,0.019644,-0.708234,0.023918,-0.775601,0.025995,0.630688,0.082089,0.000998,0.032475,-39.747719,-3.216799,-0.586828,,,,,,
1465825508.61,-2.261799,-0.026361,-0.437144,0.023694,-0.866459,0.030237,-0.770339,0.026358,0.637089,0.076141,0.001321,0.029690,-39.747719,-3.216799,-0.586828,,,,,,
1465825508.62,-2.271780,-0.026801,-0.437164,0.026724,-0.991764,0.034219,-0.763934,0.026798,0.644738,0.074648,0.003049,0.036857,-39.752979,-3.202423,-0.137745,,,,,,
1465825508.63,-2.282751,-0.027279,-0.437166,0.030799,-1.135116,0.037251,-0.756804,0.027275,0.653072,0.068755,0.003929,0.034764,-39.752979,-3.202423,-0.137745,,,,,,
1465825508.64,-2.295300,-0.027789,-0.437184,0.033792,-1.292270,0.040369,-0.748539,0.027786,0.662508,0.041279,0.001786,0.008161,-39.752979,-3.202423,-0.137745,,,,,,
1465825508.65,-2.308741,-0.028358,-0.437199,0.036911,-1.347494,0.043911,-0.739555,0.028355,0.672498,0.014305,-0.004719,-0.003553,-39.728378,-3.146202,1.526793,,,,,,
1465825508.66,-2.321630,-0.028909,-0.437219,0.037031,-1.249812,0.044363,-0.730815,0.028905,0.681964,-0.000676,-0.010686,0.024961,-39.728378,-3.146202,1.526793,,,,,,
1465825508.67,-2.332905,-0.029478,-0.437260,0.035108,-1.085231,0.043329,-0.723067,0.029473,0.690149,0.007750,-0.008966,0.037879,-39.728378,-3.146202,1.526793,,,,,,
1465825508.68,-2.343023,-0.030027,-0.437293,0.035222,-0.996037,0.041705,-0.716036,0.030022,0.697417,0.018542,-0.000573,0.038651,-39.677048,-3.110866,2.574465,,,,,,
1465825508.69,-2.353221,-0.030557,-0.437351,0.033042,-1.036384,0.041956,-0.708875,0.030552,0.704672,0.034086,0.012630,0.008661,-39.677048,-3.110866,2.574465,,,,,,
1465825508.70,-2.364461,-0.031106,-0.437406,0.030782,-1.147861,0.038395,-0.700898,0.031101,0.712583,0.036500,0.024136,-0.004499,-39.677048,-3.110866,2.574465,,,,,,
1465825508.71,-2.376517,-0.031566,-0.437462,0.028578,-1.213680,0.034548,-0.692247,0.031561,0.720970,0.020540,0.024347,-0.019142,-39.535599,-3.038574,4.275160,,,,,,
1465825508.72,-2.388116,-0.031956,-0.437526,0.021239,-1.127661,0.030808,-0.683829,0.031951,0.728942,0.006232,0.023515,-0.015060,-39.535599,-3.038574,4.275160,,,,,,
1465825508.73,-2.397825,-0.032260,-0.437593,0.017263,-0.911037,0.024123,-0.676713,0.032255,0.735540,-0.014999,0.014407,0.000376,-39.535599,-3.038574,4.275160,,,,,,
1465825508.74,-2.405016,-0.032491,-0.437648,0.009077,-0.656183,0.016130,-0.671402,0.032486,0.740381,-0.022843,0.009812,0.010183,-39.425461,-3.009362,5.210590,,,,,,
1465825508.75,-2.409970,-0.032606,-0.437676,0.006160,-0.445927,0.008422,-0.667722,0.032600,0.743696,-0.024203,0.008827,-0.003889,-39.425461,-3.009362,5.210590,,,,,,
1465825508.76,-2.413125,-0.032663,-0.437692,0.003192,-0.275028,0.004153,-0.665372,0.032657,0.745798,-0.032062,-0.000476,-0.002664,-39.333153,-2.989837,5.876867,,,,,,
1465825508.77,-2.414644,-0.032672,-0.437701,-0.000858,-0.111502,0.000994,-0.664238,0.032666,0.746807,-0.033318,-0.005124,-0.003857,-39.333153,-2.989837,5.876867,,,,,,
1465825508.78,-2.412968,-0.032539,-0.437641,-0.003829,0.059469,-0.004339,-0.665491,0.032533,0.745696,-0.031881,-0.000642,0.003465,-39.333153,-2.989837,5.876867,,,,,,
1465825508.79,-2.411019,-0.032450,-0.437629,-0.005728,0.241041,-0.006544,-0.666946,0.032445,0.744400,-0.025803,-0.003194,0.001404,-39.333153,-2.989837,5.876867,,,,,,
1465825508.80,-2.407306,-0.032300,-0.437608,-0.009760,0.415191,-0.011898,-0.669708,0.032294,0.741922,-0.013306,0.004113,-0.000620,-39.285248,-2.988568,6.189623,,,,,,
1465825508.81,-2.402006,-0.032098,-0.437584,-0.013820,0.567043,-0.017112,-0.673636,0.032093,0.738367,-0.011499,0.000454,0.002295,-39.285248,-2.988568,6.189623,,,,,,
1465825508.83,-2.387607,-0.031517,-0.437494,-0.014591,0.794281,-0.022796,-0.684210,0.031512,0.728604,0.008108,-0.000323,0.016528,-39.319107,-2.996753,5.966665,,,,,,
1465825508.82,-2.395341,-0.031783,-0.437549,-0.015784,0.695528,-0.020049,-0.678549,0.031778,0.733868,-0.004725,-0.000696,0.014774,-39.319107,-2.996753,5.966665,,,,,,
1465825508.84,-2.379257,-0.031264,-0.437438,-0.014532,0.845241,-0.020987,-0.690275,0.031259,0.722872,0.006727,-0.008783,0.021498,-39.319107,-2.996753,5.966665,,,,,,
1465825508.85,-2.370568,-0.031024,-0.437390,-0.013432,0.874968,-0.020108,-0.696535,0.031019,0.716852,0.023409,-0.005903,0.027258,-39.468426,-3.032887,4.859911,,,,,,
1465825508.86,-2.362196,-0.030778,-0.437367,-0.013440,0.871775,-0.017959,-0.702517,0.030773,0.711001,0.046267,-0.002148,0.029401,-39.468426,-3.032887,4.859911,,,,,,
1465825508.87,-2.353936,-0.030577,-0.437342,-0.015614,0.831435,-0.020902,-0.708371,0.030572,0.705178,0.071164,0.016028,0.025321,-39.468426,-3.032887,4.859911,,,,,,
1465825508.89,-2.340245,-0.030108,-0.437302,-0.014880,0.567046,-0.019243,-0.717969,0.030104,0.695424,0.079907,0.031145,0.019466,-39.544388,-3.049625,4.185055,,,,,,
1465825508.88,-2.346347,-0.030351,-0.437325,-0.015749,0.728432,-0.017062,-0.713707,0.030347,0.699787,0.072120,0.014804,0.035107,-39.544388,-3.049625,4.185055,,,,,,
1465825508.90,-2.335747,-0.029878,-0.437304,-0.015076,0.414141,-0.016155,-0.721095,0.029874,0.692192,0.076045,0.023196,0.013084,-39.544388,-3.049625,4.185055,,,,,,
1465825508.91,-2.335880,-0.030098,-0.437402,-0.013081,0.309000,-0.014428,-0.720997,0.030093,0.692284,0.069462,0.006772,0.022071,-39.639114,-3.078889,3.136082,,,,,,
1465825508.92,-2.333358,-0.029961,-0.437395,-0.007857,0.235722,-0.009705,-0.722744,0.029957,0.690466,0.056408,-0.003864,0.030939,-39.639114,-3.078889,3.136082,,,,,,
1465825508.93,-2.331462,-0.029876,-0.437386,-0.003682,0.174126,-0.006121,-0.724054,0.029872,0.689096,0.049722,-0.009562,0.036749,-39.639114,-3.078889,3.136082,,,,,,
1465825508.95,-2.332844,-0.029732,-0.437462,0.001481,0.056228,0.001009,-0.723104,0.029727,0.690099,0.049993,-0.002643,0.025706,-39.646873,-3.074067,3.041248,,,,,,
1465825508.94,-2.330156,-0.029853,-0.437372,-0.000566,0.116778,-0.002565,-0.724954,0.029849,0.688150,0.049036,-0.008914,0.034674,-39.646873,-3.074067,3.041248,,,,,,
1465825508.96,-2.332834,-0.029774,-0.437460,0.002452,-0.017040,0.002534,-0.723110,0.029769,0.690091,0.042553,0.003358,0.020282,-39.646873,-3.074067,3.041248,,,,,,
1465825508.97,-2.333583,-0.029826,-0.437455,0.004484,-0.093493,0.004080,-0.722592,0.029822,0.690631,0.049176,0.009241,0.016369,-39.648193,-3.078193,3.019848,,,,,,
1465825508.98,-2.334953,-0.029888,-0.437453,0.004411,-0.149772,0.005498,-0.721643,0.029884,0.691620,0.051249,0.013665,0.009873,-39.648193,-3.078193,3.019848,,,,,,
1465825508.99,-2.339545,-0.030392,-0.437551,0.003279,-0.201817,0.006889,-0.718449,0.030387,0.694915,0.043217,0.006341,0.015671,-39.648193,-3.078193,3.019848,,,,,,
1465825509.01,-2.347197,-0.031065,-0.437653,0.005300,-0.286778,0.008490,-0.713096,0.031060,0.700378,0.043708,0.008140,0.013398,-39.641937,-3.074850,3.104143,,,,,,
1465825509.00,-2.341898,-0.030461,-0.437558,0.004294,-0.245345,0.005034,-0.716810,0.030456,0.696603,0.049940,0.014618,0.005195,-39.641937,-3.074850,3.104143,,,,,,
1465825509.02,-2.352692,-0.031332,-0.437750,0.005255,-0.326071,0.006608,-0.709231,0.031327,0.704280,0.038241,0.002761,0.016942,-39.641937,-3.074850,3.104143,,,,,,
1465825509.03,-2.358079,-0.031416,-0.437827,0.009431,-0.382375,0.013352,-0.705425,0.031411,0.708089,0.032604,-0.001809,0.008251,-39.584435,-3.022938,3.808926,,,,,,
1465825509.04,-2.363843,-0.031399,-0.437895,0.011497,-0.434409,0.012615,-0.701332,0.031394,0.712143,0.024727,-0.003974,0.012787,-39.584435,-3.022938,3.808926,,,,,,
1465825509.05,-2.369826,-0.031448,-0.437969,0.012491,-0.484333,0.017186,-0.697058,0.031443,0.716325,0.023367,-0.003840,0.007613,-39.584435,-3.022938,3.808926,,,,,,
1465825509.06,-2.376059,-0.031618,-0.438034,0.011382,-0.521498,0.016354,-0.692576,0.031612,0.720652,0.024179,-0.001614,0.004583,-39.539978,-3.017229,4.249720,,,,,,
1465825509.07,-2.382064,-0.032114,-0.438086,0.013477,-0.549109,0.016530,-0.688225,0.032109,0.724787,0.019752,0.007198,-0.006327,-39.539978,-3.017229,4.249720,,,,,,
1465825509.08,-2.387854,-0.032558,-0.438122,0.012441,-0.531051,0.013223,-0.684007,0.032552,0.728749,0.012620,0.006449,-0.005009,-39.539978,-3.017229,4.249720,,,,,,
1465825509.09,-2.392882,-0.032834,-0.438152,0.010392,-0.467343,0.012822,-0.680328,0.032829,0.732172,0.001953,0.002145,-0.002909,-39.429459,-2.975867,5.199572,,,,,,
1465825509.10,-2.396887,-0.033164,-0.438174,0.008377,-0.379206,0.010139,-0.677383,0.033158,0.734883,-0.000748,0.004638,-0.005086,-39.429459,-2.975867,5.199572,,,,,,
1465825509.11,-2.399640,-0.033382,-0.438178,0.006357,-0.295315,0.007482,-0.675352,0.033376,0.736740,-0.010790,0.002680,-0.008331,-39.429459,-2.975867,5.199572,,,,,,
1465825509.12,-2.401449,-0.033561,-0.438176,0.002212,-0.208237,0.004803,-0.674014,0.033555,0.737956,-0.012097,0.002959,-0.009089,-39.382225,-2.955884,5.556696,,,,,,
1465825509.13,-2.402134,-0.033736,-0.438166,0.001278,-0.109476,0.000990,-0.673504,0.033729,0.738413,-0.016361,0.004021,-0.010462,-39.382225,-2.955884,5.556696,,,,,,
1465825509.14,-2.401796,-0.033661,-0.438162,-0.000718,0.002008,0.003482,-0.673756,0.033654,0.738188,-0.016720,-0.002237,-0.006635,-39.382225,-2.955884,5.556696,,,,,,
1465825509.15,-2.400407,-0.033235,-0.438242,-0.005984,0.055095,0.007400,-0.674790,0.033229,0.737261,-0.013427,-0.011974,-0.027498,-39.355431,-2.940897,5.751089,,,,,,
1465825509.16,-2.399414,-0.032889,-0.438194,-0.001541,0.197380,0.003318,-0.675530,0.032883,0.736599,-0.010414,-0.009339,0.042515,-39.355431,-2.940897,5.751089,,,,,,
1465825509.17,-2.396727,-0.032557,-0.438222,-0.007749,0.349203,0.007681,-0.677514,0.032551,0.734789,-0.009910,-0.007237,0.041090,-39.355431,-2.940897,5.751089,,,,,,
1465825509.18,-2.392073,-0.033496,-0.438098,0.006257,0.451180,-0.011037,-0.680905,0.033490,0.731606,0.024655,0.030200,-0.033974,-39.367554,-2.963863,5.655519,,,,,,
1465825509.19,-2.388183,-0.033361,-0.438150,-0.020433,0.399155,-0.007544,-0.683749,0.033355,0.728955,-0.015302,0.003312,0.045429,-39.367554,-2.963863,5.655519,,,,,,
1465825509.20,-2.383764,-0.033079,-0.438088,-0.011918,0.366291,-0.026490,-0.686970,0.033073,0.725933,0.001698,-0.004829,-0.028362,-39.367554,-2.963863,5.655519,,,,,,
1465825509.21,-2.380259,-0.032898,-0.438072,-0.010914,0.341828,-0.011433,-0.689514,0.032892,0.723525,0.069870,0.032247,-0.036559,-39.451382,-2.960666,5.039505,,,,,,
1465825509.22,-2.376845,-0.032684,-0.438052,-0.009823,0.341862,-0.024206,-0.691985,0.032678,0.721172,0.032439,-0.027262,0.025883,-39.451382,-2.960666,5.039505,,,,,,
1465825509.23,-2.374529,-0.032495,-0.438096,-0.009952,0.271724,-0.003542,-0.693658,0.032489,0.719572,0.029244,-0.003925,0.000399,-39.451382,-2.960666,5.039505,,,,,,
1465825509.24,-2.372437,-0.032429,-0.438065,0.002741,0.193165,-0.010488,-0.695163,0.032423,0.718120,0.052768,-0.009306,0.031483,-39.484413,-2.973724,4.765699,,,,,,
1465825509.25,-2.371158,-0.032433,-0.438069,-0.001660,0.101814,0.003919,-0.696081,0.032427,0.717231,0.037252,0.014509,-0.007361,-39.484413,-2.973724,4.765699,,,,,,
1465825509.26,-2.370819,-0.032425,-0.438048,0.005710,0.017957,-0.006192,-0.696324,0.032419,0.716995,0.038793,-0.004359,0.032929,-39.484413,-2.973724,4.765699,,,,,,
1465825509.27,-2.372283,-0.032859,-0.438120,-0.004031,-0.093558,0.004079,-0.695264,0.032853,0.718003,0.049192,0.010878,-0.016145,-39.511864,-2.981807,4.527140,,,,,,
1465825509.28,-2.373739,-0.032922,-0.438113,0.006547,-0.155136,0.000218,-0.694217,0.032916,0.719013,0.051333,0.014096,0.018078,-39.511864,-2.981807,4.527140,,,,,,
1465825509.29,-2.375780,-0.032990,-0.438136,0.005388,-0.216743,0.009118,-0.692746,0.032984,0.720427,0.026685,-0.004251,0.011339,-39.511864,-2.981807,4.527140,,,,,,
1465825509.31,-2.381422,-0.033665,-0.438188,0.003180,-0.278333,0.010569,-0.688655,0.033659,0.724308,0.029094,0.014178,-0.009555,-39.499653,-2.964880,4.643335,,,,,,
1465825509.30,-2.378181,-0.033086,-0.438128,0.005366,-0.244333,0.002905,-0.691012,0.033080,0.722086,0.032763,0.007509,0.012747,-39.499653,-2.964880,4.643335,,,,,,
1465825509.32,-2.384173,-0.033733,-0.438174,0.005332,-0.268763,0.005188,-0.686658,0.033726,0.726198,0.014035,0.007717,0.013258,-39.499653,-2.964880,4.643335,,,,,,
1465825509.33,-2.386756,-0.033783,-0.438204,0.001086,-0.253904,0.008284,-0.684779,0.033777,0.727968,0.003993,-0.008249,-0.001009,-39.450836,-2.938389,5.056772,,,,,,
1465825509.34,-2.389014,-0.033860,-0.438200,0.006462,-0.216735,0.004863,-0.683131,0.033853,0.729510,-0.004506,-0.021265,0.011762,-39.450836,-2.938389,5.056772,,,,,,
1465825509.35,-2.390934,-0.033538,-0.438228,0.005450,-0.167904,0.008812,-0.681737,0.033532,0.730829,0.002309,-0.013619,0.001380,-39.450836,-2.938389,5.056772,,,,,,
1465825509.36,-2.392135,-0.033683,-0.438209,0.014047,-0.103141,0.009479,-0.680855,0.033677,0.731643,-0.009208,-0.012574,0.011628,-39.426208,-2.933829,5.247875,,,,,,
1465825509.37,-2.392699,-0.033814,-0.438205,0.008799,-0.042616,0.009094,-0.680439,0.033808,0.732024,-0.002590,-0.002543,-0.005401,-39.426208,-2.933829,5.247875,,,,,,
1465825509.38,-2.392738,-0.033932,-0.438195,0.007804,0.009419,0.006638,-0.680409,0.033926,0.732047,0.004734,0.010111,-0.003882,-39.426208,-2.933829,5.247875,,,,,,
1465825509.39,-2.392193,-0.034549,-0.438194,0.003612,0.057212,0.003143,-0.680793,0.034542,0.731661,0.007621,0.016834,-0.012224,-39.406532,-2.931723,5.394814,,,,,,
1465825509.40,-2.391275,-0.034919,-0.438186,0.002601,0.099684,0.002877,-0.681455,0.034912,0.731026,0.003706,0.010636,-0.003960,-39.406532,-2.931723,5.394814,,,,,,
1465825509.41,-2.390061,-0.035450,-0.438181,-0.004778,0.144306,-0.005924,-0.682330,0.035443,0.730185,0.018176,0.017673,-0.012656,-39.406532,-2.931723,5.394814,,,,,,
1465825509.43,-2.387027,-0.036376,-0.438186,-0.009988,0.223957,-0.012812,-0.684519,0.036368,0.728087,0.025507,0.014444,-0.003386,-39.416321,-2.901578,5.339314,,,,,,
1465825509.42,-2.388726,-0.036082,-0.438191,-0.006857,0.182533,-0.007228,-0.683288,0.036074,0.729257,0.024948,0.022413,-0.006509,-39.416321,-2.901578,5.339314,,,,,,
1465825509.44,-2.385218,-0.036309,-0.438196,-0.012103,0.236694,-0.011829,-0.685836,0.036301,0.726850,0.025909,0.003006,0.001086,-39.416321,-2.901578,5.339314,,,,,,
1465825509.45,-2.383459,-0.036155,-0.438212,-0.013182,0.221832,-0.013866,-0.687118,0.036148,0.725646,0.024383,0.000962,0.002672,-39.450703,-2.858554,5.103367,,,,,,
1465825509.46,-2.382238,-0.035590,-0.438237,-0.008994,0.176152,-0.007190,-0.688017,0.035582,0.724821,0.016432,-0.015395,0.017900,-39.450703,-2.858554,5.103367,,,,,,
1465825509.47,-2.381457,-0.034934,-0.438243,-0.005871,0.121992,-0.005784,-0.688599,0.034927,0.724300,0.015839,-0.020263,0.014088,-39.450703,-2.858554,5.103367,,,,,,
1465825509.48,-2.381411,-0.034584,-0.438273,0.000420,0.052954,-0.000024,-0.688641,0.034577,0.724277,0.021390,-0.012635,0.012798,-39.464409,-2.879658,4.984137,,,,,,
1465825509.49,-2.381964,-0.034422,-0.438286,0.004591,-0.011830,0.003579,-0.688244,0.034415,0.724662,0.024823,-0.007956,0.005913,-39.464409,-2.879658,4.984137,,,,,,
1465825509.50,-2.383204,-0.034574,-0.438315,0.005589,-0.064925,0.003913,-0.687342,0.034567,0.725511,0.032480,0.002527,0.003844,-39.464409,-2.879658,4.984137,,,,,,
1465825509.51,-2.384644,-0.034879,-0.438336,0.004481,-0.099966,0.004133,-0.686289,0.034872,0.726493,0.030374,0.007945,-0.003959,-39.457737,-2.908945,5.019829,,,,,,
1465825509.52,-2.386329,-0.035380,-0.438368,0.003383,-0.127575,0.004306,-0.685052,0.035373,0.727635,0.029427,0.015897,-0.006062,-39.457737,-2.908945,5.019829,,,,,,
1465825509.53,-2.388097,-0.035660,-0.438398,0.000180,-0.136067,0.003293,-0.683758,0.035653,0.728838,0.022518,0.009712,-0.001116,-39.457737,-2.908945,5.019829,,,,,,
1465825509.54,-2.389815,-0.035912,-0.438417,-0.000877,-0.137119,-0.000958,-0.682498,0.035904,0.730005,0.020419,0.009277,-0.003595,-39.443581,-2.882789,5.144648,,,,,,
1465825509.55,-2.391241,-0.035944,-0.438419,-0.000875,-0.133937,0.000086,-0.681456,0.035936,0.730977,0.005308,0.001036,-0.002171,-39.443581,-2.882789,5.144648,,,,,,
1465825509.56,-2.392650,-0.035928,-0.438424,-0.000869,-0.132869,-0.002049,-0.680425,0.035920,0.731936,0.008810,-0.000001,-0.005649,-39.443581,-2.882789,5.144648,,,,,,
1465825509.57,-2.393891,-0.035596,-0.438424,0.001278,-0.114826,-0.000033,-0.679525,0.035589,0.732789,0.001958,-0.014105,-0.000657,-39.411469,-2.864527,5.394827,,,,,,
1465825509.58,-2.394801,-0.035320,-0.438438,-0.000807,-0.077665,0.000796,-0.678864,0.035313,0.733414,0.000489,-0.011860,0.000793,-39.411469,-2.864527,5.394827,,,,,,
1465825509.59,-2.395258,-0.035061,-0.438452,0.003483,-0.043703,0.005908,-0.678535,0.035054,0.733731,-0.007577,-0.013478,0.003329,-39.411469,-2.864527,5.394827,,,,,,
1465825509.60,-2.395402,-0.035018,-0.438450,0.004597,-0.007597,0.003553,-0.678430,0.035011,0.733830,0.002771,-0.004371,-0.004460,-39.398621,-2.882887,5.478254,,,,,,
1465825509.61,-2.395167,-0.035200,-0.438442,0.002519,0.031694,0.002241,-0.678598,0.035192,0.733666,0.002786,0.005869,-0.002923,-39.398621,-2.882887,5.478254,,,,,,
1465825509.62,-2.394518,-0.035392,-0.438432,0.000434,0.061435,-0.001140,-0.679070,0.035384,0.733220,0.005700,0.007890,-0.011647,-39.398621,-2.882887,5.478254,,,,,,
1465825509.63,-2.393779,-0.035642,-0.438431,-0.002730,0.081616,-0.003398,-0.679606,0.035635,0.732712,0.012598,0.011729,-0.011032,-39.400299,-2.880836,5.467279,,,,,,
1465825509.64,-2.392946,-0.035761,-0.438432,-0.002707,0.099666,-0.003511,-0.680213,0.035753,0.732142,0.014731,0.006498,-0.006846,-39.400299,-2.880836,5.467279,,,,,,
1465825509.65,-2.392004,-0.035701,-0.438416,-0.003743,0.118784,-0.005760,-0.680904,0.035694,0.731503,0.012691,-0.000308,-0.000363,-39.400299,-2.880836,5.467279,,,,,,
1465825509.66,-2.390966,-0.035497,-0.438417,-0.004803,0.126210,-0.003680,-0.681668,0.035490,0.730801,0.012249,-0.006178,0.002323,-39.409561,-2.869447,5.406124,,,,,,
1465825509.67,-2.390102,-0.035393,-0.438432,-0.003749,0.117714,-0.003625,-0.682301,0.035385,0.730214,0.018727,-0.002853,0.002787,-39.409561,-2.869447,5.406124,,,,,,
1465825509.68,-2.389334,-0.035159,-0.438430,0.000473,0.094342,-0.000282,-0.682867,0.035152,0.729696,0.011343,-0.009700,0.005121,-39.409561,-2.869447,5.406124,,,,,,
1465825509.69,-2.388900,-0.035067,-0.438436,0.000437,0.063551,-0.001154,-0.683186,0.035060,0.729402,0.018498,-0.004741,-0.000612,-39.427647,-2.888035,5.262482,,,,,,
1465825509.70,-2.388789,-0.034986,-0.438455,0.001449,0.028498,0.003325,-0.683269,0.034978,0.729328,0.015606,-0.005483,0.001156,-39.427647,-2.888035,5.262482,,,,,,
1465825509.71,-2.389105,-0.035000,-0.438456,0.003537,-0.006542,0.002482,-0.683038,0.034993,0.729544,0.019021,-0.001912,0.001291,-39.427647,-2.888035,5.262482,,,,,,
1465825509.72,-2.389625,-0.035124,-0.438464,0.004567,-0.032030,0.003707,-0.682656,0.035117,0.729896,0.021310,0.002572,-0.005668,-39.430222,-2.892749,5.240536,,,,,,
1465825509.73,-2.390413,-0.035399,-0.438471,0.002421,-0.049013,0.001684,-0.682074,0.035391,0.730426,0.022848,0.010232,-0.002613,-39.430222,-2.892749,5.240536,,,,,,
1465825509.74,-2.391195,-0.035626,-0.438486,0.001339,-0.061758,0.002828,-0.681497,0.035618,0.730954,0.019083,0.008876,-0.007183,-39.430222,-2.892749,5.240536,,,,,,
1465825509.75,-2.392063,-0.035830,-0.438499,-0.002920,-0.069178,-0.001387,-0.680857,0.035822,0.731540,0.019373,0.009970,-0.007724,-39.418831,-2.872261,5.336634,,,,,,
1465825509.76,-2.392942,-0.035938,-0.438514,-0.002923,-0.077731,-0.001335,-0.680211,0.035930,0.732135,0.014837,0.005727,-0.008197,-39.418831,-2.872261,5.336634,,,,,,
1465825509.77,-2.393812,-0.035881,-0.438505,0.000266,-0.079860,-0.000254,-0.679575,0.035873,0.732728,0.008509,-0.003113,-0.005342,-39.418831,-2.872261,5.336634,,,,,,
1465825509.78,-2.394593,-0.035748,-0.438524,-0.002920,-0.071367,0.000754,-0.679006,0.035740,0.733262,0.005834,-0.005955,-0.003953,-39.410118,-2.861964,5.406052,,,,,,
1465825509.79,-2.395201,-0.035611,-0.438538,-0.000773,-0.057565,0.000669,-0.678563,0.035603,0.733678,0.000982,-0.006215,-0.001135,-39.410118,-2.861964,5.406052,,,,,,
1465825509.80,-2.395684,-0.035443,-0.438557,0.000311,-0.038459,0.002678,-0.678213,0.035436,0.734011,0.002752,-0.009069,-0.000780,-39.410118,-2.861964,5.406052,,,,,,
1465825509.81,-2.395902,-0.035325,-0.438562,0.002468,-0.016162,0.002540,-0.678056,0.035318,0.734161,0.003587,-0.006891,-0.003463,-39.394279,-2.876102,5.512932,,,,,,
1465825509.83,-2.395649,-0.035332,-0.438580,0.000390,0.023129,0.001227,-0.678241,0.035324,0.733990,0.002735,-0.000565,-0.005901,-39.394279,-2.876102,5.512932,,,,,,
1465825509.82,-2.395906,-0.035331,-0.438571,-0.000694,0.008264,0.001319,-0.678053,0.035324,0.734164,0.005888,-0.001312,-0.004626,-39.394279,-2.876102,5.512932,,,,,,
1465825509.84,-2.395354,-0.035428,-0.438576,-0.001713,0.039065,-0.002068,-0.678456,0.035420,0.733787,0.010502,0.004787,-0.006675,-39.392876,-2.879184,5.521372,,,,,,
1465825509.85,-2.394887,-0.035572,-0.438576,-0.001699,0.051804,-0.001083,-0.678795,0.035565,0.733466,0.010048,0.007633,-0.009025,-39.392876,-2.879184,5.521372,,,,,,
1465825509.86,-2.394391,-0.035627,-0.438579,-0.001682,0.063486,-0.002220,-0.679157,0.035619,0.733128,0.011493,0.004023,-0.003819,-39.396111,-2.876111,5.499826,,,,,,
1465825509.87,-2.393792,-0.035559,-0.438599,-0.004869,0.068796,-0.002257,-0.679598,0.035551,0.732723,0.011370,-0.000868,-0.005077,-39.396111,-2.876111,5.499826,,,,,,
1465825509.88,-2.393210,-0.035485,-0.438601,-0.002734,0.071983,-0.003339,-0.680026,0.035478,0.732329,0.013629,-0.001771,-0.004134,-39.396111,-2.876111,5.499826,,,,,,
1465825509.89,-2.392666,-0.035292,-0.438616,-0.002750,0.064541,-0.000100,-0.680429,0.035285,0.731964,0.009622,-0.008689,0.001053,-39.407982,-2.873693,5.415375,,,,,,
1465825509.90,-2.392355,-0.035166,-0.438627,-0.000638,0.048615,-0.001062,-0.680660,0.035159,0.731756,0.015849,-0.005847,-0.000036,-39.407982,-2.873693,5.415375,,,,,,
1465825509.91,-2.392174,-0.035153,-0.438653,-0.000673,0.024187,0.001220,-0.680793,0.035145,0.731632,0.012732,-0.001256,-0.003651,-39.407982,-2.873693,5.415375,,,,,,
1465825509.92,-2.392261,-0.035179,-0.438647,0.002494,0.000827,0.000305,-0.680728,0.035172,0.731691,0.014911,0.000076,-0.003725,-39.407982,-2.873693,5.415375,,,,,,
1465825509.93,-2.392518,-0.035232,-0.438633,0.002474,-0.015100,0.000405,-0.680538,0.035224,0.731865,0.015545,0.000893,-0.007393,-39.412605,-2.881974,5.377190,,,,,,
1465825509.94,-2.392893,-0.035326,-0.438644,0.000331,-0.024659,0.001527,-0.680262,0.035319,0.732118,0.017497,0.003896,-0.006684,-39.412605,-2.881974,5.377190,,,,,,
1465825509.95,-2.393343,-0.035367,-0.438658,0.000323,-0.031031,0.001568,-0.679931,0.035359,0.732423,0.013259,0.001079,-0.002885,-39.412605,-2.881974,5.377190,,,,,,
1465825509.96,-2.393831,-0.035416,-0.438654,0.001383,-0.036338,0.000538,-0.679573,0.035408,0.732753,0.015236,0.001533,-0.006328,-39.409485,-2.877516,5.402407,,,,,,
1465825509.97,-2.394335,-0.035458,-0.438663,0.000312,-0.041647,0.000570,-0.679202,0.035450,0.733095,0.011600,0.001293,-0.005311,-39.409485,-2.877516,5.402407,,,,,,
1465825509.98,-2.394843,-0.035423,-0.438667,-0.000762,-0.049079,0.000615,-0.678831,0.035415,0.733440,0.007780,-0.002136,-0.005672,-39.404602,-2.874504,5.439518,,,,,,
