timestamp,attitude_roll,attitude_pitch,attitude_yaw,rotation_rate_x,rotation_rate_y,rotation_rate_z,gravity_x,gravity_y,gravity_z,user_acc_x,user_acc_y,user_acc_z,magnetic_field_x,magnetic_field_y,magnetic_field_z,latitude(degree),longitude(degree),altitude(meter),speed(m/s),course(degree),timestamp
1465846417.19,-0.101067,-0.006620,-1.491783,0.005931,-0.021555,0.001467,-0.100893,0.006620,-0.994875,-0.000242,0.005267,0.005221,-44.767128,230.991028,-111.278297,,,,,,
1465846417.20,-0.101451,-0.006616,-1.491764,-0.004711,-0.015183,0.002481,-0.101275,0.006615,-0.994836,-0.009763,-0.000054,0.003656,-44.767128,230.991028,-111.278297,,,,,,
1465846417.21,-0.101409,-0.006666,-1.491751,0.000678,0.036841,0.002160,-0.101233,0.006666,-0.994840,-0.009653,0.000994,0.003889,-44.833755,231.061142,-111.105820,,,,,,
1465846417.22,-0.100830,-0.006660,-1.491738,-0.001401,0.077190,0.001905,-0.100657,0.006660,-0.994899,-0.005803,-0.000373,0.006053,-44.833755,231.061142,-111.105820,,,,,,
1465846417.23,-0.099953,-0.006656,-1.491735,-0.004574,0.092060,0.000744,-0.099785,0.006655,-0.994987,-0.001564,-0.002810,-0.004372,-44.833755,231.061142,-111.105820,,,,,,
1465846417.24,-0.098904,-0.006661,-1.491728,-0.001372,0.098430,0.000707,-0.098740,0.006661,-0.995091,0.002885,-0.000511,-0.002651,-44.757679,231.067078,-111.124092,,,,,,
1465846417.25,-0.097990,-0.006678,-1.491724,-0.003521,0.082504,0.000805,-0.097831,0.006677,-0.995181,0.001243,-0.001032,-0.006772,-44.757679,231.067078,-111.124092,,,,,,
1465846417.26,-0.097201,-0.006699,-1.491717,-0.001410,0.067638,0.000900,-0.097046,0.006699,-0.995257,0.003098,0.000076,-0.004926,-44.757679,231.067078,-111.124092,,,,,,
1465846417.27,-0.096620,-0.006743,-1.491708,-0.000375,0.044278,0.001048,-0.096468,0.006743,-0.995313,0.003175,0.001680,-0.005373,-44.348442,231.072266,-111.277290,,,,,,
,,,,,,,,,,,,,,,,29.719946,-95.399075,10.301153,-1.000000,-1.000000,1465846412.30
,,,,,,,,,,,,,,,,29.719946,-95.399076,10.301153,-1.000000,-1.000000,1465846411.79
,,,,,,,,,,,,,,,,29.719946,-95.399075,10.301153,-1.000000,-1.000000,1465846412.30
1465846417.28,-0.096177,-0.006784,-1.491717,-0.000386,0.031543,-0.001001,-0.096026,0.006784,-0.995356,0.005603,0.002158,-0.002859,-44.348442,231.072266,-111.277290,,,,,,
1465846417.29,-0.095881,-0.006795,-1.491738,0.000688,0.038975,-0.001047,-0.095732,0.006795,-0.995384,-0.004030,0.001429,-0.000008,-44.232662,231.082077,-111.303001,,,,,,
1465846417.31,-0.094789,-0.006771,-1.491750,-0.001415,0.060212,-0.001182,-0.094645,0.006771,-0.995488,-0.000402,0.000172,-0.001018,-44.232662,231.082077,-111.303001,,,,,,
1465846417.30,-0.095397,-0.006766,-1.491738,0.000706,0.054899,-0.000082,-0.095250,0.006766,-0.995430,-0.001750,-0.001547,-0.002357,-44.232662,231.082077,-111.303001,,,,,,
1465846417.32,-0.094228,-0.006739,-1.491768,-0.000353,0.058087,-0.001168,-0.094086,0.006739,-0.995541,-0.002212,-0.001917,-0.005481,-44.232662,231.082077,-111.303001,,,,,,
1465846417.33,-0.093595,-0.006756,-1.491781,-0.001406,0.067644,-0.001229,-0.093457,0.006756,-0.995600,-0.001651,0.000233,0.000071,-44.028164,231.075165,-111.398384,,,,,,
1465846417.34,-0.092949,-0.006753,-1.491795,-0.001393,0.077200,-0.001289,-0.092814,0.006753,-0.995661,-0.006308,-0.000573,-0.002539,-44.028164,231.075165,-111.398384,,,,,,
1465846417.35,-0.092080,-0.006765,-1.491821,-0.000308,0.092067,-0.002445,-0.091948,0.006765,-0.995741,-0.001451,0.000055,0.001448,-44.028164,231.075165,-111.398384,,,,,,
1465846417.36,-0.091077,-0.006787,-1.491841,-0.001365,0.098439,-0.002486,-0.090949,0.006787,-0.995832,0.000739,0.000873,-0.001924,-43.891796,231.075882,-111.450706,,,,,,
1465846417.37,-0.090040,-0.006815,-1.491860,0.000755,0.091006,-0.002438,-0.089916,0.006815,-0.995926,0.005032,0.001212,-0.002533,-43.891796,231.075882,-111.450706,,,,,,
1465846417.38,-0.089168,-0.006829,-1.491873,-0.001399,0.072954,-0.001262,-0.089048,0.006829,-0.996004,0.004621,0.000724,-0.005064,-43.891796,231.075882,-111.450706,,,,,,
,,,,,,,,,,,,,,,,29.720868,-95.401412,10.301153,-1.000000,-1.000000,1465846473.26
1465846417.39,-0.088409,-0.006831,-1.491884,-0.000355,0.054906,-0.002212,-0.088292,0.006831,-0.996071,0.008458,0.000035,-0.006675,-43.486229,231.082062,-111.596779,,,,,,
1465846417.40,-0.087851,-0.006802,-1.491889,-0.000375,0.040039,-0.001055,-0.087736,0.006802,-0.996121,0.006636,-0.001828,-0.004902,-43.486229,231.082062,-111.596779,,,,,,
,,,,,,,,,,,,,,,,29.720896,-95.401484,10.301153,-1.000000,-1.000000,1465846473.30
1465846417.41,-0.087406,-0.006784,-1.491888,-0.000389,0.030480,0.000070,-0.087293,0.006784,-0.996160,0.005811,-0.001260,-0.006785,-43.486229,231.082062,-111.596779,,,,,,
1465846417.42,-0.087089,-0.006771,-1.491892,-0.001462,0.021990,-0.000943,-0.086977,0.006771,-0.996187,0.003725,-0.001202,-0.005430,-43.343376,231.078461,-111.659782,,,,,,
1465846417.43,-0.086849,-0.006767,-1.491890,-0.000404,0.019860,0.001201,-0.086738,0.006767,-0.996208,0.001960,-0.000190,-0.002953,-43.343376,231.078461,-111.659782,,,,,,
1465846417.44,-0.086596,-0.006795,-1.491890,-0.001458,0.027296,0.000089,-0.086486,0.006795,-0.996230,-0.000459,0.001139,-0.003343,-43.343376,231.078461,-111.659782,,,,,,
1465846417.45,-0.086252,-0.006793,-1.491891,-0.002514,0.033668,0.000048,-0.086143,0.006793,-0.996260,0.000373,-0.001315,-0.000292,-43.203674,231.077621,-111.715683,,,,,,
1465846417.46,-0.085951,-0.006775,-1.491901,0.001747,0.033668,-0.001013,-0.085844,0.006775,-0.996286,-0.003527,-0.000550,-0.001349,-43.203674,231.077621,-111.715683,,,,,,
1465846417.47,-0.085654,-0.006777,-1.491913,-0.000369,0.044287,-0.001081,-0.085547,0.006777,-0.996311,-0.007272,-0.000353,-0.002438,-43.134628,231.074936,-111.747879,,,,,,
1465846417.48,-0.085139,-0.006789,-1.491920,0.000727,0.070827,-0.000182,-0.085034,0.006789,-0.996355,-0.007587,0.001145,0.003252,-43.134628,231.074936,-111.747879,,,,,,
1465846417.49,-0.084369,-0.006799,-1.491932,-0.002425,0.104806,-0.000399,-0.084267,0.006799,-0.996420,-0.012504,-0.000818,0.004294,-43.134628,231.074936,-111.747879,,,,,,
1465846417.50,-0.083236,-0.006821,-1.491950,-0.000253,0.136661,-0.001661,-0.083138,0.006820,-0.996515,-0.010367,0.000824,0.003030,-43.047886,231.075897,-111.779320,,,,,,
1465846417.51,-0.081766,-0.006851,-1.491981,-0.001283,0.163209,-0.002893,-0.081673,0.006851,-0.996636,-0.007377,0.000519,0.002831,-43.047886,231.075897,-111.779320,,,,,,
1465846417.52,-0.080058,-0.006869,-1.492007,-0.001261,0.180197,-0.002999,-0.079971,0.006869,-0.996774,-0.004654,0.000394,0.001900,-43.047886,231.075897,-111.779320,,,,,,
1465846417.53,-0.078216,-0.006896,-1.492041,-0.003373,0.194001,-0.003088,-0.078135,0.006896,-0.996919,-0.005682,-0.000304,0.001298,-43.047886,231.075897,-111.779320,,,,,,
1465846417.54,-0.076197,-0.006949,-1.492070,-0.004429,0.201434,-0.003136,-0.076121,0.006949,-0.997074,-0.000554,0.000955,-0.001308,-42.497959,231.082153,-111.976639,,,,,,
1465846417.55,-0.074116,-0.006998,-1.492097,-0.003367,0.200370,-0.002063,-0.074046,0.006998,-0.997230,0.001903,0.000998,-0.003746,-42.497959,231.082153,-111.976639,,,,,,
1465846417.56,-0.072156,-0.007037,-1.492131,-0.003375,0.192940,-0.003081,-0.072091,0.007037,-0.997373,-0.001624,0.000455,-0.002962,-42.497959,231.082153,-111.976639,,,,,,
1465846417.57,-0.070196,-0.007077,-1.492164,-0.003371,0.196125,-0.003101,-0.070136,0.007077,-0.997512,-0.001504,0.000126,-0.001313,-41.637310,231.097412,-112.268150,,,,,,
1465846417.58,-0.068109,-0.007086,-1.492199,-0.003345,0.216300,-0.003228,-0.068054,0.007086,-0.997656,-0.003449,-0.001318,0.000128,-41.637310,231.097412,-112.268150,,,,,,
1465846417.59,-0.065890,-0.007148,-1.492245,-0.003326,0.230106,-0.004379,-0.065841,0.007148,-0.997805,-0.005250,0.001489,0.000154,-41.637310,231.097412,-112.268150,,,,,,
1465846417.60,-0.063547,-0.007179,-1.492292,-0.004378,0.239662,-0.004440,-0.063503,0.007179,-0.997956,-0.004323,-0.000282,-0.000411,-41.197433,231.100708,-112.423492,,,,,,
1465846417.61,-0.061094,-0.007189,-1.492340,-0.004356,0.257712,-0.004553,-0.061054,0.007189,-0.998109,-0.006222,-0.001833,0.001969,-41.197433,231.100708,-112.423492,,,,,,
1465846417.62,-0.058447,-0.007204,-1.492384,-0.003258,0.285315,-0.003661,-0.058412,0.007204,-0.998267,-0.009703,-0.000918,0.003424,-40.704300,231.108261,-112.587471,,,,,,
1465846417.63,-0.055515,-0.007245,-1.492452,-0.004281,0.313992,-0.007035,-0.055485,0.007245,-0.998433,-0.010647,0.000324,0.004018,-40.704300,231.108261,-112.587471,,,,,,
1465846417.64,-0.052306,-0.007324,-1.492523,-0.005302,0.350090,-0.006198,-0.052280,0.007324,-0.998606,-0.014706,0.001679,0.004450,-40.704300,231.108261,-112.587471,,,,,,
,,,,,,,,,,,,,,,,29.719981,-95.399026,10.543806,-1.000000,-1.000000,1465846473.54
1465846417.65,-0.048720,-0.007392,-1.492597,-0.006307,0.397870,-0.006498,-0.048700,0.007392,-0.998786,-0.018805,0.000710,0.007636,-39.487457,231.117233,-113.001656,,,,,,
1465846417.66,-0.044577,-0.007456,-1.492681,-0.007290,0.461580,-0.007963,-0.044561,0.007456,-0.998979,-0.021967,-0.000483,0.012071,-39.487457,231.117233,-113.001656,,,,,,
1465846417.67,-0.039765,-0.007538,-1.492771,-0.008259,0.538028,-0.008444,-0.039753,0.007538,-0.999181,-0.027401,-0.000015,0.015905,-39.487457,231.117233,-113.001656,,,,,,
1465846417.68,-0.034118,-0.007647,-1.492881,-0.010277,0.622977,-0.011108,-0.034110,0.007647,-0.999389,-0.030724,0.000867,0.017303,-39.487457,231.117233,-113.001656,,,,,,
1465846417.69,-0.027496,-0.007743,-1.492991,-0.011240,0.705794,-0.010564,-0.027491,0.007743,-0.999592,-0.028524,-0.000968,0.015812,-37.505722,231.142334,-113.623756,,,,,,
1465846417.70,-0.020146,-0.007847,-1.493118,-0.012245,0.750395,-0.012973,-0.020144,0.007847,-0.999766,-0.014829,-0.000126,0.006114,-37.505722,231.142334,-113.623756,,,,,,
1465846417.71,-0.012577,-0.008025,-1.493228,-0.012259,0.741912,-0.009744,-0.012577,0.008025,-0.999889,-0.000622,0.002977,0.001521,-35.968147,231.157288,-114.089493,,,,,,
1465846417.72,-0.005784,-0.008142,-1.493365,-0.011298,0.650611,-0.014493,-0.005784,0.008142,-0.999950,0.028947,-0.000680,-0.022633,-35.968147,231.157288,-114.089493,,,,,,
1465846417.73,0.000042,-0.008250,-1.493464,-0.009284,0.565654,-0.009700,0.000042,0.008250,-0.999966,0.009891,0.001348,-0.013080,-35.968147,231.157288,-114.089493,,,,,,
1465846417.74,0.005736,-0.008343,-1.493566,-0.010329,0.579461,-0.010852,0.005736,0.008343,-0.999949,-0.003325,-0.000348,-0.004080,-34.382477,231.182816,-114.525833,,,,,,
1465846417.75,0.011921,-0.008469,-1.493684,-0.010234,0.654848,-0.011325,0.011921,0.008468,-0.999893,-0.017627,0.000916,0.008667,-34.382477,231.182816,-114.525833,,,,,,
1465846417.76,0.019150,-0.008609,-1.493799,-0.015445,0.745104,-0.011896,0.019148,0.008609,-0.999780,-0.028456,-0.001865,0.014199,-34.382477,231.182816,-114.525833,,,,,,
1465846417.77,0.027100,-0.008745,-1.493923,-0.013231,0.811996,-0.012314,0.027096,0.008745,-0.999595,-0.028286,0.000258,0.012763,-34.382477,231.182816,-114.525833,,,,,,
1465846417.78,0.035693,-0.008880,-1.494051,-0.014216,0.875705,-0.012714,0.035684,0.008880,-0.999324,-0.029840,0.001114,0.015681,-31.618441,231.221725,-115.241455,,,,,,
1465846417.79,0.044786,-0.009032,-1.494200,-0.017345,0.922434,-0.016204,0.044769,0.009032,-0.998957,-0.018142,-0.004408,0.005014,-31.618441,231.221725,-115.241455,,,,,,
1465846417.80,0.054292,-0.009186,-1.494346,-0.013042,0.959592,-0.015368,0.054263,0.009186,-0.998484,-0.023715,0.003998,0.012400,-29.767799,231.244293,-115.688210,,,,,,
1465846417.81,0.064313,-0.009367,-1.494487,-0.019355,1.019057,-0.015747,0.064266,0.009367,-0.997889,-0.029461,-0.003706,0.008036,-29.767799,231.244293,-115.688210,,,,,,
1465846417.82,0.075099,-0.009573,-1.494666,-0.019247,1.098703,-0.020505,0.075025,0.009573,-0.997136,-0.026502,0.000864,0.016240,-29.767799,231.244293,-115.688210,,,,,,
1465846417.83,0.086740,-0.009791,-1.494848,-0.021265,1.188955,-0.020008,0.086627,0.009790,-0.996193,-0.046237,0.000753,0.023521,-25.340374,231.302689,-116.622231,,,,,,
1465846417.84,0.099708,-0.010037,-1.495038,-0.023209,1.335487,-0.021994,0.099538,0.010037,-0.994983,-0.050633,-0.000057,0.028980,-25.340374,231.302689,-116.622231,,,,,,
1465846417.85,0.114077,-0.010308,-1.495252,-0.025168,1.469279,-0.023899,0.113824,0.010308,-0.993447,-0.053704,0.000434,0.033319,-25.340374,231.302689,-116.622231,,,,,,
1465846417.86,0.129764,-0.010608,-1.495468,-0.027125,1.605193,-0.025818,0.129393,0.010608,-0.991537,-0.062742,0.000928,0.032766,-22.558882,231.343063,-117.112328,,,,,,
1465846417.87,0.146958,-0.010923,-1.495692,-0.029068,1.755967,-0.025701,0.146421,0.010922,-0.989162,-0.065015,0.001666,0.042659,-22.558882,231.343063,-117.112328,,,,,,
1465846417.88,0.165416,-0.011247,-1.495923,-0.028918,1.871710,-0.028556,0.164653,0.011246,-0.986288,-0.046717,-0.001969,0.023733,-22.558882,231.343063,-117.112328,,,,,,
1465846417.90,0.202938,-0.011956,-1.496400,-0.032142,1.846231,-0.029464,0.201533,0.011956,-0.979409,-0.002787,-0.002419,-0.002784,-15.067549,231.450882,-118.098557,,,,,,
1465846417.89,0.184363,-0.011594,-1.496170,-0.029957,1.890826,-0.029741,0.183308,0.011594,-0.982987,-0.013783,0.000079,0.016328,-15.067549,231.450882,-118.098557,,,,,,
1465846417.91,0.221024,-0.012304,-1.496613,-0.026885,1.793138,-0.029125,0.219212,0.012304,-0.975600,-0.002415,-0.000219,-0.001268,-15.067549,231.450882,-118.098557,,,,,,
1465846417.92,0.238468,-0.012640,-1.496820,-0.028033,1.728366,-0.027656,0.236195,0.012640,-0.971623,0.004283,0.000544,-0.013438,-15.067549,231.450882,-118.098557,,,,,,
1465846417.94,0.271911,-0.013319,-1.497234,-0.029166,1.668914,-0.030477,0.268549,0.013318,-0.963174,-0.019434,-0.001920,-0.000647,-6.684292,231.578690,-118.618881,,,,,,
1465846417.93,0.255285,-0.012971,-1.497024,-0.027041,1.668907,-0.028346,0.252500,0.012970,-0.967510,0.001620,0.002197,-0.005802,-6.684292,231.578690,-118.618881,,,,,,
1465846417.95,0.289349,-0.013682,-1.497424,-0.029036,1.777209,-0.027963,0.285302,0.013681,-0.958340,-0.051949,-0.000711,0.019390,-6.684292,231.578690,-118.618881,,,,,,
1465846417.96,0.308259,-0.014057,-1.497625,-0.030976,1.924807,-0.031020,0.303370,0.014057,-0.952769,-0.052943,-0.000934,0.026240,-2.848394,231.641418,-118.650536,,,,,,
1465846417.97,0.328102,-0.014474,-1.497836,-0.033015,1.995951,-0.032532,0.322214,0.014473,-0.946556,-0.036142,-0.002221,0.021294,-2.848394,231.641418,-118.650536,,,,,,
1465846417.99,0.368735,-0.015310,-1.498252,-0.033973,2.078776,-0.034117,0.360393,0.015309,-0.932675,-0.043316,-0.001301,0.020687,1.327637,231.711624,-118.540161,,,,,,
1465846417.98,0.348164,-0.014877,-1.498051,-0.030863,2.009760,-0.034746,0.341134,0.014876,-0.939897,-0.032998,0.000306,0.011201,1.327637,231.711624,-118.540161,,,,,,
1465846418.00,0.390400,-0.015793,-1.498449,-0.038076,2.199829,-0.037009,0.380511,0.015793,-0.924642,-0.048602,-0.003067,0.016637,1.327637,231.711624,-118.540161,,,,,,
1465846418.01,0.413445,-0.016299,-1.498655,-0.037901,2.337866,-0.038939,0.401713,0.016298,-0.915620,-0.060283,-0.000872,0.034471,10.720982,231.879425,-117.731903,,,,,,
1465846418.02,0.437962,-0.016855,-1.498839,-0.044096,2.491831,-0.039911,0.424035,0.016854,-0.905489,-0.070260,-0.002862,0.031725,10.720982,231.879425,-117.731903,,,,,,
1465846418.03,0.464332,-0.017438,-1.499034,-0.043844,2.687211,-0.044330,0.447757,0.017437,-0.893985,-0.085056,0.000874,0.046420,10.720982,231.879425,-117.731903,,,,,,
1465846418.05,0.523459,-0.018746,-1.499393,-0.051838,3.100265,-0.050122,0.499792,0.018745,-0.865943,-0.072667,0.000176,0.045997,16.120853,231.985657,-116.904190,,,,,,
1465846418.04,0.492879,-0.018060,-1.499216,-0.048890,2.912310,-0.043618,0.473087,0.018059,-0.880831,-0.092090,-0.000328,0.054934,16.120853,231.985657,-116.904190,,,,,,
1465846418.06,0.555495,-0.019483,-1.499555,-0.056994,3.235114,-0.049908,0.527264,0.019482,-0.849478,-0.069790,-0.001706,0.046896,16.120853,231.985657,-116.904190,,,,,,
1465846418.07,0.588964,-0.020217,-1.499692,-0.053612,3.383768,-0.051901,0.555387,0.020215,-0.831347,-0.071500,0.000964,0.042574,29.256569,232.255936,-113.776299,,,,,,
1465846418.08,0.623265,-0.020974,-1.499796,-0.056754,3.425179,-0.052164,0.583561,0.020972,-0.811798,-0.016926,-0.000266,0.025086,29.256569,232.255936,-113.776299,,,,,,
1465846418.09,0.656309,-0.021713,-1.499898,-0.053781,3.246798,-0.052107,0.610053,0.021711,-0.792063,0.039941,-0.001478,-0.016119,29.256569,232.255936,-113.776299,,,,,,
1465846418.10,0.686635,-0.022368,-1.499965,-0.045645,2.950536,-0.044919,0.633780,0.022367,-0.773190,0.070612,0.002917,-0.035419,36.647228,232.414291,-111.285187,,,,,,
1465846418.11,0.713437,-0.022957,-1.499999,-0.041856,2.581018,-0.039404,0.654264,0.022955,-0.755917,0.116976,-0.003149,-0.069812,36.647228,232.414291,-111.285187,,,,,,
1465846418.12,0.736120,-0.023458,-1.499999,-0.034945,2.159461,-0.030367,0.671233,0.023455,-0.740876,0.138155,-0.004794,-0.089874,36.647228,232.414291,-111.285187,,,,,,
1465846418.13,0.753927,-0.023849,-1.500011,-0.027076,1.643419,-0.026058,0.684312,0.023847,-0.728799,0.186827,0.000170,-0.113440,48.524075,232.684006,-106.053688,,,,,,
1465846418.14,0.765756,-0.024130,-1.499990,-0.018282,1.026486,-0.014729,0.692880,0.024128,-0.720649,0.192679,-0.003452,-0.123650,48.524075,232.684006,-106.053688,,,,,,
1465846418.15,0.771875,-0.024277,-1.500010,-0.008313,0.487082,-0.010271,0.697274,0.024275,-0.716393,0.148413,-0.001616,-0.089713,48.524075,232.684006,-106.053688,,,,,,
1465846418.16,0.774007,-0.024361,-1.500002,-0.004494,0.140924,-0.004903,0.698799,0.024359,-0.714904,0.091179,-0.001166,-0.062120,51.538223,232.759033,-104.455009,,,,,,
1465846418.18,0.774006,-0.024398,-1.499997,0.000606,-0.030041,0.000432,0.698798,0.024395,-0.714903,0.019052,0.001209,-0.013185,51.538223,232.759033,-104.455009,,,,,,
1465846418.17,0.774253,-0.024386,-1.499999,-0.000416,0.000758,-0.001891,0.698975,0.024384,-0.714731,0.050629,0.001541,-0.027731,51.538223,232.759033,-104.455009,,,,,,
1465846418.19,0.773711,-0.024387,-1.499994,0.000608,-0.026858,0.001476,0.698587,0.024384,-0.715110,0.007422,0.000197,-0.004953,52.353634,232.788498,-103.982803,,,,,,
1465846418.21,0.773343,-0.024358,-1.500005,0.001682,-0.021547,0.000380,0.698324,0.024355,-0.715367,0.008936,-0.000674,-0.007106,52.353634,232.788498,-103.982803,,,,,,
1465846418.20,0.773538,-0.024376,-1.500000,0.001690,-0.015176,0.000340,0.698463,0.024374,-0.715231,0.006691,0.000056,-0.008722,52.353634,232.788498,-103.982803,,,,,,
1465846418.22,0.773016,-0.024347,-1.500010,0.001663,-0.036412,0.000473,0.698090,0.024344,-0.715596,-0.000428,-0.001883,-0.002971,52.353634,232.788498,-103.982803,,,,,,
1465846418.23,0.772668,-0.024320,-1.500022,0.002731,-0.032168,0.001512,0.697841,0.024318,-0.715839,-0.014675,-0.002299,0.002140,52.353634,232.788498,-103.982803,,,,,,
1465846418.24,0.772803,-0.024326,-1.500014,-0.001442,0.032610,-0.001028,0.697938,0.024323,-0.715745,-0.024797,-0.000886,0.011262,52.353634,232.788498,-103.982803,,,,,,
1465846418.25,0.773872,-0.024361,-1.500016,-0.002378,0.133484,-0.002726,0.698703,0.024358,-0.714997,-0.037127,-0.001623,0.018357,52.237389,232.779877,-104.060547,,,,,,
1465846418.26,0.776211,-0.024412,-1.500028,-0.003269,0.270460,-0.004650,0.700372,0.024409,-0.713361,-0.046044,0.000188,0.025662,52.237389,232.779877,-104.060547,,,,,,
1465846418.27,0.779972,-0.024483,-1.500040,-0.006282,0.412746,-0.006610,0.703049,0.024480,-0.710720,-0.051804,-0.003835,0.024258,52.237389,232.779877,-104.060547,,,,,,
1465846418.29,0.792541,-0.024786,-1.500045,-0.010081,0.772711,-0.013129,0.711921,0.024783,-0.701823,-0.053962,-0.002902,0.031687,52.575493,232.788940,-103.869827,,,,,,
1465846418.28,0.785301,-0.024638,-1.500034,-0.014590,0.577336,-0.009779,0.706823,0.024636,-0.706961,-0.066992,0.003440,0.036200,52.575493,232.788940,-103.869827,,,,,,
1465846418.30,0.801518,-0.025003,-1.500037,-0.016266,0.933049,-0.015205,0.718188,0.025000,-0.695400,-0.054934,0.000054,0.025707,52.575493,232.788940,-103.869827,,,,,,
1465846418.31,0.811864,-0.025233,-1.500049,-0.016094,1.066842,-0.018173,0.725340,0.025231,-0.687928,-0.045256,-0.001564,0.023774,55.086620,232.854202,-102.411896,,,,,,
1465846418.32,0.823416,-0.025520,-1.500040,-0.021269,1.182587,-0.021033,0.733233,0.025517,-0.679498,-0.048495,-0.000142,0.022470,55.086620,232.854202,-102.411896,,,,,,
1465846418.33,0.836216,-0.025838,-1.500037,-0.021095,1.317442,-0.024008,0.741865,0.025835,-0.670052,-0.070142,-0.000963,0.039299,55.086620,232.854202,-102.411896,,,,,,
1465846418.34,0.850928,-0.026205,-1.500048,-0.025079,1.529816,-0.029601,0.751634,0.026202,-0.659059,-0.095689,-0.002124,0.058672,57.227112,232.911346,-101.099815,,,,,,
1465846418.35,0.868490,-0.026698,-1.500090,-0.032110,1.844152,-0.045418,0.763083,0.026695,-0.645750,-0.200384,-0.008201,0.112684,57.227112,232.911346,-101.099815,,,,,,
1465846418.36,0.891397,-0.027238,-1.500044,-0.035605,2.470588,-0.038705,0.777662,0.027235,-0.628093,-0.253492,-0.003385,0.170863,57.227112,232.911346,-101.099815,,,,,,
1465846418.37,0.922683,-0.027986,-1.499998,-0.055765,3.351935,-0.059155,0.796912,0.027983,-0.603447,-0.248038,0.000383,0.189079,63.650528,233.101059,-96.728050,,,,,,
1465846418.39,1.009881,-0.030004,-1.499674,-0.078239,4.936195,-0.082951,0.846388,0.029999,-0.531722,-0.245512,-0.000519,0.230132,63.650528,233.101059,-96.728050,,,,,,
1465846418.38,0.962357,-0.028931,-1.499861,-0.067507,4.168482,-0.069610,0.820198,0.028927,-0.571348,-0.270988,-0.003964,0.218794,63.650528,233.101059,-96.728050,,,,,,
1465846418.40,1.064775,-0.031250,-1.499368,-0.092212,5.673105,-0.091845,0.874253,0.031245,-0.484465,-0.231568,0.001119,0.240400,70.048355,233.293930,-91.711418,,,,,,
1465846418.42,1.196279,-0.034120,-1.498336,-0.113884,7.045009,-0.116437,0.930143,0.034113,-0.365610,-0.107023,-0.001078,0.247584,70.048355,233.293930,-91.711418,,,,,,
1465846418.41,1.127213,-0.032634,-1.498924,-0.107223,6.423833,-0.106148,0.902739,0.032629,-0.428950,-0.169096,0.003550,0.263301,70.048355,233.293930,-91.711418,,,,,,
1465846418.43,1.270354,-0.035661,-1.497591,-0.125004,7.520696,-0.117303,0.954598,0.035654,-0.295755,-0.065011,0.007605,0.267648,88.397446,233.914383,-72.206398,,,,,,
1465846418.44,1.348279,-0.037183,-1.496712,-0.124565,7.858370,-0.126871,0.974671,0.037175,-0.220533,0.074661,0.006893,0.215238,88.397446,233.914383,-72.206398,,,,,,
1465846418.45,1.427193,-0.038627,-1.495686,-0.126709,7.857292,-0.120480,0.988969,0.038617,-0.143003,0.194244,0.005984,0.136488,88.397446,233.914383,-72.206398,,,,,,
1465846418.46,1.502888,-0.040052,-1.494601,-0.122941,7.443225,-0.131717,0.996895,0.040042,-0.067801,0.235817,0.002973,0.082358,97.692444,234.302475,-57.466072,,,,,,
1465846418.47,1.573573,-0.041303,-1.493491,-0.109754,6.936712,-0.118947,0.999143,0.041291,0.002774,0.222689,0.004592,0.069003,97.692444,234.302475,-57.466072,,,,,,
1465846418.48,1.640358,-0.042344,-1.492334,-0.112323,6.597978,-0.109374,0.996687,0.042332,0.069443,0.263521,0.005901,0.050689,97.692444,234.302475,-57.466072,,,,,,
1465846418.49,1.703638,-0.043289,-1.491191,-0.102169,6.213585,-0.101631,0.990261,0.043275,0.132328,0.308232,0.011046,-0.004367,108.817802,235.005234,-25.981461,,,,,,
1465846418.51,1.810947,-0.044627,-1.489136,-0.075315,4.747146,-0.064732,0.970335,0.044612,0.237613,0.415178,0.013722,-0.125613,108.817802,235.005234,-25.981461,,,,,,
1465846418.50,1.761209,-0.044079,-1.490101,-0.095517,5.584977,-0.091295,0.980972,0.044064,0.189080,0.340759,0.003818,-0.051294,108.817802,235.005234,-25.981461,,,,,,
1465846418.52,1.850032,-0.045017,-1.488456,-0.052302,3.573836,-0.055221,0.960293,0.045002,0.275341,0.595005,0.001476,-0.272854,108.817802,235.005234,-25.981461,,,,,,
1465846418.53,1.873446,-0.045284,-1.487896,-0.040576,1.900405,-0.036199,0.953572,0.045269,0.297745,0.596782,0.002171,-0.346298,110.986389,235.417740,-2.079132,,,,,,
1465846418.54,1.880344,-0.045469,-1.487709,-0.004240,0.321465,-0.018809,0.951487,0.045453,0.304313,0.441045,-0.000180,-0.244560,110.986389,235.417740,-2.079132,,,,,,
1465846418.55,1.876462,-0.045512,-1.487758,0.008480,-0.550319,0.000509,0.952659,0.045497,0.300617,0.229699,0.000585,-0.130176,110.986389,235.417740,-2.079132,,,,,,
1465846418.56,1.869919,-0.045499,-1.487844,0.007297,-0.639519,0.004261,0.954607,0.045483,0.294377,0.076705,0.000034,-0.023548,110.986389,235.417740,-2.079132,,,,,,
1465846418.57,1.864936,-0.045520,-1.487938,0.009679,-0.445198,-0.001213,0.956061,0.045505,0.289616,-0.026526,0.001874,0.013668,110.986389,235.417740,-2.079132,,,,,,
1465846418.58,1.862585,-0.045549,-1.487945,0.000463,-0.154257,-0.004112,0.956737,0.045533,0.287368,-0.119030,0.001922,0.072022,110.855003,235.488708,0.229340,,,,,,
1465846418.59,1.864167,-0.045607,-1.487908,-0.003254,0.275778,-0.007877,0.956279,0.045591,0.288879,-0.186122,-0.000517,0.097549,110.855003,235.488708,0.229340,,,,,,
1465846418.60,1.871618,-0.045704,-1.487711,-0.020538,0.918192,-0.017245,0.954096,0.045688,0.295995,-0.224955,-0.002292,0.127070,110.855003,235.488708,0.229340,,,,,,
1465846418.61,1.886477,-0.045889,-1.487377,-0.027023,1.676346,-0.030522,0.949584,0.045873,0.310137,-0.251281,-0.000280,0.147977,110.799011,235.514771,0.432552,,,,,,
1465846418.62,1.908959,-0.046137,-1.486897,-0.042034,2.433434,-0.040608,0.942362,0.046121,0.331401,-0.242502,-0.000222,0.153752,110.799011,235.514771,0.432552,,,,,,
1465846418.63,1.938542,-0.046406,-1.486265,-0.051821,3.113004,-0.049137,0.932136,0.046390,0.359126,-0.181449,-0.000186,0.139379,110.799011,235.514771,0.432552,,,,,,
1465846418.64,1.973467,-0.046755,-1.485480,-0.063966,3.598287,-0.063902,0.919012,0.046738,0.391449,-0.168616,-0.001130,0.123032,110.546059,235.586899,4.711529,,,,,,
1465846418.65,2.013189,-0.047098,-1.484600,-0.064403,4.092037,-0.071257,0.902728,0.047080,0.427628,-0.150546,-0.000007,0.153564,110.546059,235.586899,4.711529,,,,,,
1465846418.66,2.058031,-0.047493,-1.483590,-0.078635,4.617657,-0.082019,0.882634,0.047476,0.467656,-0.162954,-0.000402,0.154948,109.748535,235.697632,12.070324,,,,,,
1465846418.67,2.109113,-0.047865,-1.482362,-0.089516,5.261148,-0.097774,0.857589,0.047846,0.512105,-0.164428,0.005697,0.203288,109.748535,235.697632,12.070324,,,,,,
1465846418.68,2.167254,-0.048202,-1.481008,-0.100344,5.968313,-0.101156,0.826370,0.048183,0.561063,-0.170700,0.006962,0.236804,109.748535,235.697632,12.070324,,,,,,
1465846418.69,2.232693,-0.048428,-1.479393,-0.120671,6.727532,-0.113389,0.787903,0.048409,0.613894,-0.167420,0.005561,0.283476,104.502769,235.990524,33.637070,,,,,,
1465846418.70,2.305725,-0.048589,-1.477697,-0.120781,7.480365,-0.123432,0.741003,0.048570,0.669743,-0.120398,0.000014,0.307461,104.502769,235.990524,33.637070,,,,,,
1465846418.71,2.385672,-0.048587,-1.475754,-0.144410,8.142985,-0.140400,0.685149,0.048567,0.726782,-0.048827,0.007249,0.323542,104.502769,235.990524,33.637070,,,,,,
1465846418.72,2.470807,-0.048479,-1.473708,-0.140637,8.591088,-0.151723,0.620871,0.048460,0.782413,0.055536,0.006838,0.306744,104.502769,235.990524,33.637070,,,,,,
1465846418.73,2.558492,-0.048179,-1.471643,-0.148905,8.788590,-0.154034,0.549976,0.048161,0.833791,0.131283,0.006893,0.289210,88.303658,236.238663,64.323959,,,,,,
1465846418.75,2.736172,-0.046961,-1.467546,-0.143436,8.912804,-0.149485,0.393971,0.046943,0.917923,0.219951,0.015053,0.285308,88.303658,236.238663,64.323959,,,,,,
1465846418.74,2.647027,-0.047614,-1.469541,-0.157343,8.860783,-0.149173,0.474111,0.047596,0.879177,0.160364,0.011501,0.293293,88.303658,236.238663,64.323959,,,,,,
1465846418.76,2.825178,-0.046089,-1.465642,-0.150953,8.868200,-0.144955,0.310831,0.046073,0.949348,0.296118,0.004953,0.257943,74.906944,236.266998,79.439743,,,,,,
1465846418.78,2.990960,-0.044038,-1.462200,-0.129942,7.803184,-0.131868,0.149918,0.044024,0.987718,0.385818,0.003660,0.150115,74.906944,236.266998,79.439743,,,,,,
1465846418.77,2.911163,-0.045100,-1.463799,-0.142932,8.457305,-0.151950,0.228163,0.045084,0.972578,0.402604,0.014822,0.167192,74.906944,236.266998,79.439743,,,,,,
1465846418.79,3.064416,-0.043010,-1.460821,-0.113692,7.178833,-0.126872,0.077029,0.042997,0.996101,0.456769,0.017657,0.068092,42.181740,236.089111,101.125885,,,,,,
1465846418.80,3.130767,-0.041954,-1.459645,-0.108278,6.421730,-0.109345,0.010816,0.041941,0.999062,0.483111,0.002889,0.009468,42.181740,236.089111,101.125885,,,,,,
1465846418.81,-3.095524,-0.040967,-1.458683,-0.091443,5.431026,-0.091406,-0.046013,0.040956,0.998101,0.491326,0.015319,-0.073632,27.092508,235.933990,106.512741,,,,,,
1465846418.82,-3.049281,-0.040174,-1.457925,-0.069398,4.341588,-0.078165,-0.092106,0.040163,0.994939,0.504048,0.006925,-0.126882,27.092508,235.933990,106.512741,,,,,,
1465846418.83,-3.014023,-0.039496,-1.457372,-0.059080,3.252135,-0.057484,-0.127125,0.039485,0.991101,0.490162,0.006612,-0.170712,27.092508,235.933990,106.512741,,,,,,
1465846418.84,-2.989271,-0.039035,-1.456997,-0.033782,2.220014,-0.038212,-0.151618,0.039025,0.987669,0.448630,0.004951,-0.177167,15.548139,235.787781,109.115509,,,,,,
1465846418.85,-2.974618,-0.038745,-1.456748,-0.023342,1.215526,-0.025515,-0.166075,0.038736,0.985352,0.432326,0.010688,-0.220398,15.548139,235.787781,109.115509,,,,,,
1465846418.86,-2.969870,-0.038618,-1.456655,-0.005440,0.226946,-0.007588,-0.170752,0.038608,0.984557,0.394889,0.003063,-0.202895,15.548139,235.787781,109.115509,,,,,,
1465846418.87,-2.974691,-0.038728,-1.456696,0.012531,-0.705361,0.011050,-0.166003,0.038718,0.985365,0.365680,0.003838,-0.207975,15.548139,235.787781,109.115509,,,,,,
1465846418.88,-2.988110,-0.038973,-1.456879,0.025295,-1.550586,0.024879,-0.152765,0.038964,0.987494,0.351801,0.005165,-0.183905,6.491302,235.652847,110.315018,,,,,,
1465846418.90,-3.039171,-0.039953,-1.457602,0.049922,-3.105137,0.055942,-0.102162,0.039942,0.993966,0.295078,0.003103,-0.124764,6.491302,235.652847,110.315018,,,,,,
1465846418.89,-3.009837,-0.039423,-1.457160,0.044474,-2.378819,0.036479,-0.131272,0.039413,0.990563,0.329652,0.004823,-0.171425,6.491302,235.652847,110.315018,,,,,,
1465846418.91,-3.075418,-0.040641,-1.458181,0.067144,-3.800635,0.063515,-0.066071,0.040629,0.996987,0.312211,0.012059,-0.131204,14.364394,235.772263,109.311111,,,,,,
1465846418.93,3.112930,-0.042228,-1.459722,0.087632,-5.267039,0.088699,0.028633,0.042215,0.998698,0.262627,0.010244,-0.053401,14.364394,235.772263,109.311111,,,,,,
1465846418.92,-3.119164,-0.041389,-1.458868,0.074690,-4.565155,0.074704,-0.022408,0.041378,0.998892,0.298516,0.004796,-0.092825,14.364394,235.772263,109.311111,,,,,,
1465846418.94,3.056351,-0.043124,-1.460718,0.096578,-5.771406,0.094000,0.085059,0.043111,0.995443,0.240533,0.006175,0.010233,23.353636,235.893723,107.482903,,,,,,
1465846418.95,2.995803,-0.043986,-1.461869,0.101433,-6.122903,0.110047,0.145133,0.043971,0.988435,0.172952,0.001454,0.066268,23.353636,235.893723,107.482903,,,,,,
1465846418.96,2.932353,-0.044885,-1.463072,0.109619,-6.403197,0.102233,0.207507,0.044870,0.977204,0.159040,0.017829,0.091857,35.160427,236.030853,103.908554,,,,,,
1465846418.97,2.866995,-0.045712,-1.464399,0.112602,-6.559304,0.110666,0.270877,0.045696,0.961529,0.085996,0.003422,0.149799,35.160427,236.030853,103.908554,,,,,,
1465846418.98,2.801407,-0.046437,-1.465841,0.112624,-6.539135,0.112668,0.333302,0.046420,0.941677,0.074458,0.009702,0.172001,35.160427,236.030853,103.908554,,,,,,
1465846418.99,2.736125,-0.047053,-1.467200,0.106288,-6.513620,0.101858,0.394012,0.047036,0.917901,0.025529,0.009880,0.194632,35.160427,236.030853,103.908554,,,,,,
1465846419.00,2.672511,-0.047573,-1.468653,0.108704,-6.270494,0.109915,0.451556,0.047555,0.890975,-0.089084,-0.000085,0.246644,61.086056,236.245407,90.556122,,,,,,
1465846419.02,2.559439,-0.048311,-1.471292,0.088699,-5.263857,0.089744,0.549182,0.048292,0.834306,-0.150165,0.003649,0.242507,61.086056,236.245407,90.556122,,,,,,
1465846419.01,2.613402,-0.048023,-1.470034,0.101894,-5.774600,0.096154,0.503390,0.048005,0.862725,-0.100635,0.005432,0.252235,61.086056,236.245407,90.556122,,,,,,
1465846419.03,2.510641,-0.048561,-1.472470,0.085113,-4.741425,0.077948,0.589218,0.048542,0.806515,-0.182647,0.001782,0.239536,81.817238,236.290741,72.224899,,,,,,
1465846419.05,2.430985,-0.048761,-1.474349,0.057941,-3.503317,0.058447,0.651519,0.048741,0.757065,-0.237731,0.005229,0.212616,81.817238,236.290741,72.224899,,,,,,
1465846419.04,2.467692,-0.048668,-1.473506,0.068840,-4.133004,0.074116,0.623300,0.048649,0.780468,-0.212671,0.002834,0.228733,81.817238,236.290741,72.224899,,,,,,
1465846419.06,2.401557,-0.048788,-1.475123,0.052503,-2.747307,0.052636,0.673512,0.048769,0.737566,-0.267719,-0.003069,0.216703,88.439041,236.264465,64.042603,,,,,,
1465846419.07,2.379433,-0.048812,-1.475637,0.030010,-2.030535,0.032152,0.689663,0.048792,0.722485,-0.251857,0.005010,0.171253,88.439041,236.264465,64.042603,,,,,,
1465846419.08,2.364406,-0.048800,-1.475998,0.025576,-1.324428,0.025590,0.700442,0.048781,0.712041,-0.286929,-0.000426,0.182125,88.439041,236.264465,64.042603,,,,,,
1465846419.09,2.356751,-0.048816,-1.476212,0.010579,-0.566261,0.009111,0.705871,0.048796,0.706657,-0.284546,0.003297,0.160957,94.961418,236.205093,54.159912,,,,,,
1465846419.10,2.357206,-0.048765,-1.476190,-0.008621,0.248163,-0.000274,0.705552,0.048745,0.706980,-0.292069,-0.001184,0.166204,94.961418,236.205093,54.159912,,,,,,
1465846419.11,2.365458,-0.048788,-1.476016,-0.014023,1.012702,-0.018912,0.699693,0.048769,0.712777,-0.266465,0.001890,0.147864,94.961418,236.205093,54.159912,,,,,,
1465846419.13,2.402636,-0.048731,-1.475110,-0.038983,2.314520,-0.039875,0.672717,0.048711,0.738294,-0.203555,0.004694,0.121752,95.386429,236.195663,53.449486,,,,,,
1465846419.12,2.380943,-0.048743,-1.475625,-0.033365,1.713514,-0.027584,0.688574,0.048724,0.723528,-0.249151,-0.003314,0.144850,95.386429,236.195663,53.449486,,,,,,
1465846419.14,2.429720,-0.048697,-1.474478,-0.046857,2.823137,-0.046266,0.652479,0.048678,0.756242,-0.163099,-0.000109,0.118849,95.386429,236.195663,53.449486,,,,,,
1465846419.15,2.461277,-0.048633,-1.473697,-0.056928,3.269122,-0.057588,0.628295,0.048614,0.776455,-0.148833,0.003998,0.106373,90.972939,236.239105,60.488132,,,,,,
1465846419.16,2.497943,-0.048509,-1.472885,-0.060542,3.789396,-0.056597,0.599413,0.048490,0.798970,-0.138613,-0.000028,0.138713,90.972939,236.239105,60.488132,,,,,,
1465846419.17,2.538980,-0.048352,-1.471853,-0.079166,4.190820,-0.078293,0.566134,0.048333,0.822895,-0.055895,0.004279,0.098385,90.972939,236.239105,60.488132,,,,,,
1465846419.18,2.583225,-0.048114,-1.470806,-0.074553,4.481737,-0.074791,0.529189,0.048095,0.847140,-0.060515,-0.002868,0.128126,86.368835,236.265778,66.803558,,,,,,
1465846419.19,2.630237,-0.047853,-1.469702,-0.082701,4.766322,-0.082971,0.488800,0.047835,0.871084,-0.016464,0.006059,0.111765,86.368835,236.265778,66.803558,,,,,,
1465846419.20,2.679531,-0.047480,-1.468552,-0.084585,4.966995,-0.081038,0.445292,0.047462,0.894127,0.014471,0.006112,0.104790,86.368835,236.265778,66.803558,,,,,,
1465846419.22,2.781009,-0.046577,-1.466317,-0.086583,5.075294,-0.079590,0.352438,0.046560,0.934676,0.082804,0.004740,0.084870,72.094711,236.280609,81.961197,,,,,,
1465846419.21,2.730157,-0.047070,-1.467418,-0.087629,5.076380,-0.088114,0.399483,0.047053,0.915532,0.071281,0.007284,0.094966,72.094711,236.280609,81.961197,,,,,,
1465846419.23,2.831466,-0.046084,-1.465241,-0.080247,5.012680,-0.091965,0.304855,0.046068,0.951284,0.166763,0.001219,0.063365,72.094711,236.280609,81.961197,,,,,,
1465846419.25,2.922658,-0.045200,-1.463277,-0.069579,4.197180,-0.076195,0.216968,0.045184,0.975133,0.215833,0.033414,-0.020314,63.011879,236.247238,89.221985,,,,,,
1465846419.24,2.879484,-0.045670,-1.464207,-0.066798,4.701561,-0.088935,0.258848,0.045655,0.964839,0.224810,-0.036759,0.036184,63.011879,236.247238,89.221985,,,,,,
1465846419.26,2.961945,-0.044667,-1.462531,-0.067928,3.839310,-0.059047,0.178505,0.044652,0.982925,0.195885,0.012401,-0.003525,63.011879,236.247238,89.221985,,,,,,
1465846419.28,3.030169,-0.043605,-1.461244,-0.047651,3.033383,-0.050779,0.111088,0.043591,0.992854,0.294537,0.002521,-0.068294,45.146629,236.147125,99.700233,,,,,,
1465846419.27,2.998320,-0.044051,-1.461872,-0.070411,3.564293,-0.053066,0.142645,0.044037,0.988794,0.234217,0.023300,-0.065942,45.146629,236.147125,99.700233,,,,,,
1465846419.29,3.055115,-0.043213,-1.460729,-0.042188,2.301786,-0.041927,0.086289,0.043200,0.995333,0.292220,-0.014193,-0.082583,45.146629,236.147125,99.700233,,,,,,
1465846419.30,3.073202,-0.042971,-1.460405,-0.025957,1.680587,-0.025241,0.068274,0.042958,0.996741,0.255823,0.017147,-0.119666,37.976971,236.068222,102.826836,,,,,,
1465846419.31,3.086143,-0.042664,-1.460216,-0.034063,1.171967,-0.014609,0.055371,0.042651,0.997554,0.266849,0.044324,-0.165249,37.976971,236.068222,102.826836,,,,,,
1465846419.32,3.093220,-0.042448,-1.460056,-0.012517,0.520015,-0.012627,0.048310,0.042436,0.997931,0.314025,0.001678,-0.116095,37.976971,236.068222,102.826836,,,,,,
1465846419.33,3.092335,-0.042517,-1.460067,0.009880,-0.285928,0.000965,0.049193,0.042504,0.997885,0.279222,-0.030602,-0.154928,31.160984,235.976089,105.300003,,,,,,
1465846419.34,3.084017,-0.042747,-1.460177,0.029213,-0.988872,0.012844,0.057491,0.042734,0.997431,0.250309,-0.016748,-0.108729,31.160984,235.976089,105.300003,,,,,,
1465846419.35,3.070372,-0.043084,-1.460415,0.033913,-1.478380,0.021241,0.071094,0.043071,0.996539,0.215298,-0.002192,-0.115375,31.160984,235.976089,105.300003,,,,,,
1465846419.37,3.030726,-0.043666,-1.461132,0.035042,-2.247176,0.044160,0.110534,0.043652,0.992913,0.127061,0.028354,-0.110360,32.152634,236.004822,104.936859,,,,,,
1465846419.36,3.052431,-0.043368,-1.460684,0.028077,-1.882931,0.025902,0.088960,0.043355,0.995091,0.187651,0.035106,-0.106129,32.152634,236.004822,104.936859,,,,,,
1465846419.38,3.006063,-0.044022,-1.461609,0.046384,-2.547663,0.042862,0.134984,0.044007,0.989870,0.154017,-0.009767,-0.028093,32.152634,236.004822,104.936859,,,,,,
1465846419.39,2.976676,-0.044477,-1.462131,0.052103,-3.079633,0.047269,0.164007,0.044462,0.985457,0.163950,-0.006895,-0.052565,40.514610,236.102997,101.773056,,,,,,
1465846419.40,2.943139,-0.044867,-1.462812,0.048505,-3.379098,0.062981,0.196955,0.044852,0.979386,0.090520,0.041162,-0.066788,40.514610,236.102997,101.773056,,,,,,
1465846419.41,2.908716,-0.045381,-1.463476,0.067586,-3.468261,0.049721,0.230539,0.045366,0.972005,0.091848,-0.022676,0.040736,40.514610,236.102997,101.773056,,,,,,
1465846419.43,2.836623,-0.046206,-1.464998,0.069455,-3.662595,0.059457,0.299944,0.046190,0.952838,0.041822,-0.017915,0.042249,47.067829,236.160873,98.774872,,,,,,
1465846419.42,2.873090,-0.045766,-1.464221,0.052504,-3.581913,0.067450,0.265010,0.045750,0.963160,0.038426,0.017025,0.012930,47.067829,236.160873,98.774872,,,,,,
1465846419.44,2.799010,-0.046703,-1.465780,0.071425,-3.793192,0.058150,0.335555,0.046686,0.940863,0.045717,-0.011957,0.067789,47.067829,236.160873,98.774872,,,,,,
1465846419.45,2.760728,-0.047090,-1.466600,0.065012,-3.813364,0.058270,0.371312,0.047073,0.927314,-0.009236,0.008240,0.040673,61.268570,236.275177,90.354935,,,,,,
1465846419.46,2.723562,-0.047491,-1.467408,0.067321,-3.661541,0.062642,0.405503,0.047473,0.912860,-0.047746,0.015439,0.096631,61.268570,236.275177,90.354935,,,,,,
1465846419.47,2.689393,-0.047724,-1.468184,0.049658,-3.316441,0.058331,0.436448,0.047706,0.898464,-0.113633,0.010613,0.106312,61.268570,236.275177,90.354935,,,,,,
1465846419.48,2.659088,-0.047918,-1.468887,0.050140,-2.935248,0.053812,0.463467,0.047900,0.884819,-0.111202,0.023008,0.114830,68.173828,236.313644,85.158669,,,,,,
1465846419.49,2.632011,-0.048076,-1.469514,0.041998,-2.645354,0.045599,0.487248,0.048058,0.871940,-0.121861,-0.008049,0.116768,68.173828,236.313644,85.158669,,,,,,
1465846419.50,2.608143,-0.048200,-1.470074,0.039259,-2.284336,0.042268,0.507916,0.048181,0.860058,-0.152142,-0.000528,0.118503,68.173828,236.313644,85.158669,,,,,,
1465846419.52,2.573741,-0.048444,-1.470871,0.023401,-1.365834,0.023718,0.537191,0.048425,0.842070,-0.174840,-0.001413,0.121477,77.974350,236.313721,76.286591,,,,,,
1465846419.51,2.588619,-0.048352,-1.470530,0.033460,-1.835155,0.026672,0.524606,0.048333,0.849972,-0.153253,-0.012338,0.119648,77.974350,236.313721,76.286591,,,,,,
1465846419.53,2.564545,-0.048534,-1.471103,0.018721,-0.862515,0.014170,0.544910,0.048515,0.837090,-0.192585,0.002327,0.109306,77.974350,236.313721,76.286591,,,,,,
1465846419.55,2.558865,-0.048510,-1.471257,-0.004626,0.038982,0.003171,0.549656,0.048491,0.833982,-0.175694,0.018556,0.078783,80.676804,236.316772,73.412872,,,,,,
1465846419.54,2.559561,-0.048564,-1.471214,0.004423,-0.384685,0.006901,0.549074,0.048545,0.834362,-0.168978,0.006158,0.106220,80.676804,236.316772,73.412872,,,,,,
1465846419.56,2.573874,-0.049067,-1.470620,-0.012604,0.462725,-0.004819,0.537063,0.049048,0.842115,-0.140914,0.008798,0.079379,80.676804,236.316772,73.412872,,,,,,
1465846419.57,2.581404,-0.048967,-1.470459,-0.018500,0.850295,-0.010449,0.530709,0.048948,0.846139,-0.136117,0.002688,0.070868,80.538742,236.389496,73.330276,,,,,,
1465846419.58,2.592975,-0.048873,-1.470186,-0.023302,1.255923,-0.019384,0.520885,0.048854,0.852228,-0.117061,-0.005946,0.070395,80.538742,236.389496,73.330276,,,,,,
1465846419.59,2.608300,-0.048782,-1.469828,-0.027091,1.619082,-0.029117,0.507767,0.048763,0.860113,-0.106781,-0.007381,0.074213,80.538742,236.389496,73.330276,,,,,,
1465846419.60,2.627148,-0.048660,-1.469384,-0.032011,1.937633,-0.033248,0.491469,0.048641,0.869535,-0.077819,-0.008358,0.066393,79.061523,236.381393,74.946129,,,,,,
1465846419.61,2.648235,-0.048556,-1.468892,-0.033854,2.155321,-0.041002,0.473028,0.048537,0.879710,-0.047017,-0.005400,0.053533,79.061523,236.381393,74.946129,,,,,,
1465846419.62,2.671184,-0.048400,-1.468337,-0.041083,2.337949,-0.040026,0.452720,0.048381,0.890339,-0.061789,0.021184,0.036403,79.061523,236.381393,74.946129,,,,,,
1465846419.63,2.696516,-0.048173,-1.467794,-0.047157,2.589596,-0.040546,0.430028,0.048154,0.901531,-0.005498,0.012973,0.048176,72.633308,236.383560,81.185104,,,,,,
1465846419.65,2.751233,-0.047649,-1.466554,-0.044772,2.781802,-0.049200,0.380089,0.047631,0.923723,0.009575,-0.002617,0.041701,72.633308,236.383560,81.185104,,,,,,
1465846419.64,2.723477,-0.047903,-1.467180,-0.051254,2.719138,-0.041362,0.405574,0.047884,0.912807,-0.002436,-0.007082,0.039921,72.633308,236.383560,81.185104,,,,,,
1465846419.67,2.808478,-0.047112,-1.465338,-0.045724,2.876294,-0.046600,0.326625,0.047095,0.943980,0.109013,-0.000754,0.003301,68.093430,236.363342,85.085060,,,,,,
1465846419.66,2.779681,-0.047390,-1.465930,-0.046802,2.859318,-0.050753,0.353665,0.047373,0.934172,0.032673,-0.010782,0.029634,68.093430,236.363342,85.085060,,,,,,
1465846419.68,2.835964,-0.046894,-1.464721,-0.037439,2.684115,-0.049645,0.300562,0.046877,0.952610,0.112402,0.003339,-0.023838,68.093430,236.363342,85.085060,,,,,,
1465846419.70,2.843024,-0.046217,-1.465422,0.001765,-3.573889,-0.112545,0.293838,0.046200,0.954738,2.353455,0.045612,-0.784892,57.641151,236.324249,92.585968,,,,,,
1465846419.69,2.860073,-0.046203,-1.465942,-0.025870,2.236200,0.276769,0.277520,0.046187,0.959609,2.277809,-0.027464,-1.279006,57.641151,236.324249,92.585968,,,,,,
1465846419.71,2.747877,-0.047705,-1.466309,0.247329,-11.277821,0.091426,0.383186,0.047687,0.922439,0.243965,-0.053760,-0.243530,57.641151,236.324249,92.585968,,,,,,
1465846419.72,2.625523,-0.049036,-1.469723,0.242062,-11.832510,0.251374,0.492872,0.049017,0.868720,0.002352,-0.018758,0.553216,57.188187,236.233566,93.096848,,,,,,
1465846419.73,2.533882,-0.049209,-1.471664,0.092440,-8.224101,0.109375,0.570298,0.049190,0.819964,-0.053178,0.010350,0.534880,57.188187,236.233566,93.096848,,,,,,
1465846419.74,2.466798,-0.049575,-1.473227,0.131980,-6.420111,0.093830,0.623970,0.049554,0.779876,-0.161766,-0.022317,0.398805,76.468414,236.411636,77.497925,,,,,,
1465846419.75,2.401384,-0.049843,-1.474616,0.102963,-6.645182,0.088826,0.673604,0.049822,0.737411,-0.196050,-0.033374,0.330018,76.468414,236.411636,77.497925,,,,,,
1465846419.76,2.331215,-0.050180,-1.475538,0.066144,-7.289417,-0.001906,0.723635,0.050159,0.688358,-1.936358,0.191190,0.228131,76.468414,236.411636,77.497925,,,,,,
1465846419.77,2.290357,-0.048588,-1.475827,-0.038206,-1.894871,0.155758,0.751208,0.048569,0.658276,-3.453631,-0.188187,2.753192,76.468414,236.411636,77.497925,,,,,,
1465846419.78,2.354900,-0.046467,-1.478684,0.023674,8.821137,0.356854,0.707257,0.046450,0.705428,2.593478,0.054182,-0.983215,96.396545,236.363632,50.830601,,,,,,
1465846419.79,2.433544,-0.046561,-1.474341,-0.360164,6.409814,-0.341587,0.649648,0.046544,0.758809,0.629863,-0.011113,-0.778981,96.396545,236.363632,50.830601,,,,,,
1465846419.80,2.441063,-0.046433,-1.472978,0.064519,-0.772365,0.064729,0.643928,0.046417,0.763677,-0.455283,-0.148361,0.394816,96.396545,236.363632,50.830601,,,,,,
1465846419.81,2.423380,-0.048385,-1.475255,0.247831,-1.589854,0.000850,0.657270,0.048366,0.752102,0.541949,-0.035121,-0.245892,90.359360,236.044052,62.146637,,,,,,
1465846419.82,2.424780,-0.047933,-1.473448,-0.212352,0.578929,-0.140945,0.656231,0.047914,0.753038,0.040547,-0.066652,-0.043565,90.359360,236.044052,62.146637,,,,,,
1465846419.83,2.436226,-0.048570,-1.473663,0.156581,1.211225,-0.015744,0.647548,0.048551,0.760476,0.106663,0.018878,0.022483,90.359360,236.044052,62.146637,,,,,,
1465846419.85,2.429971,-0.048914,-1.473799,0.073627,-1.165213,0.058686,0.652282,0.048894,0.756398,-0.110473,-0.016896,0.045055,91.208923,236.188690,60.329414,,,,,,
1465846419.84,2.439921,-0.049166,-1.473563,-0.049337,-0.028767,-0.041171,0.644716,0.049146,0.762841,-0.014482,-0.015577,-0.044625,91.208923,236.188690,60.329414,,,,,,
1465846419.86,2.421519,-0.049779,-1.474973,0.112619,-0.691575,0.021692,0.658623,0.049759,0.750826,0.123191,-0.000732,-0.031908,91.208923,236.188690,60.329414,,,,,,
1465846419.87,2.418571,-0.049649,-1.474545,-0.059146,-0.209269,-0.040049,0.660838,0.049629,0.748886,0.037022,0.085060,-0.112365,91.383659,236.338287,59.473152,,,,,,
1465846419.88,2.416827,-0.050007,-1.474759,0.069662,-0.162728,0.001301,0.662132,0.049986,0.747719,-0.118781,0.059908,0.044853,91.383659,236.338287,59.473152,,,,,,
1465846419.89,2.415541,-0.050055,-1.474929,-0.014413,-0.106455,0.016831,0.663091,0.050034,0.746865,0.014018,0.032959,-0.059228,91.383659,236.338287,59.473152,,,,,,
1465846419.90,2.414767,-0.049844,-1.474757,-0.015416,-0.080930,0.001768,0.663676,0.049823,0.746359,-0.020121,0.016827,-0.018973,91.383659,236.338287,59.473152,,,,,,
1465846419.91,2.414277,-0.049863,-1.474938,0.009127,-0.031049,0.005738,0.664041,0.049842,0.746033,-0.069009,-0.035483,0.079177,91.383659,236.338287,59.473152,,,,,,
1465846419.92,2.414963,-0.049641,-1.474973,-0.016273,0.110151,0.016536,0.663536,0.049621,0.746497,-0.012917,-0.039718,0.038705,91.383659,236.338287,59.473152,,,,,,
1465846419.93,2.416934,-0.049596,-1.474997,-0.002267,0.220607,0.003083,0.662065,0.049576,0.747805,0.009139,-0.022690,0.034192,91.793243,236.323807,58.897118,,,,,,
1465846419.94,2.419430,-0.049501,-1.474846,-0.020298,0.255690,-0.009928,0.660199,0.049481,0.749459,-0.027417,-0.033917,0.049415,91.793243,236.323807,58.897118,,,,,,
1465846419.95,2.423088,-0.049542,-1.474712,0.002273,0.413905,-0.017284,0.657452,0.049522,0.751867,-0.029461,-0.050223,0.074656,91.528900,236.312851,59.350700,,,,,,
1465846419.96,2.428766,-0.049733,-1.474537,-0.000653,0.615670,-0.026004,0.653166,0.049713,0.755581,0.014803,-0.046661,0.014805,91.528900,236.312851,59.350700,,,,,,
1465846419.97,2.435459,-0.050034,-1.474251,0.015388,0.649678,-0.040039,0.648085,0.050013,0.759924,0.008669,-0.016245,-0.034613,90.880836,236.346268,60.207367,,,,,,
1465846419.98,2.441446,-0.050440,-1.474166,0.021678,0.581702,-0.033220,0.643510,0.050419,0.763775,0.058562,0.016110,-0.058926,90.880836,236.346268,60.207367,,,,,,
1465846419.99,2.446303,-0.050700,-1.473951,0.004465,0.441549,-0.031294,0.639784,0.050678,0.766882,0.043550,0.044811,-0.065695,90.880836,236.346268,60.207367,,,,,,
1465846420.00,2.449704,-0.050907,-1.473877,0.013858,0.316208,-0.014531,0.637166,0.050886,0.769045,-0.023549,0.059024,-0.018694,90.880836,236.346268,60.207367,,,,,,
1465846420.01,2.447666,-0.057829,-1.474193,0.002073,0.288521,0.006906,0.638491,0.057797,0.767456,0.009061,0.086811,-0.090088,89.305237,236.488724,61.979618,,,,,,
1465846420.02,2.450074,-0.057584,-1.474194,-0.027857,0.217358,0.021160,0.636651,0.057552,0.769002,0.033546,0.104862,-0.137181,89.305237,236.488724,61.979618,,,,,,
1465846420.04,2.448899,-0.061525,-1.474534,-0.047326,0.033556,0.060603,0.637404,0.061486,0.768073,-0.043944,0.028465,-0.010352,88.330688,237.173233,60.748299,,,,,,
1465846420.03,2.448588,-0.062248,-1.474388,-0.040854,0.072886,0.043332,0.637614,0.062207,0.767840,-0.016383,0.066012,-0.072985,88.330688,237.173233,60.748299,,,,,,
1465846420.05,2.452222,-0.059901,-1.474556,-0.056772,0.151418,0.065178,0.634911,0.059865,0.770262,-0.024071,-0.011433,0.019044,88.330688,237.173233,60.748299,,,,,,
1465846420.06,2.454458,-0.059070,-1.474649,-0.057719,0.235318,0.058265,0.633218,0.059035,0.771719,-0.019922,-0.011352,-0.001257,88.330688,237.173233,60.748299,,,,,,
1465846420.07,2.457396,-0.058284,-1.474741,-0.055468,0.325582,0.053443,0.630978,0.058251,0.773611,-0.021892,-0.106225,0.086588,87.921677,237.312836,60.796478,,,,,,
1465846420.08,2.461303,-0.057764,-1.474707,-0.034038,0.390415,0.026446,0.627969,0.057731,0.776094,-0.029550,-0.079399,0.090880,87.921677,237.312836,60.796478,,,,,,
1465846420.10,2.471167,-0.054383,-1.474608,-0.033911,0.465855,0.008948,0.620401,0.054356,0.782399,-0.011880,-0.021504,0.024730,87.708794,237.176697,61.629486,,,,,,
1465846420.09,2.466539,-0.054716,-1.474726,-0.023336,0.431831,0.024074,0.624004,0.054689,0.779505,-0.003460,-0.043382,0.020071,87.708794,237.176697,61.629486,,,,,,
1465846420.11,2.476248,-0.054202,-1.474583,-0.008284,0.526362,0.009658,0.616424,0.054175,0.785549,-0.041259,-0.033057,0.039647,87.708794,237.176697,61.629486,,,,,,
1465846420.12,2.482042,-0.054064,-1.474513,-0.022030,0.589039,0.000736,0.611867,0.054038,0.789113,0.003978,-0.019187,-0.004201,87.708794,237.176697,61.629486,,,,,,
1465846420.13,2.488246,-0.053893,-1.474339,-0.024231,0.537006,0.004253,0.606965,0.053867,0.792901,-0.025055,0.000546,-0.009134,86.913559,236.799423,64.155060,,,,,,
1465846420.14,2.492990,-0.053665,-1.474351,-0.017973,0.456265,0.019668,0.603204,0.053639,0.795781,-0.023767,0.028331,-0.015508,86.913559,236.799423,64.155060,,,,,,
1465846420.15,2.496995,-0.053251,-1.474369,-0.036185,0.382984,0.029689,0.600025,0.053226,0.798208,0.003383,0.028958,-0.042517,86.913559,236.799423,64.155060,,,,,,
1465846420.16,2.500292,-0.052784,-1.474415,-0.033082,0.315018,0.033312,0.597405,0.052760,0.800202,-0.014443,0.006521,-0.017808,86.233124,236.762634,65.200516,,,,,,
1465846420.17,2.504295,-0.052154,-1.474408,-0.032067,0.272557,0.031451,0.594217,0.052130,0.802614,-0.019220,-0.003134,0.003554,86.233124,236.762634,65.200516,,,,,,
1465846420.18,2.506799,-0.051726,-1.474491,-0.028902,0.249196,0.031600,0.592218,0.051703,0.804117,-0.013010,-0.028327,0.000311,85.891327,236.669052,65.986755,,,,,,
1465846420.19,2.509035,-0.051388,-1.474518,-0.023613,0.202506,0.020190,0.590429,0.051365,0.805454,-0.006597,-0.022450,-0.004810,85.891327,236.669052,65.986755,,,,,,
1465846420.20,2.511821,-0.049746,-1.474498,-0.016204,0.160051,0.015144,0.588232,0.049726,0.807162,-0.011144,-0.023725,0.014615,85.891327,236.669052,65.986755,,,,,,
1465846420.21,2.513133,-0.049567,-1.474531,-0.014111,0.126081,0.012166,0.587177,0.049547,0.807941,-0.014057,-0.013246,-0.004535,85.891327,236.669052,65.986755,,,,,,
1465846420.22,2.515060,-0.048645,-1.474488,-0.016282,0.093171,0.012371,0.585646,0.048625,0.809107,-0.026442,-0.013866,-0.009882,85.563583,236.348801,67.542053,,,,,,
1465846420.23,2.515788,-0.048490,-1.474524,-0.006738,0.062374,0.012574,0.585061,0.048471,0.809540,-0.033211,-0.009484,0.001663,85.563583,236.348801,67.542053,,,,,,
1465846420.24,2.517187,-0.048142,-1.474549,-0.006786,0.024155,0.012814,0.583938,0.048124,0.810371,-0.026656,-0.004835,-0.004478,85.495224,236.233276,68.031013,,,,,,
1465846420.25,2.518020,-0.048400,-1.474569,-0.008978,-0.022564,0.015233,0.583255,0.048382,0.810847,-0.034488,0.006397,-0.017207,85.495224,236.233276,68.031013,,,,,,
1465846420.26,2.517567,-0.048244,-1.474660,-0.006890,-0.053360,0.016492,0.583627,0.048226,0.810589,-0.036264,0.003654,-0.010616,85.495224,236.233276,68.031013,,,,,,
1465846420.27,2.518739,-0.047892,-1.474681,-0.007955,-0.053350,0.016492,0.582686,0.047874,0.811286,-0.043395,-0.005058,-0.000937,85.495224,236.233276,68.031013,,,,,,
1465846420.28,2.519782,-0.047637,-1.474716,-0.003696,-0.051223,0.017547,0.581847,0.047619,0.811903,-0.048827,-0.004132,-0.012785,85.411896,236.186096,68.298943,,,,,,
1465846420.29,2.519472,-0.047494,-1.474808,-0.006852,-0.022550,0.016300,0.582102,0.047476,0.811728,-0.054103,-0.014319,-0.005118,85.411896,236.186096,68.298943,,,,,,
1465846420.30,2.519470,-0.047376,-1.474910,-0.002551,0.010364,0.016097,0.582107,0.047359,0.811732,-0.062851,-0.012477,0.005178,85.411896,236.186096,68.298943,,,,,,
1465846420.31,2.519882,-0.047289,-1.475017,-0.001428,0.051782,0.012645,0.581775,0.047271,0.811975,-0.057300,-0.011733,-0.006036,85.448303,236.087234,68.594566,,,,,,
1465846420.32,2.523053,-0.047328,-1.474963,-0.007766,0.092147,0.012385,0.579197,0.047311,0.813814,-0.065113,0.001441,-0.008577,85.448303,236.087234,68.594566,,,,,,
1465846420.33,2.524348,-0.047206,-1.475039,-0.005575,0.143109,0.013132,0.578146,0.047189,0.814568,-0.056616,-0.003671,-0.019936,85.218643,236.080597,68.902397,,,,,,
1465846420.34,2.526098,-0.047051,-1.475042,-0.012969,0.183473,0.008614,0.576724,0.047034,0.815584,-0.064181,-0.015158,-0.013643,85.218643,236.080597,68.902397,,,,,,
1465846420.35,2.528265,-0.046949,-1.475092,-0.001207,0.226996,0.010482,0.574957,0.046932,0.816836,-0.076956,-0.019573,-0.000293,85.218643,236.080597,68.902397,,,,,,
1465846420.36,2.531914,-0.047181,-1.475061,-0.010763,0.246122,0.009287,0.571967,0.047164,0.818920,-0.053672,0.004777,-0.034374,85.218643,236.080597,68.902397,,,,,,
1465846420.37,2.534386,-0.047009,-1.475054,-0.013956,0.245065,0.008226,0.569945,0.046992,0.820338,-0.048186,0.004140,-0.041606,84.643196,236.062210,69.670486,,,,,,
1465846420.38,2.536852,-0.046863,-1.475085,-0.010763,0.249302,0.011396,0.567925,0.046846,0.821746,-0.064339,-0.007906,-0.029663,84.643196,236.062210,69.670486,,,,,,
1465846420.40,2.542874,-0.045967,-1.475134,-0.010700,0.298150,0.010026,0.562989,0.045950,0.825186,-0.036363,-0.014792,-0.044348,84.345474,236.027893,70.146194,,,,,,
1465846420.39,2.539567,-0.046684,-1.475118,-0.013922,0.279031,0.012271,0.565696,0.046667,0.823292,-0.057945,-0.014075,-0.028477,84.345474,236.027893,70.146194,,,,,,
1465846420.41,2.546299,-0.045505,-1.475119,-0.007530,0.272680,0.005932,0.560172,0.045489,0.827127,-0.041053,-0.010486,-0.040215,84.345474,236.027893,70.146194,,,,,,
1465846420.42,2.550182,-0.045538,-1.475120,-0.001169,0.257807,0.010289,0.556954,0.045522,0.829295,-0.059762,-0.000508,-0.038462,84.345474,236.027893,70.146194,,,,,,
1465846420.43,2.553196,-0.045760,-1.475193,-0.005418,0.270544,0.013398,0.554447,0.045744,0.830961,-0.047199,0.004320,-0.060087,83.584030,235.886581,71.519524,,,,,,
1465846420.44,2.556234,-0.045613,-1.475246,-0.010754,0.265230,0.016619,0.551923,0.045597,0.832647,-0.049574,-0.002765,-0.062780,83.584030,235.886581,71.519524,,,,,,
1465846420.46,2.562426,-0.044696,-1.475483,-0.010721,0.293899,0.017505,0.546780,0.044681,0.836083,-0.032711,-0.010120,-0.067330,83.164276,235.890808,71.993362,,,,,,
1465846420.45,2.559787,-0.045133,-1.475356,-0.004364,0.275835,0.021881,0.548974,0.045118,0.834621,-0.058923,-0.011350,-0.053798,83.164276,235.890808,71.993362,,,,,,
1465846420.47,2.565470,-0.044465,-1.475570,-0.008608,0.284337,0.019696,0.544238,0.044451,0.837752,-0.048221,-0.004839,-0.069304,83.164276,235.890808,71.993362,,,,,,
1465846420.48,2.568721,-0.044022,-1.475705,-0.004335,0.298138,0.020678,0.541522,0.044008,0.839534,-0.049106,-0.011812,-0.064433,83.164276,235.890808,71.993362,,,,,,
1465846420.49,2.571828,-0.043450,-1.475827,-0.007500,0.318319,0.018421,0.538925,0.043436,0.841233,-0.039154,-0.014734,-0.068101,82.551346,235.708466,73.284431,,,,,,
1465846420.50,2.574739,-0.043149,-1.475962,0.001045,0.333190,0.014079,0.536481,0.043135,0.842809,-0.029187,-0.009673,-0.073660,82.551346,235.708466,73.284431,,,,,,
1465846420.51,2.577829,-0.042864,-1.476071,0.000009,0.349127,0.009720,0.533880,0.042851,0.844474,-0.030035,-0.010594,-0.074637,82.269554,235.607864,73.921982,,,,,,
1465846420.52,2.581160,-0.042623,-1.476146,0.002151,0.356563,0.007547,0.531070,0.042610,0.846256,-0.037509,-0.010688,-0.079593,82.269554,235.607864,73.921982,,,,,,
1465846420.53,2.584840,-0.042590,-1.476220,0.000040,0.372488,0.008510,0.527953,0.042577,0.848206,-0.041167,-0.004857,-0.092331,82.269554,235.607864,73.921982,,,,,,
1465846420.54,2.588669,-0.042479,-1.476288,-0.006344,0.383098,0.012695,0.524704,0.042466,0.850225,-0.024719,0.000701,-0.103490,82.269554,235.607864,73.921982,,,,,,
1465846420.55,2.592285,-0.042374,-1.476368,-0.004249,0.353369,0.011819,0.521629,0.042361,0.852120,-0.021201,-0.000506,-0.104135,81.379181,235.526733,75.155823,,,,,,
1465846420.56,2.595656,-0.042248,-1.476462,-0.006408,0.335311,0.015123,0.518756,0.042235,0.853878,-0.021441,-0.008467,-0.110196,81.379181,235.526733,75.155823,,,,,,
1465846420.57,2.598973,-0.042125,-1.476571,-0.004288,0.328936,0.016230,0.515923,0.042113,0.855599,-0.003075,-0.011107,-0.113152,80.914749,235.496887,75.748459,,,,,,
1465846420.58,2.600476,-0.041655,-1.476795,0.002065,0.304497,0.018519,0.514647,0.041643,0.856390,-0.000304,-0.015612,-0.104346,80.914749,235.496887,75.748459,,,,,,
1465846420.59,2.603163,-0.041613,-1.476989,0.007328,0.257772,0.019882,0.512345,0.041601,0.857772,0.002731,-0.010747,-0.110595,80.914749,235.496887,75.748459,,,,,,
1465846420.60,2.605394,-0.041547,-1.477159,0.001948,0.209999,0.018047,0.510431,0.041535,0.858915,0.019995,-0.001206,-0.131407,80.914749,235.496887,75.748459,,,,,,
1465846420.61,2.607379,-0.041469,-1.477379,0.006187,0.200429,0.022370,0.508727,0.041457,0.859929,0.000505,-0.010284,-0.119130,80.396194,235.401184,76.593376,,,,,,
1465846420.62,2.609174,-0.041415,-1.477572,0.002962,0.170709,0.019359,0.507183,0.041403,0.860843,0.022052,0.004587,-0.134342,80.396194,235.401184,76.593376,,,,,,
1465846420.63,2.610725,-0.041298,-1.477766,-0.000262,0.155831,0.024772,0.505850,0.041286,0.861633,0.006494,-0.004070,-0.136825,80.396194,235.401184,76.593376,,,,,,
1465846420.64,2.612258,-0.041192,-1.477985,0.000802,0.151589,0.022670,0.504530,0.041180,0.862411,0.028505,-0.006436,-0.132919,80.204201,235.374725,76.875473,,,,,,
1465846420.65,2.613561,-0.041047,-1.478152,-0.005617,0.125050,0.021766,0.503410,0.041036,0.863073,0.029503,-0.008809,-0.131109,80.204201,235.374725,76.875473,,,,,,
1465846420.66,2.614645,-0.040917,-1.478317,-0.002448,0.103815,0.020838,0.502476,0.040905,0.863623,0.033947,-0.006405,-0.138983,80.204201,235.374725,76.875473,,,,,,
1465846420.67,2.615777,-0.040727,-1.478490,-0.009891,0.121852,0.027104,0.501502,0.040715,0.864198,0.029504,-0.006475,-0.138215,79.990509,235.298920,77.328789,,,,,,
1465846420.69,2.613412,-0.040279,-1.478997,-0.008893,0.067676,0.027445,0.503554,0.040268,0.863025,0.027467,-0.007553,-0.151813,79.990509,235.298920,77.328789,,,,,,
1465846420.68,2.612716,-0.040484,-1.478811,-0.006709,0.101670,0.020848,0.504150,0.040473,0.862667,0.053665,-0.005057,-0.132122,79.990509,235.298920,77.328789,,,,,,
1465846420.70,2.614066,-0.040026,-1.479180,-0.015287,0.065553,0.028517,0.502995,0.040015,0.863363,0.060421,-0.002021,-0.147802,80.289574,235.237625,77.205284,,,,,,
1465846420.72,2.614132,-0.039505,-1.479644,-0.009015,-0.014109,0.037538,0.502948,0.039495,0.863414,0.050381,-0.003606,-0.148097,80.289574,235.237625,77.205284,,,,,,
1465846420.71,2.614294,-0.039762,-1.479371,-0.011108,0.005022,0.031029,0.502803,0.039751,0.863487,0.059529,-0.003039,-0.135200,80.289574,235.237625,77.205284,,,,,,
1465846420.73,2.614153,-0.039197,-1.479836,-0.019627,0.001844,0.029976,0.502936,0.039187,0.863435,0.088968,-0.001772,-0.142839,80.462708,235.107208,77.421997,,,,,,
1465846420.74,2.609992,-0.038367,-1.480246,-0.007953,-0.020516,0.037571,0.506541,0.038358,0.861362,0.048360,-0.017179,-0.122333,80.462708,235.107208,77.421997,,,,,,
