timestamp,attitude_roll,attitude_pitch,attitude_yaw,rotation_rate_x,rotation_rate_y,rotation_rate_z,gravity_x,gravity_y,gravity_z,user_acc_x,user_acc_y,user_acc_z,magnetic_field_x,magnetic_field_y,magnetic_field_z,latitude(degree),longitude(degree),altitude(meter),speed(m/s),course(degree),timestamp
1466441707.14,-0.651602,0.003665,-1.689772,0.019410,-0.747853,0.013383,-0.606457,-0.003665,-0.795108,-0.006138,0.002917,0.021411,29.684872,133.909546,-22.509073,,,,,,
1466441707.15,-0.658854,0.003699,-1.689585,0.014121,-0.722364,0.012153,-0.612207,-0.003699,-0.790689,0.003351,-0.000619,0.010003,29.333220,133.892181,-23.066452,,,,,,
1466441707.16,-0.666176,0.003760,-1.689382,0.017299,-0.732986,0.013288,-0.617979,-0.003760,-0.786185,0.005324,-0.001061,0.004889,29.333220,133.892181,-23.066452,,,,,,
1466441707.17,-0.673598,0.003806,-1.689169,0.017279,-0.747854,0.014445,-0.623798,-0.003806,-0.781577,0.017215,-0.001169,-0.002222,29.333220,133.892181,-23.066452,,,,,,
1466441707.18,-0.681319,0.003859,-1.688934,0.019346,-0.795639,0.015812,-0.629814,-0.003859,-0.776737,0.022041,0.000701,-0.006833,28.705814,133.861053,-24.016768,,,,,,
1466441707.19,-0.689560,0.003895,-1.688698,0.018237,-0.830678,0.016030,-0.636193,-0.003895,-0.771520,0.016304,0.000813,-0.003809,28.705814,133.861053,-24.016768,,,,,,
1466441707.20,-0.697805,0.003960,-1.688457,0.020386,-0.816873,0.014881,-0.642533,-0.003960,-0.766248,-0.001999,0.000405,0.010007,28.705814,133.861053,-24.016768,,,,,,
,,,,,,,,,,,,,,,,29.719954,-95.399113,9.564250,-1.000000,-1.000000,1466441742.08
,,,,,,,,,,,,,,,,29.719954,-95.399113,9.564250,-1.000000,-1.000000,1466441742.08
1466441707.21,-0.705456,0.003997,-1.688249,0.015157,-0.743603,0.013352,-0.648376,-0.003997,-0.761310,-0.014786,-0.001603,0.023563,28.359894,133.843338,-24.521215,,,,,,
,,,,,,,,,,,,,,,,29.719954,-95.399113,9.564250,-1.000000,-1.000000,1466441742.09
1466441707.22,-0.712770,0.004053,-1.688050,0.015300,-0.631053,0.011582,-0.653927,-0.004053,-0.756547,-0.032932,-0.001211,0.034166,28.359894,133.843338,-24.521215,,,,,,
1466441707.23,-0.718318,0.004088,-1.687880,0.012233,-0.530180,0.010946,-0.658114,-0.004088,-0.752908,-0.026747,-0.001497,0.033730,28.359894,133.843338,-24.521215,,,,,,
,,,,,,,,,,,,,,,,29.719953,-95.399121,9.525102,-1.000000,-1.000000,1466441742.11
1466441707.24,-0.723037,0.004098,-1.687737,0.011266,-0.453727,0.009401,-0.661659,-0.004098,-0.749793,-0.022499,0.001657,0.029548,27.708624,133.812469,-25.417900,,,,,,
,,,,,,,,,,,,,,,,29.719953,-95.399125,9.502120,-1.000000,-1.000000,1466441742.11
1466441707.25,-0.727125,0.004130,-1.687594,0.011339,-0.397448,0.007984,-0.664719,-0.004130,-0.747082,-0.012924,0.004374,0.022671,27.708624,133.812469,-25.417900,,,,,,
1466441707.26,-0.731304,0.004093,-1.687481,0.010313,-0.369837,0.005681,-0.667835,-0.004093,-0.744298,-0.005001,0.002888,0.014989,27.708624,133.812469,-25.417900,,,,,,
1466441707.27,-0.734881,0.004129,-1.687366,0.009265,-0.354975,0.006651,-0.670493,-0.004129,-0.741904,-0.001839,-0.000342,0.009604,27.508553,133.801682,-25.690498,,,,,,
1466441707.28,-0.738336,0.004152,-1.687270,0.008222,-0.341165,0.004435,-0.673053,-0.004152,-0.739583,-0.000562,-0.000944,0.006337,27.508553,133.801682,-25.690498,,,,,,
1466441707.29,-0.741771,0.004172,-1.687170,0.007146,-0.346479,0.006596,-0.675588,-0.004172,-0.737267,0.006658,-0.004205,0.001290,27.508553,133.801682,-25.690498,,,,,,
1466441707.30,-0.745285,0.004156,-1.687059,0.011369,-0.375149,0.006780,-0.678175,-0.004156,-0.734889,0.014586,0.001943,0.001078,27.167421,133.785660,-26.133123,,,,,,
1466441707.31,-0.749361,0.004180,-1.686942,0.008116,-0.421867,0.007070,-0.681165,-0.004180,-0.732118,0.026472,0.001052,-0.010955,27.167421,133.785660,-26.133123,,,,,,
1466441707.32,-0.754155,0.004193,-1.686784,0.013336,-0.499390,0.010754,-0.684667,-0.004193,-0.728844,0.032628,0.002667,-0.015129,27.167421,133.785660,-26.133123,,,,,,
1466441707.33,-0.759788,0.004232,-1.686608,0.014298,-0.583270,0.010217,-0.688761,-0.004232,-0.724976,0.031153,-0.002879,-0.019516,26.990019,133.777054,-26.360104,,,,,,
1466441707.34,-0.765624,0.004239,-1.686413,0.017441,-0.622559,0.011531,-0.692981,-0.004239,-0.720944,0.021045,0.001539,-0.008243,26.990019,133.777054,-26.360104,,,,,,
1466441707.35,-0.771883,0.004269,-1.686231,0.015306,-0.626805,0.011555,-0.697480,-0.004269,-0.716592,0.015458,0.000760,0.000710,26.990019,133.777054,-26.360104,,,,,,
1466441707.36,-0.778154,0.004301,-1.686038,0.015307,-0.625743,0.011549,-0.701959,-0.004301,-0.712204,0.007654,0.004072,0.007767,26.449352,133.750153,-27.035999,,,,,,
1466441707.37,-0.784259,0.004326,-1.685852,0.015333,-0.605569,0.011422,-0.706294,-0.004326,-0.707905,0.006206,-0.000633,0.006474,26.449352,133.750153,-27.035999,,,,,,
1466441707.38,-0.790273,0.004360,-1.685663,0.015325,-0.611939,0.011462,-0.710539,-0.004360,-0.703645,0.017286,0.000148,0.003922,26.449352,133.750153,-27.035999,,,,,,
1466441707.39,-0.796438,0.004460,-1.685470,0.015245,-0.675645,0.011861,-0.714863,-0.004460,-0.699251,0.028950,-0.004863,-0.012694,26.143314,133.735733,-27.402370,,,,,,
1466441707.40,-0.803443,0.004514,-1.685236,0.019375,-0.773339,0.015672,-0.719743,-0.004514,-0.694226,0.040544,-0.001910,-0.021808,26.143314,133.735733,-27.402370,,,,,,
1466441707.41,-0.811756,0.004533,-1.684990,0.020301,-0.883766,0.016365,-0.725489,-0.004533,-0.688219,0.047801,0.000215,-0.025084,26.143314,133.735733,-27.402370,,,,,,
1466441707.42,-0.821287,0.004560,-1.684693,0.024428,-0.987827,0.018086,-0.732016,-0.004560,-0.681272,0.053290,0.003629,-0.024355,25.439409,133.702850,-28.213465,,,,,,
1466441707.43,-0.831931,0.004593,-1.684380,0.026421,-1.095073,0.019825,-0.739225,-0.004593,-0.673442,0.053831,0.002014,-0.024815,25.439409,133.702850,-28.213465,,,,,,
1466441707.44,-0.843652,0.004617,-1.684034,0.027349,-1.200197,0.022614,-0.747068,-0.004617,-0.664732,0.052442,0.000772,-0.025362,25.439409,133.702850,-28.213465,,,,,,
1466441707.45,-0.856380,0.004636,-1.683638,0.032541,-1.302139,0.025388,-0.755468,-0.004636,-0.655169,0.058080,-0.000491,-0.024198,24.914082,133.679611,-28.786478,,,,,,
1466441707.46,-0.870357,0.004640,-1.683201,0.034495,-1.436997,0.029429,-0.764551,-0.004640,-0.644547,0.078699,-0.003416,-0.038589,24.914082,133.679611,-28.786478,,,,,,
1466441707.47,-0.886771,0.004659,-1.682689,0.042649,-1.725815,0.032313,-0.775027,-0.004659,-0.631911,0.142962,0.001622,-0.072923,24.914082,133.679611,-28.786478,,,,,,
1466441707.48,-0.907541,0.004665,-1.682085,0.052686,-2.205766,0.039591,-0.787983,-0.004665,-0.615679,0.182316,0.002468,-0.119429,23.435053,133.614990,-30.289417,,,,,,
1466441707.49,-0.932611,0.004662,-1.681313,0.060709,-2.590161,0.048396,-0.803169,-0.004662,-0.595733,0.143349,0.004387,-0.102006,23.435053,133.614990,-30.289417,,,,,,
1466441707.50,-0.959705,0.004627,-1.680522,0.064777,-2.742000,0.049352,-0.819014,-0.004627,-0.573755,0.133513,0.001468,-0.052466,23.435053,133.614990,-30.289417,,,,,,
1466441707.51,-0.988447,0.004615,-1.679655,0.069884,-2.912956,0.051494,-0.835164,-0.004615,-0.549982,0.107304,0.004692,-0.033239,22.131775,133.562210,-31.479122,,,,,,
1466441707.52,-1.018091,0.004533,-1.678750,0.075129,-2.971367,0.055059,-0.851098,-0.004533,-0.524987,0.071863,0.002794,-0.003959,22.131775,133.562210,-31.479122,,,,,,
1466441707.53,-1.047705,0.004419,-1.677857,0.069831,-2.949069,0.055978,-0.866270,-0.004419,-0.499556,0.062056,0.001444,0.011030,22.131775,133.562210,-31.479122,,,,,,
1466441707.54,-1.077678,0.004300,-1.676936,0.077179,-3.032955,0.056512,-0.880853,-0.004300,-0.473371,0.099618,0.008862,0.003522,18.629416,133.428665,-34.195763,,,,,,
1466441707.55,-1.109834,0.004115,-1.675992,0.076860,-3.280367,0.062321,-0.895617,-0.004115,-0.444807,0.121981,-0.001852,-0.047854,18.629416,133.428665,-34.195763,,,,,,
1466441707.56,-1.144533,0.003902,-1.674944,0.086142,-3.518218,0.064886,-0.910510,-0.003902,-0.413468,0.118014,0.007183,-0.039870,18.629416,133.428665,-34.195763,,,,,,
1466441707.57,-1.180211,0.003627,-1.673915,0.084997,-3.580867,0.066343,-0.924680,-0.003627,-0.380727,0.102445,-0.005849,-0.009105,16.617613,133.356140,-35.490955,,,,,,
1466441707.58,-1.216463,0.003324,-1.672856,0.084926,-3.636084,0.067753,-0.937873,-0.003324,-0.346963,0.089606,0.005979,0.009911,16.617613,133.356140,-35.490955,,,,,,
1466441707.59,-1.252645,0.002975,-1.671818,0.089243,-3.592546,0.065356,-0.949811,-0.002975,-0.312810,0.040845,0.001404,0.024190,16.617613,133.356140,-35.490955,,,,,,
1466441707.60,-1.288055,0.002611,-1.670792,0.082926,-3.537326,0.063939,-0.960291,-0.002611,-0.278989,0.078516,0.006685,0.039044,11.715963,133.192368,-37.975590,,,,,,
1466441707.61,-1.324479,0.002184,-1.669791,0.090193,-3.680682,0.068038,-0.969815,-0.002184,-0.243834,0.093136,0.002764,-0.007494,11.715963,133.192368,-37.975590,,,,,,
1466441707.62,-1.362830,0.001718,-1.668700,0.095252,-3.886683,0.072529,-0.978451,-0.001718,-0.206470,0.123227,0.007455,-0.020947,11.715963,133.192368,-37.975590,,,,,,
1466441707.63,-1.403198,0.001130,-1.667626,0.098172,-4.095877,0.080230,-0.985988,-0.001130,-0.166814,0.151256,-0.004653,-0.041911,9.128291,133.112122,-38.954453,,,,,,
1466441707.64,-1.446880,0.000467,-1.666432,0.108335,-4.478137,0.084767,-0.992332,-0.000467,-0.123600,0.220573,0.011468,-0.058697,9.128291,133.112122,-38.954453,,,,,,
1466441707.65,-1.496152,-0.000372,-1.665201,0.121393,-5.087645,0.098182,-0.997215,0.000372,-0.074575,0.281883,-0.001852,-0.123957,9.128291,133.112122,-38.954453,,,,,,
1466441707.66,-1.552135,-0.001367,-1.663759,0.141809,-5.779965,0.107867,-0.999825,0.001367,-0.018660,0.347802,0.014288,-0.126650,2.724226,132.928314,-40.524757,,,,,,
1466441707.67,-1.615424,-0.002600,-1.662294,0.151508,-6.517956,0.124214,-0.999001,0.002600,0.044613,0.394448,0.002023,-0.144909,2.724226,132.928314,-40.524757,,,,,,
1466441707.68,-1.687185,-0.004073,-1.660667,0.180216,-7.383366,0.139250,-0.993226,0.004073,0.116125,0.434373,0.023561,-0.128577,2.724226,132.928314,-40.524757,,,,,,
1466441707.69,-1.765651,-0.005787,-1.659086,0.186941,-7.953575,0.149220,-0.981059,0.005787,0.193621,0.353816,0.008526,-0.066057,-1.838718,132.810043,-40.960026,,,,,,
1466441707.70,-1.845368,-0.007676,-1.657562,0.191232,-7.924914,0.151173,-0.962513,0.007676,0.271127,0.228062,0.016387,0.089561,-1.838718,132.810043,-40.960026,,,,,,
1466441707.71,-1.922715,-0.009574,-1.656276,0.180919,-7.672176,0.141062,-0.938670,0.009574,0.344684,0.173716,0.012033,0.196667,-1.838718,132.810043,-40.960026,,,,,,
1466441707.72,-1.997922,-0.011578,-1.655192,0.170512,-7.476805,0.141955,-0.910099,0.011578,0.414229,0.105961,-0.010937,0.184267,-13.550193,132.557724,-39.553200,,,,,,
1466441707.73,-2.072177,-0.013587,-1.654166,0.179124,-7.409902,0.136222,-0.876839,0.013586,0.480593,0.117272,0.037683,0.265593,-13.550193,132.557724,-39.553200,,,,,,
1466441707.74,-2.142911,-0.015580,-1.653595,0.151000,-6.916143,0.130968,-0.840656,0.015579,0.541345,-0.067700,-0.044739,0.115225,-13.550193,132.557724,-39.553200,,,,,,
1466441707.75,-2.209851,-0.017602,-1.652691,0.192853,-6.664499,0.123045,-0.802535,0.017601,0.596345,0.120452,0.075477,0.407531,-18.957865,132.464493,-37.594795,,,,,,
1466441707.76,-2.274617,-0.019379,-1.652580,0.104833,-6.379898,0.123301,-0.762232,0.019378,0.647014,-0.118048,-0.068557,-0.008617,-18.957865,132.464493,-37.594795,,,,,,
1466441707.77,-2.334332,-0.021333,-1.651920,0.198167,-5.843693,0.105129,-0.722231,0.021331,0.691323,-0.013227,0.080232,0.432991,-18.957865,132.464493,-37.594795,,,,,,
1466441707.78,-2.387669,-0.022785,-1.652013,0.060647,-5.133272,0.098408,-0.684327,0.022784,0.728819,-0.235000,-0.054323,0.152391,-27.519188,132.354538,-32.320042,,,,,,
1466441707.79,-2.432336,-0.024172,-1.651776,0.150175,-4.247712,0.070590,-0.651079,0.024170,0.758625,-0.207319,0.049499,0.344372,-27.519188,132.354538,-32.320042,,,,,,
1466441707.80,-2.468556,-0.025341,-1.651774,0.053260,-3.404615,0.073721,-0.623163,0.025339,0.781681,-0.274908,-0.015466,0.336101,-27.519188,132.354538,-32.320042,,,,,,
1466441707.81,-2.496296,-0.026117,-1.651822,0.078823,-2.585914,0.045194,-0.601230,0.026114,0.798649,-0.261151,0.005380,0.212093,-30.319359,132.340881,-29.769777,,,,,,
1466441707.82,-2.518813,-0.026967,-1.651757,0.052713,-2.169691,0.048944,-0.583083,0.026964,0.811965,-0.153672,0.016142,0.257783,-30.319359,132.340881,-29.769777,,,,,,
1466441707.83,-2.538728,-0.027440,-1.651879,0.041317,-1.940314,0.032595,-0.566791,0.027437,0.823405,-0.130154,-0.017107,0.050344,-30.319359,132.340881,-29.769777,,,,,,
1466441707.84,-2.558044,-0.028172,-1.651836,0.057265,-1.946713,0.040102,-0.550770,0.028169,0.834181,-0.007076,0.020141,0.091142,-33.052711,132.335236,-26.730381,,,,,,
1466441707.85,-2.577731,-0.028690,-1.651974,0.038084,-1.962625,0.038054,-0.534234,0.028686,0.844850,-0.024299,-0.012130,-0.015840,-33.052711,132.335236,-26.730381,,,,,,
1466441707.86,-2.597585,-0.029374,-1.651982,0.058264,-2.004042,0.037269,-0.517346,0.029370,0.855272,0.045911,0.012775,0.027632,-33.052711,132.335236,-26.730381,,,,,,
1466441707.87,-2.618775,-0.029939,-1.652120,0.039968,-2.153759,0.042448,-0.499100,0.029934,0.866027,0.041214,-0.000988,-0.039779,-33.970818,132.335052,-25.554390,,,,,,
1466441707.88,-2.640696,-0.030640,-1.652204,0.060154,-2.191988,0.040579,-0.479987,0.030635,0.876741,0.030600,0.001790,-0.002519,-33.970818,132.335052,-25.554390,,,,,,
1466441707.89,-2.662562,-0.031268,-1.652353,0.045250,-2.188798,0.041608,-0.460694,0.031263,0.887008,0.052049,0.003649,0.007691,-33.970818,132.335052,-25.554390,,,,,,
1466441707.90,-2.684877,-0.031934,-1.652480,0.059021,-2.242960,0.043026,-0.440778,0.031928,0.897048,0.020871,-0.005805,0.035218,-35.811932,132.341766,-22.864288,,,,,,
1466441707.91,-2.706829,-0.032608,-1.652655,0.048470,-2.166505,0.042536,-0.420972,0.032602,0.906487,0.085844,0.008216,0.007209,-35.811932,132.341766,-22.864288,,,,,,
1466441707.92,-2.728817,-0.033271,-1.652819,0.059028,-2.237651,0.042993,-0.400932,0.033265,0.915504,0.146613,-0.002320,-0.039665,-35.811932,132.341766,-22.864288,,,,,,
1466441707.93,-2.754024,-0.034047,-1.653023,0.063850,-2.629473,0.050777,-0.377719,0.034040,0.925294,0.188876,0.007433,-0.101350,-36.677509,132.349350,-21.401449,,,,,,
1466441707.94,-2.783850,-0.034914,-1.653310,0.073888,-3.105184,0.060157,-0.349948,0.034907,0.936119,0.249743,0.009694,-0.113029,-36.677509,132.349350,-21.401449,,,,,,
1466441707.95,-2.819286,-0.035945,-1.653675,0.089116,-3.683897,0.072318,-0.316551,0.035938,0.947895,0.237053,0.004971,-0.098651,-36.677509,132.349350,-21.401449,,,,,,
1466441707.96,-2.859786,-0.037078,-1.654132,0.094900,-4.162779,0.077456,-0.277900,0.037069,0.959894,0.253608,0.012918,-0.077692,-38.578899,132.378448,-17.527954,,,,,,
1466441707.97,-2.904743,-0.038322,-1.654724,0.109238,-4.593916,0.094012,-0.234469,0.038313,0.971368,0.310412,-0.001219,-0.076059,-38.578899,132.378448,-17.527954,,,,,,
1466441707.98,-2.954897,-0.039652,-1.655406,0.118078,-5.190645,0.094570,-0.185468,0.039642,0.981850,0.366742,0.020295,-0.083520,-38.578899,132.378448,-17.527954,,,,,,
1466441707.99,-3.012914,-0.041202,-1.656302,0.146860,-5.978576,0.120829,-0.128215,0.041191,0.990891,0.323649,-0.012230,-0.074204,-39.724850,132.411713,-14.446049,,,,,,
1466441708.00,-3.077048,-0.042767,-1.657386,0.142957,-6.547695,0.122265,-0.064441,0.042754,0.997005,0.347308,0.033448,0.013310,-39.724850,132.411713,-14.446049,,,,,,
1466441708.01,3.136929,-0.044453,-1.658617,0.174292,-7.021292,0.131654,0.004659,0.044438,0.999001,0.265880,-0.000814,0.070640,-39.724850,132.411713,-14.446049,,,,,,
1466441708.02,3.064550,-0.046115,-1.660053,0.167574,-7.279315,0.136459,0.076884,0.046099,0.995974,0.256581,0.021208,0.141905,-41.514847,132.542603,-5.347027,,,,,,
1466441708.03,2.990819,-0.047672,-1.661639,0.178084,-7.380207,0.142424,0.150033,0.047654,0.987532,0.242362,-0.000978,0.170442,-41.514847,132.542603,-5.347027,,,,,,
1466441708.04,2.915733,-0.049120,-1.663379,0.171477,-7.556459,0.142458,0.223674,0.049101,0.973427,0.260991,0.019381,0.168740,-41.514847,132.542603,-5.347027,,,,,,
1466441708.05,2.838128,-0.050447,-1.665253,0.182861,-7.809189,0.149377,0.298449,0.050426,0.953093,0.212187,0.007267,0.187883,-41.519314,132.648743,0.266199,,,,,,
1466441708.06,2.759123,-0.051698,-1.667316,0.185943,-7.897323,0.150997,0.372714,0.051675,0.926506,0.186506,0.016685,0.247734,-41.519314,132.648743,0.266199,,,,,,
1466441708.07,2.680815,-0.052780,-1.669437,0.188207,-7.790082,0.150327,0.444026,0.052756,0.894460,0.156179,0.001794,0.260219,-41.519314,132.648743,0.266199,,,,,,
1466441708.08,2.603342,-0.053625,-1.671590,0.173417,-7.704057,0.145515,0.511898,0.053599,0.857372,0.098331,0.004934,0.304386,-38.839172,132.932388,11.836798,,,,,,
1466441708.09,2.528097,-0.054395,-1.673751,0.183364,-7.420549,0.139489,0.574878,0.054368,0.816431,-0.014682,0.005187,0.337546,-38.839172,132.932388,11.836798,,,,,,
1466441708.10,2.457944,-0.054888,-1.675797,0.152153,-6.849263,0.128424,0.630675,0.054860,0.774106,-0.072066,0.005931,0.368076,-38.839172,132.932388,11.836798,,,,,,
1466441708.11,2.394449,-0.055258,-1.677654,0.151979,-6.157997,0.112379,0.678509,0.055230,0.732513,-0.155544,0.005012,0.372223,-36.245567,133.092789,17.093464,,,,,,
1466441708.12,2.338552,-0.055463,-1.679326,0.119964,-5.375417,0.102117,0.718365,0.055434,0.693455,-0.192074,0.005692,0.345455,-36.245567,133.092789,17.093464,,,,,,
1466441708.13,2.290614,-0.055554,-1.680740,0.111378,-4.596024,0.087640,0.750766,0.055525,0.658231,-0.241733,0.000948,0.322482,-36.245567,133.092789,17.093464,,,,,,
1466441708.14,2.250428,-0.055573,-1.681969,0.084705,-3.806002,0.073079,0.776603,0.055545,0.627537,-0.301567,-0.005191,0.316479,-30.719570,133.356918,24.328011,,,,,,
1466441708.15,2.219576,-0.055511,-1.682856,0.062539,-2.821668,0.055174,0.795594,0.055483,0.603284,-0.343949,0.001127,0.328418,-30.719570,133.356918,24.328011,,,,,,
1466441708.16,2.199316,-0.055507,-1.683487,0.043679,-1.756623,0.031445,0.807653,0.055478,0.587043,-0.357931,-0.002377,0.312982,-30.719570,133.356918,24.328011,,,,,,
1466441708.17,2.189344,-0.055483,-1.683792,0.017274,-0.752118,0.015539,0.813468,0.055454,0.578961,-0.347647,-0.002720,0.269779,-28.743622,133.438354,26.222538,,,,,,
1466441708.18,2.188452,-0.055482,-1.683832,-0.002894,0.127097,-0.001705,0.813984,0.055454,0.578234,-0.331486,-0.001133,0.240369,-28.743622,133.438354,26.222538,,,,,,
1466441708.19,2.196018,-0.055491,-1.683610,-0.023122,0.960652,-0.017597,0.809585,0.055463,0.584376,-0.308029,-0.001935,0.227422,-28.743622,133.438354,26.222538,,,,,,
1466441708.20,2.211739,-0.055518,-1.683121,-0.042306,1.774038,-0.035491,0.800297,0.055489,0.597030,-0.311253,-0.002419,0.232453,-28.058159,133.467239,26.811346,,,,,,
1466441708.21,2.236071,-0.055544,-1.682396,-0.059286,2.654305,-0.049544,0.785534,0.055515,0.616323,-0.277218,0.001339,0.251688,-28.058159,133.467239,26.811346,,,,,,
1466441708.22,2.268966,-0.055545,-1.681421,-0.081657,3.477242,-0.065372,0.764839,0.055517,0.641825,-0.205299,0.000391,0.221166,-28.058159,133.467239,26.811346,,,,,,
1466441708.23,2.308250,-0.055476,-1.680247,-0.095841,4.044267,-0.074265,0.739044,0.055448,0.671371,-0.136734,0.001467,0.175812,-29.212805,133.420547,25.791140,,,,,,
1466441708.24,2.351799,-0.055333,-1.678948,-0.105976,4.447766,-0.079999,0.709121,0.055304,0.702915,-0.105666,0.000848,0.169842,-29.212805,133.420547,25.791140,,,,,,
1466441708.25,2.399560,-0.055154,-1.677555,-0.110749,4.871454,-0.092241,0.674760,0.055126,0.735975,-0.050645,0.006459,0.174333,-29.212805,133.420547,25.791140,,,,,,
1466441708.26,2.451405,-0.054873,-1.676032,-0.125138,5.277082,-0.099057,0.635723,0.054845,0.769966,-0.023434,-0.004552,0.191338,-33.455414,133.236465,21.175314,,,,,,
1466441708.27,2.506856,-0.054506,-1.674418,-0.127900,5.613689,-0.106493,0.592085,0.054479,0.804032,0.029863,0.011607,0.172119,-33.455414,133.236465,21.175314,,,,,,
1466441708.28,2.564799,-0.054063,-1.672756,-0.135085,5.823936,-0.109947,0.544543,0.054037,0.836991,0.077055,-0.002584,0.144775,-33.455414,133.236465,21.175314,,,,,,
1466441708.29,2.623681,-0.053415,-1.671079,-0.141401,5.883397,-0.109262,0.494360,0.053390,0.867616,0.136224,0.012421,0.115996,-35.812305,133.118271,17.793734,,,,,,
1466441708.30,2.682304,-0.052756,-1.669474,-0.132961,5.817567,-0.110970,0.442694,0.052732,0.895121,0.199061,0.012255,0.073156,-35.812305,133.118271,17.793734,,,,,,
1466441708.31,2.739054,-0.051984,-1.667924,-0.135354,5.609452,-0.108603,0.391226,0.051961,0.918827,0.244104,0.006526,0.039578,-35.812305,133.118271,17.793734,,,,,,
1466441708.32,2.792907,-0.051192,-1.666509,-0.121924,5.287707,-0.102314,0.341215,0.051169,0.938591,0.268526,0.007287,-0.005944,-39.604866,132.876999,9.735163,,,,,,
1466441708.33,2.842874,-0.050400,-1.665238,-0.113918,4.886330,-0.095530,0.293922,0.050379,0.954501,0.297158,0.005011,-0.045062,-39.604866,132.876999,9.735163,,,,,,
1466441708.34,2.888187,-0.049602,-1.664130,-0.102836,4.402110,-0.080774,0.250394,0.049582,0.966873,0.305682,0.004465,-0.076355,-39.604866,132.876999,9.735163,,,,,,
1466441708.35,2.927474,-0.048919,-1.663208,-0.088629,3.849952,-0.074103,0.212232,0.048899,0.975995,0.308306,0.007741,-0.108609,-40.678242,132.778778,5.889876,,,,,,
1466441708.36,2.961793,-0.048268,-1.662403,-0.076574,3.289288,-0.060995,0.178624,0.048249,0.982734,0.300212,0.002364,-0.126288,-40.678242,132.778778,5.889876,,,,,,
1466441708.37,2.990501,-0.047705,-1.661770,-0.062401,2.718008,-0.048882,0.150346,0.047687,0.987483,0.329528,0.003628,-0.149241,-40.678242,132.778778,5.889876,,,,,,
1466441708.38,3.012421,-0.047261,-1.661279,-0.047343,1.999145,-0.039037,0.128669,0.047243,0.990562,0.324990,0.008314,-0.200675,-41.502724,132.653915,0.272220,,,,,,
1466441708.39,3.026861,-0.046980,-1.660972,-0.026988,1.266461,-0.023777,0.114354,0.046963,0.992329,0.307033,0.003483,-0.200246,-41.502724,132.653915,0.272220,,,,,,
1466441708.40,3.034693,-0.046796,-1.660802,-0.016105,0.620853,-0.010137,0.106580,0.046779,0.993203,0.312122,0.004811,-0.200631,-41.502724,132.653915,0.272220,,,,,,
1466441708.41,3.035624,-0.046729,-1.660801,-0.003167,-0.088458,0.001776,0.105655,0.046712,0.993305,0.305310,0.009242,-0.210560,-41.579258,132.625427,-1.127479,,,,,,
1466441708.42,3.029544,-0.046927,-1.660949,0.026827,-0.775489,0.016759,0.111691,0.046909,0.992635,0.285312,-0.002293,-0.200368,-41.579258,132.625427,-1.127479,,,,,,
1466441708.43,3.016938,-0.047170,-1.661210,0.028147,-1.415766,0.023969,0.124194,0.047153,0.991137,0.263532,0.006863,-0.185107,-41.579258,132.625427,-1.127479,,,,,,
1466441708.44,2.998769,-0.047650,-1.661634,0.066879,-1.927603,0.037863,0.142177,0.047632,0.988695,0.226720,-0.002008,-0.137071,-41.560352,132.634064,-0.744236,,,,,,
1466441708.45,2.976472,-0.048133,-1.662094,0.031217,-2.350177,0.038348,0.164181,0.048115,0.985256,0.223286,0.009365,-0.123867,-41.560352,132.634064,-0.744236,,,,,,
1466441708.46,2.948390,-0.048539,-1.662708,0.089018,-2.932115,0.056958,0.191776,0.048520,0.980239,0.201137,-0.001935,-0.130034,-41.461910,132.664597,0.790654,,,,,,
1466441708.47,2.916874,-0.049357,-1.663491,0.044970,-3.246387,0.058885,0.222560,0.049337,0.973670,0.168110,0.012186,-0.059821,-41.461910,132.664597,0.790654,,,,,,
1466441708.48,2.881675,-0.049565,-1.664243,0.081789,-3.590450,0.068531,0.256686,0.049545,0.965224,0.167325,-0.003204,-0.057814,-41.461910,132.664597,0.790654,,,,,,
1466441708.49,2.843811,-0.050537,-1.665245,0.096376,-3.845290,0.070143,0.293025,0.050516,0.954769,0.173589,0.010504,-0.015850,-41.461910,132.664597,0.790654,,,,,,
1466441708.50,2.803310,-0.050955,-1.666216,0.086456,-4.101203,0.080254,0.331437,0.050933,0.942102,0.121597,-0.002777,-0.012491,-40.688194,132.778198,5.834080,,,,,,
1466441708.51,2.761026,-0.051774,-1.667363,0.110761,-4.250924,0.079088,0.370949,0.051751,0.927210,0.110664,0.008811,0.036871,-40.688194,132.778198,5.834080,,,,,,
1466441708.52,2.718000,-0.052266,-1.668465,0.091520,-4.306137,0.082609,0.410477,0.052243,0.910373,0.079162,0.001438,0.047513,-40.688194,132.778198,5.834080,,,,,,
1466441708.53,2.674717,-0.052909,-1.669690,0.106413,-4.316762,0.082690,0.449469,0.052884,0.891729,0.049173,0.006533,0.082911,-39.867657,132.855804,8.917397,,,,,,
1466441708.54,2.632050,-0.053334,-1.670855,0.090557,-4.223319,0.083153,0.487085,0.053309,0.871726,0.003821,0.004110,0.098504,-39.867657,132.855804,8.917397,,,,,,
1466441708.55,2.591036,-0.053834,-1.672030,0.102487,-4.065089,0.072592,0.522404,0.053808,0.850999,0.013683,0.011225,0.118316,-38.744141,132.941650,12.042500,,,,,,
1466441708.56,2.551638,-0.054204,-1.673159,0.089949,-3.869720,0.074548,0.555507,0.054177,0.829745,-0.060099,-0.007058,0.131970,-38.744141,132.941650,12.042500,,,,,,
1466441708.57,2.515377,-0.054525,-1.674215,0.084010,-3.521428,0.065971,0.585212,0.054498,0.809047,-0.091422,0.007850,0.149464,-38.744141,132.941650,12.042500,,,,,,
1466441708.58,2.483770,-0.054698,-1.675124,0.063303,-3.051041,0.064065,0.610481,0.054671,0.790142,-0.123130,0.016633,0.151752,-38.744141,132.941650,12.042500,,,,,,
1466441708.59,2.457378,-0.054588,-1.675753,0.008720,-2.469073,0.033749,0.631123,0.054561,0.773761,-0.148839,0.129307,0.049298,-35.985790,133.110153,17.502127,,,,,,
1466441708.60,2.434499,-0.054485,-1.676683,0.062220,-2.230244,0.050400,0.648663,0.054458,0.759125,-0.206524,-0.130157,0.183197,-35.985790,133.110153,17.502127,,,,,,
1466441708.61,2.415973,-0.054865,-1.677179,0.061883,-1.696078,0.018310,0.662600,0.054837,0.746963,-0.106723,-0.103192,0.241578,-34.759350,133.170059,19.419975,,,,,,
1466441708.62,2.404563,-0.055034,-1.677394,0.034034,-0.982526,0.011678,0.671074,0.055006,0.739347,-0.158226,0.000612,0.238238,-34.759350,133.170059,19.419975,,,,,,
1466441708.63,2.398628,-0.055287,-1.677568,0.001658,-0.491936,0.001118,0.675441,0.055259,0.735341,-0.208186,0.106866,0.064052,-34.759350,133.170059,19.419975,,,,,,
1466441708.64,2.396654,-0.055201,-1.677667,0.018131,-0.100124,-0.006645,0.676894,0.055173,0.734010,-0.181594,-0.020612,0.189742,-34.759350,133.170059,19.419975,,,,,,
1466441708.65,2.400263,-0.055392,-1.677547,-0.010801,0.552984,-0.041639,0.674233,0.055364,0.736440,-0.142282,-0.041845,0.125910,-33.446388,133.236038,21.192223,,,,,,
1466441708.66,2.410830,-0.055591,-1.677215,-0.009973,1.206005,-0.049992,0.666406,0.055562,0.743515,-0.194605,-0.012090,0.128112,-33.446388,133.236038,21.192223,,,,,,
1466441708.67,2.426497,-0.055870,-1.676746,-0.012597,1.650920,-0.059171,0.654667,0.055841,0.753852,-0.111271,0.014975,0.178567,-33.446388,133.236038,21.192223,,,,,,
1466441708.68,2.445300,-0.055675,-1.676126,-0.058054,1.945003,-0.039772,0.640384,0.055646,0.766036,-0.160739,0.078082,0.010956,-34.156403,133.199936,20.266573,,,,,,
1466441708.69,2.467143,-0.055476,-1.675547,-0.062958,2.279474,-0.041875,0.623507,0.055448,0.779849,-0.111452,0.061694,0.030545,-34.156403,133.199936,20.266573,,,,,,
1466441708.70,2.492691,-0.055113,-1.674811,-0.066781,2.628806,-0.043005,0.603394,0.055085,0.795539,-0.075409,-0.039017,0.151269,-34.156403,133.199936,20.266573,,,,,,
1466441708.71,2.521301,-0.054963,-1.673979,-0.063167,2.928294,-0.067233,0.580394,0.054936,0.812480,-0.021404,-0.052662,0.115498,-35.042328,133.155823,19.004709,,,,,,
1466441708.72,2.552349,-0.054799,-1.673079,-0.067152,3.153387,-0.064391,0.554898,0.054772,0.830113,-0.021374,-0.018593,0.093730,-35.042328,133.155823,19.004709,,,,,,
1466441708.73,2.585663,-0.054390,-1.672104,-0.090322,3.371041,-0.056199,0.526953,0.054363,0.848154,-0.009359,0.062977,0.008505,-36.148129,133.097809,17.259802,,,,,,
1466441708.74,2.619772,-0.053907,-1.671151,-0.092401,3.409270,-0.057505,0.497735,0.053881,0.865654,0.037329,0.032270,0.035866,-36.148129,133.097809,17.259802,,,,,,
1466441708.75,2.654047,-0.053433,-1.670240,-0.079612,3.412461,-0.061771,0.467790,0.053407,0.882225,0.118056,-0.044847,0.049508,-36.148129,133.097809,17.259802,,,,,,
1466441708.76,2.687076,-0.052954,-1.669304,-0.085118,3.263817,-0.062973,0.438413,0.052929,0.897214,0.102908,0.026554,-0.025296,-36.148129,133.097809,17.259802,,,,,,
1466441708.77,2.719128,-0.052454,-1.668460,-0.085231,3.178864,-0.059247,0.409446,0.052430,0.910827,0.125619,-0.006715,-0.009841,-38.455357,132.960129,12.743837,,,,,,
1466441708.78,2.749825,-0.051821,-1.667624,-0.089723,3.013190,-0.045439,0.381310,0.051798,0.922995,0.145225,0.021963,-0.058813,-38.455357,132.960129,12.743837,,,,,,
1466441708.79,2.775847,-0.051497,-1.667012,-0.080503,2.720122,-0.045720,0.357172,0.051474,0.932619,0.171194,0.021661,-0.083742,-39.363972,132.895447,10.435138,,,,,,
1466441708.80,2.800759,-0.050945,-1.666403,-0.068139,2.411096,-0.030996,0.333840,0.050923,0.941253,0.173332,-0.016346,-0.058990,-39.363972,132.895447,10.435138,,,,,,
1466441708.81,2.822652,-0.050524,-1.665833,-0.055724,2.104261,-0.040768,0.313161,0.050502,0.948356,0.203166,-0.006862,-0.066246,-39.363972,132.895447,10.435138,,,,,,
1466441708.82,2.840754,-0.050227,-1.665374,-0.034954,1.697560,-0.030746,0.295948,0.050206,0.953884,0.209332,-0.038075,-0.064937,-39.363972,132.895447,10.435138,,,,,,
1466441708.83,2.854560,-0.049987,-1.665015,-0.035462,1.301470,-0.022937,0.282753,0.049966,0.957890,0.185981,0.012000,-0.129048,-40.481236,132.802109,6.669686,,,,,,
1466441708.84,2.864824,-0.049775,-1.664766,-0.025289,0.931943,-0.015287,0.272911,0.049754,0.960752,0.187950,0.024159,-0.126188,-40.481236,132.802109,6.669686,,,,,,
1466441708.85,2.871094,-0.049655,-1.664615,-0.007716,0.516761,-0.009473,0.266883,0.049635,0.962450,0.207238,-0.013273,-0.121309,-40.481236,132.802109,6.669686,,,,,,
1466441708.86,2.872766,-0.049731,-1.664555,0.006602,0.047437,-0.006515,0.265272,0.049710,0.962891,0.223207,-0.006345,-0.111787,-40.881260,132.758163,4.858418,,,,,,
1466441708.87,2.854832,-0.050529,-1.665384,0.007072,-0.413492,0.005958,0.282485,0.050507,0.957941,0.168153,0.005203,-0.164469,-40.881260,132.758163,4.858418,,,,,,
1466441708.88,2.847614,-0.050633,-1.665547,0.015071,-0.820179,0.012774,0.289391,0.050611,0.955872,0.171760,0.022585,-0.123185,-40.881260,132.758163,4.858418,,,,,,
1466441708.89,2.836571,-0.050734,-1.665826,0.017790,-1.187584,0.022533,0.299927,0.050712,0.952613,0.126647,-0.002159,-0.125831,-40.732124,132.783859,5.380922,,,,,,
1466441708.90,2.822715,-0.050932,-1.666185,0.032369,-1.440315,0.029454,0.313095,0.050910,0.948357,0.119004,0.001413,-0.067772,-40.732124,132.783859,5.380922,,,,,,
1466441708.91,2.806281,-0.051104,-1.666632,0.035291,-1.653747,0.032925,0.328634,0.051081,0.943075,0.096476,-0.020289,-0.051779,-40.579449,132.800476,6.079234,,,,,,
1466441708.92,2.788240,-0.051414,-1.667092,0.047818,-1.851251,0.035240,0.345588,0.051391,0.936978,0.100106,-0.005767,-0.024808,-40.579449,132.800476,6.079234,,,,,,
1466441708.93,2.768163,-0.051683,-1.667605,0.042230,-2.057247,0.039720,0.364324,0.051660,0.929838,0.074870,0.013373,-0.057173,-40.579449,132.800476,6.079234,,,,,,
1466441708.94,2.746543,-0.051979,-1.668167,0.052716,-2.183610,0.041587,0.384334,0.051955,0.921731,0.060429,-0.002822,-0.017007,-39.896008,132.866165,8.631771,,,,,,
1466441708.95,2.723942,-0.052326,-1.668773,0.054745,-2.265368,0.041038,0.405059,0.052302,0.912793,0.057328,-0.005289,-0.000653,-39.896008,132.866165,8.631771,,,,,,
1466441708.96,2.700294,-0.052707,-1.669418,0.064165,-2.390674,0.045026,0.426521,0.052683,0.902942,0.050316,-0.001261,0.008862,-39.896008,132.866165,8.631771,,,,,,
1466441708.97,2.675869,-0.053032,-1.670082,0.056633,-2.448016,0.048572,0.448438,0.053007,0.892241,0.018435,0.010439,0.000627,-39.896008,132.866165,8.631771,,,,,,
1466441708.98,2.651588,-0.053337,-1.670738,0.056682,-2.414030,0.045165,0.469961,0.053312,0.881076,0.009791,0.009188,0.033978,-38.719101,132.956482,11.959030,,,,,,
1466441708.99,2.627994,-0.053609,-1.671401,0.057854,-2.330145,0.043576,0.490609,0.053584,0.869731,-0.030251,-0.002848,0.049947,-38.719101,132.956482,11.959030,,,,,,
1466441709.00,2.605827,-0.053894,-1.672037,0.053798,-2.177228,0.037291,0.509758,0.053868,0.858630,-0.017830,-0.005833,0.062437,-38.719101,132.956482,11.959030,,,,,,
1466441709.01,2.584040,-0.054152,-1.672618,0.054865,-2.180406,0.034118,0.528335,0.054125,0.847309,-0.011322,-0.009417,0.050488,-37.988522,133.005112,13.642752,,,,,,
1466441709.02,2.563277,-0.054457,-1.673223,0.056153,-2.006265,0.030899,0.545804,0.054430,0.836143,-0.088940,-0.011492,0.072472,-37.988522,133.005112,13.642752,,,,,,
1466441709.03,2.545950,-0.054669,-1.673695,0.040636,-1.650541,0.024394,0.560203,0.054641,0.826551,-0.081184,-0.002975,0.113512,-37.254284,133.049713,15.149508,,,,,,
1466441709.04,2.531181,-0.054856,-1.674107,0.037722,-1.428620,0.021935,0.572342,0.054828,0.818180,-0.088150,-0.002445,0.094982,-37.254284,133.049713,15.149508,,,,,,
1466441709.05,2.518615,-0.055074,-1.674466,0.039108,-1.183326,0.014011,0.582572,0.055046,0.810913,-0.111426,-0.007560,0.085358,-37.254284,133.049713,15.149508,,,,,,
1466441709.06,2.509567,-0.055263,-1.674741,0.027879,-0.801066,0.009474,0.589878,0.055235,0.805601,-0.129047,-0.003050,0.109652,-37.254284,133.049713,15.149508,,,,,,
1466441709.07,2.505509,-0.055453,-1.674835,0.013490,-0.392254,0.004767,0.593136,0.055425,0.803192,-0.139233,0.016978,0.100403,-36.058113,133.116180,17.306246,,,,,,
1466441709.08,2.504186,-0.055534,-1.674868,0.005417,-0.049267,-0.004844,0.594196,0.055506,0.802403,-0.124881,0.004690,0.105892,-36.058113,133.116180,17.306246,,,,,,
1466441709.09,2.515319,-0.054206,-1.674279,0.007955,0.265099,-0.015330,0.585269,0.054180,0.809027,-0.100756,-0.021816,0.095605,-36.058113,133.116180,17.306246,,,,,,
1466441709.10,2.520375,-0.054450,-1.674109,0.007317,0.586857,-0.029057,0.581163,0.054423,0.811965,-0.089769,-0.023844,0.107026,-35.953091,133.114868,17.533398,,,,,,
1466441709.11,2.528992,-0.054863,-1.673789,0.021666,0.954299,-0.054765,0.574132,0.054835,0.816925,-0.081807,-0.051631,0.108170,-35.953091,133.114868,17.533398,,,,,,
1466441709.12,2.540768,-0.055423,-1.673404,0.014571,1.232506,-0.060775,0.564455,0.055395,0.823603,-0.023226,-0.108373,0.189550,-35.953091,133.114868,17.533398,,,,,,
1466441709.13,2.554265,-0.055736,-1.672898,0.005163,1.376907,-0.058497,0.553278,0.055708,0.831132,-0.088587,0.047427,-0.016328,-36.292522,133.091034,17.007132,,,,,,
1466441709.14,2.568898,-0.056314,-1.672485,0.025551,1.484172,-0.070858,0.541040,0.056284,0.839111,0.013113,-0.062479,0.098740,-36.292522,133.091034,17.007132,,,,,,
1466441709.15,2.584238,-0.056694,-1.671984,0.008570,1.541494,-0.062719,0.528094,0.056664,0.847294,-0.019091,0.007270,0.022076,-36.872959,133.049728,16.055235,,,,,,
1466441709.16,2.600275,-0.057166,-1.671551,0.010813,1.633867,-0.062232,0.514424,0.057135,0.855630,-0.020512,0.024270,0.004569,-36.872959,133.049728,16.055235,,,,,,
1466441709.17,2.618058,-0.057323,-1.671040,-0.016649,1.827100,-0.052826,0.499123,0.057291,0.864635,-0.021248,0.043737,-0.006664,-36.872959,133.049728,16.055235,,,,,,
1466441709.18,2.635899,-0.059403,-1.670573,-0.030447,1.872735,-0.044610,0.483560,0.059368,0.873295,0.047247,0.085606,-0.039525,-36.872959,133.049728,16.055235,,,,,,
1466441709.19,2.653284,-0.059065,-1.670072,-0.058402,1.687940,-0.023254,0.468315,0.059031,0.881587,0.021980,0.111700,-0.147029,-36.953217,132.842163,12.156793,,,,,,
1466441709.20,2.670075,-0.058634,-1.669634,-0.060526,1.698547,-0.019065,0.453458,0.058600,0.889349,0.031466,0.067895,-0.072058,-36.953217,132.842163,12.156793,,,,,,
1466441709.21,2.687898,-0.057928,-1.669169,-0.089182,1.790906,-0.007964,0.437554,0.057896,0.897326,0.031272,0.074032,-0.064029,-36.953217,132.842163,12.156793,,,,,,
1466441709.22,2.704853,-0.057292,-1.668737,-0.070190,1.642262,-0.013400,0.422293,0.057261,0.904649,0.097925,0.015051,-0.035081,-37.968544,132.765976,9.588965,,,,,,
1466441709.23,2.719252,-0.056649,-1.668386,-0.072606,1.425632,-0.004592,0.409239,0.056618,0.910669,0.097551,-0.001519,-0.040902,-37.968544,132.765976,9.588965,,,,,,
1466441709.24,2.731937,-0.056195,-1.668047,-0.047300,1.211165,-0.013866,0.397665,0.056165,0.915810,0.125559,-0.045713,-0.021279,-37.968544,132.765976,9.588965,,,,,,
1466441709.25,2.742143,-0.055908,-1.667792,-0.033792,0.948887,-0.010079,0.388304,0.055879,0.919836,0.128313,-0.047120,-0.018743,-38.275200,132.746124,8.593180,,,,,,
1466441709.26,2.749612,-0.055809,-1.667574,-0.009625,0.680259,-0.015821,0.381424,0.055780,0.922716,0.136703,-0.053522,-0.039430,-38.275200,132.746124,8.593180,,,,,,
1466441709.27,2.752919,-0.055305,-1.667526,0.002817,0.415853,-0.013086,0.378382,0.055277,0.923997,0.134969,-0.050607,-0.038972,-38.495934,132.729080,7.837337,,,,,,
1466441709.28,2.755379,-0.055482,-1.667428,0.018510,0.188628,-0.014839,0.376104,0.055454,0.924917,0.123728,-0.029590,-0.059499,-38.495934,132.729080,7.837337,,,,,,
1466441709.29,2.747750,-0.053709,-1.667839,0.032037,-0.057761,-0.012216,0.383187,0.053684,0.922110,0.113960,-0.032962,-0.034796,-38.495934,132.729080,7.837337,,,,,,
1466441709.30,2.745295,-0.054061,-1.667878,0.035991,-0.300916,-0.010687,0.385441,0.054035,0.921149,0.084728,-0.011966,-0.068152,-38.495934,132.729080,7.837337,,,,,,
1466441709.31,2.734321,-0.055205,-1.668337,0.038946,-0.483601,-0.003151,0.395502,0.055176,0.916806,0.085150,0.010818,-0.053159,-38.421497,132.747604,7.888375,,,,,,
1466441709.32,2.728122,-0.055477,-1.668483,0.030192,-0.663056,0.003288,0.401172,0.055448,0.914323,0.057095,0.030962,-0.076066,-38.421497,132.747604,7.888375,,,,,,
1466441709.33,2.720627,-0.055645,-1.668897,0.034236,-0.754510,0.053895,0.408009,0.055616,0.911282,0.054836,0.043169,-0.070264,-38.330341,132.755447,8.194156,,,,,,
1466441709.34,2.712420,-0.056085,-1.669243,0.053077,-0.951062,0.094531,0.415464,0.056056,0.907881,0.222582,-0.064768,0.166216,-38.330341,132.755447,8.194156,,,,,,
1466441709.35,2.702958,-0.055704,-1.669152,0.035135,-0.934935,0.025223,0.424045,0.055675,0.903928,-0.249118,0.164631,-0.690732,-38.330341,132.755447,8.194156,,,,,,
1466441709.36,2.693855,-0.056361,-1.669730,0.038257,-0.922315,0.068789,0.432240,0.056331,0.899998,0.193661,-0.039150,0.270367,-38.330341,132.755447,8.194156,,,,,,
1466441709.37,2.683636,-0.056013,-1.669699,-0.004399,-1.048523,0.023767,0.441423,0.055984,0.895551,0.026381,-0.157104,0.174838,-37.985287,132.782837,9.284439,,,,,,
1466441709.38,2.677115,-0.056377,-1.669891,-0.037211,-0.275115,-0.125881,0.447244,0.056347,0.892635,0.708182,0.066990,0.916187,-37.985287,132.782837,9.284439,,,,,,
1466441709.39,2.690840,-0.056385,-1.669561,0.038958,1.918464,-0.115080,0.434951,0.056355,0.898689,0.355653,0.121043,0.546898,-37.985287,132.782837,9.284439,,,,,,
1466441709.40,2.717208,-0.056336,-1.668709,-0.106060,2.693486,-0.059412,0.411107,0.056306,0.909846,0.081309,-0.103975,0.007420,-37.860790,132.793198,9.638124,,,,,,
1466441709.41,2.736883,-0.056461,-1.668057,0.037369,1.624132,-0.035531,0.393125,0.056431,0.917752,-0.063016,0.035457,-0.458844,-37.860790,132.793198,9.638124,,,,,,
1466441709.42,2.748736,-0.056586,-1.667418,-0.020622,1.156032,-0.078425,0.382216,0.056556,0.922341,0.249849,-0.138786,0.256431,-38.450874,132.734955,7.957823,,,,,,
1466441709.43,2.761392,-0.057205,-1.667046,0.050863,1.279156,-0.075932,0.370500,0.057174,0.927071,0.015090,-0.015182,-0.176613,-38.450874,132.734955,7.957823,,,,,,
1466441709.44,2.769840,-0.057652,-1.666617,0.025501,0.627146,-0.044193,0.362646,0.057620,0.930144,0.028910,-0.085314,-0.203292,-38.450874,132.734955,7.957823,,,,,,
1466441709.45,2.764420,-0.055889,-1.666827,0.121582,-0.022745,-0.045343,0.367718,0.055859,0.928258,0.110980,-0.051343,-0.025517,-38.795052,132.690170,6.973381,,,,,,
1466441709.46,2.765333,-0.056873,-1.666578,0.063302,0.180123,-0.059446,0.366851,0.056842,0.928542,0.062150,0.022595,-0.053908,-38.795052,132.690170,6.973381,,,,,,
1466441709.47,2.769657,-0.057638,-1.666297,0.062627,0.491232,-0.061398,0.362816,0.057606,0.930078,0.153526,0.107509,0.023718,-38.795052,132.690170,6.973381,,,,,,
1466441709.48,2.774762,-0.058238,-1.665994,0.038127,0.500768,-0.049774,0.358050,0.058205,0.931886,0.176358,0.031089,0.055052,-38.964367,132.657822,6.636742,,,,,,
1466441709.49,2.779528,-0.058772,-1.665695,0.039155,0.476338,-0.046426,0.353594,0.058738,0.933553,0.119749,0.044061,-0.029958,-38.964367,132.657822,6.636742,,,,,,
1466441709.50,2.782192,-0.060357,-1.665550,0.025542,0.654712,-0.048622,0.351073,0.060320,0.934403,0.154619,0.050108,0.039458,-38.964367,132.657822,6.636742,,,,,,
1466441709.51,2.792004,-0.060669,-1.665056,0.008016,1.102820,-0.057837,0.341881,0.060631,0.937785,0.196373,0.064750,0.099614,-39.155563,132.625397,6.140795,,,,,,
1466441709.52,2.807100,-0.060787,-1.664405,-0.017919,1.639058,-0.066548,0.327684,0.060750,0.942832,0.246916,0.047283,0.119561,-39.155563,132.625397,6.140795,,,,,,
1466441709.53,2.827314,-0.060773,-1.663582,-0.030055,2.134952,-0.079250,0.308560,0.060736,0.949264,0.284915,0.027262,0.113587,-39.155563,132.625397,6.140795,,,,,,
1466441709.54,2.851749,-0.060670,-1.662609,-0.042319,2.524672,-0.093416,0.285277,0.060633,0.956525,0.255632,0.016638,0.024264,-39.751572,132.526779,4.102499,,,,,,
1466441709.55,2.878456,-0.060439,-1.661545,-0.052757,2.688201,-0.096581,0.259636,0.060403,0.963816,0.213768,0.037010,-0.086588,-39.751572,132.526779,4.102499,,,,,,
1466441709.56,2.904711,-0.060149,-1.660498,-0.053973,2.572456,-0.092663,0.234248,0.060113,0.970317,0.185490,0.008994,-0.162196,-39.751572,132.526779,4.102499,,,,,,
1466441709.57,2.927802,-0.059860,-1.659519,-0.050197,2.191261,-0.088139,0.211786,0.059824,0.975483,0.131216,0.039022,-0.289235,-40.157719,132.449829,2.182750,,,,,,
1466441709.58,2.944946,-0.059532,-1.658699,-0.045744,1.520158,-0.069024,0.195036,0.059497,0.978990,0.087282,0.013440,-0.377122,-40.157719,132.449829,2.182750,,,,,,
1466441709.59,2.952850,-0.059344,-1.658141,-0.025735,0.520948,-0.046770,0.187294,0.059309,0.980512,0.046562,0.021089,-0.455609,-40.157719,132.449829,2.182750,,,,,,
1466441709.60,2.949250,-0.059277,-1.657881,-0.004901,-0.661970,-0.018042,0.190823,0.059243,0.979835,-0.035413,0.015434,-0.455574,-40.623631,132.324432,-0.572969,,,,,,
1466441709.61,2.934086,-0.059377,-1.657946,0.014919,-1.802418,0.011484,0.205658,0.059342,0.976823,-0.073456,-0.001786,-0.440080,-40.623631,132.324432,-0.572969,,,,,,
1466441709.62,2.905431,-0.059673,-1.658408,0.048181,-3.250813,0.049341,0.233556,0.059638,0.970513,-0.137609,-0.016379,-0.437081,-40.623631,132.324432,-0.572969,,,,,,
1466441709.63,2.860822,-0.060206,-1.659343,0.083391,-4.851035,0.083894,0.276594,0.060170,0.959101,-0.110686,-0.005620,-0.324824,-40.653294,132.316437,0.190917,,,,,,
1466441709.65,2.730962,-0.061638,-1.662500,0.140870,-7.340053,0.144269,0.398430,0.061599,0.915128,-0.046699,-0.008391,-0.006650,-40.653294,132.316437,0.190917,,,,,,
1466441709.64,2.801785,-0.060896,-1.660701,0.113576,-6.216590,0.114842,0.332688,0.060858,0.941071,-0.096650,-0.004431,-0.175568,-40.653294,132.316437,0.190917,,,,,,
1466441709.66,2.649951,-0.062335,-1.664925,0.180020,-8.294788,0.206711,0.471157,0.062295,0.879847,0.025043,-0.016412,0.167578,-40.653294,132.316437,0.190917,,,,,,
1466441709.67,2.568120,-0.063050,-1.667271,0.172018,-7.968664,0.151436,0.541474,0.063008,0.838353,0.107467,0.008815,0.409587,-39.348885,132.477219,7.862358,,,,,,
1466441709.68,2.498154,-0.063384,-1.669082,0.121537,-6.657248,0.119743,0.598745,0.063342,0.798431,-0.035101,-0.015429,0.474961,-39.348885,132.477219,7.862358,,,,,,
1466441709.69,2.436203,-0.063819,-1.670925,0.160554,-6.114677,0.113185,0.647010,0.063776,0.759809,-0.125694,-0.024958,0.368227,-37.129162,132.650299,13.626878,,,,,,
1466441709.70,2.374834,-0.064119,-1.672799,0.142451,-6.108312,0.118450,0.692379,0.064075,0.718684,-0.154567,-0.003589,0.284063,-37.129162,132.650299,13.626878,,,,,,
1466441709.71,2.318960,-0.064406,-1.674518,0.141346,-5.315104,0.098572,0.731420,0.064361,0.678884,-0.173558,-0.025848,0.378489,-37.129162,132.650299,13.626878,,,,,,
1466441709.72,2.274421,-0.064616,-1.675863,0.102356,-4.178894,0.069053,0.760911,0.064571,0.645636,-0.248414,-0.014324,0.366678,-32.111088,132.913940,21.520452,,,,,,
1466441709.73,2.239273,-0.064810,-1.676916,0.091774,-3.301798,0.048640,0.783119,0.064765,0.618490,-0.325233,-0.007361,0.346842,-32.111088,132.913940,21.520452,,,,,,
1466441709.74,2.211385,-0.065016,-1.677792,0.076687,-2.616892,0.031556,0.800050,0.064970,0.596405,-0.357469,-0.000273,0.342163,-32.111088,132.913940,21.520452,,,,,,
1466441709.75,2.190534,-0.065181,-1.678498,0.064823,-1.892731,0.024873,0.812302,0.065135,0.579588,-0.355469,-0.009120,0.342165,-30.144806,132.999954,23.720619,,,,,,
1466441709.76,2.178227,-0.065391,-1.678953,0.040439,-0.985895,0.003195,0.819362,0.065344,0.569540,-0.355266,0.001977,0.274027,-30.144806,132.999954,23.720619,,,,,,
1466441709.77,2.176280,-0.065625,-1.679017,0.015184,0.070664,-0.022617,0.820457,0.065578,0.567934,-0.334266,-0.019558,0.295744,-30.144806,132.999954,23.720619,,,,,,
1466441709.78,2.184261,-0.065871,-1.678782,-0.013424,1.021010,-0.034992,0.815885,0.065823,0.574455,-0.312314,0.009418,0.233681,-30.144806,132.999954,23.720619,,,,,,
1466441709.79,2.200367,-0.066136,-1.678304,-0.026270,1.799344,-0.049466,0.806513,0.066088,0.587511,-0.275690,0.033887,0.201292,-28.525660,133.070526,25.276272,,,,,,
1466441709.80,2.225275,-0.066345,-1.677550,-0.054880,2.732728,-0.071315,0.791620,0.066296,0.607407,-0.237390,-0.009030,0.216308,-28.525660,133.070526,25.276272,,,,,,
1466441709.81,2.261103,-0.066514,-1.676453,-0.082170,3.875276,-0.091282,0.769346,0.066465,0.635366,-0.219511,0.012973,0.194529,-29.235699,133.039505,24.619715,,,,,,
1466441709.82,2.309299,-0.066686,-1.674954,-0.108261,5.115525,-0.117182,0.737834,0.066636,0.671685,-0.149012,0.000472,0.239753,-29.235699,133.039505,24.619715,,,,,,
1466441709.83,2.369190,-0.066733,-1.673028,-0.141952,6.236845,-0.143405,0.696305,0.066684,0.714642,-0.021561,0.009122,0.259784,-29.235699,133.039505,24.619715,,,,,,
1466441709.84,2.436281,-0.066563,-1.670882,-0.159356,6.794297,-0.145854,0.646836,0.066514,0.759723,0.031753,0.032592,0.203091,-33.506535,132.836792,19.800699,,,,,,
1466441709.85,2.505463,-0.066227,-1.668740,-0.159215,6.910028,-0.144451,0.592785,0.066179,0.802637,0.067097,0.029357,0.190115,-33.506535,132.836792,19.800699,,,,,,
1466441709.86,2.573360,-0.065649,-1.666661,-0.166950,6.701889,-0.132509,0.536984,0.065602,0.841038,0.053393,0.050854,0.151241,-33.506535,132.836792,19.800699,,,,,,
1466441709.87,2.637228,-0.064904,-1.664802,-0.157967,6.246333,-0.115805,0.482234,0.064858,0.873638,0.049398,0.053672,0.082355,-36.298458,132.678406,15.467017,,,,,,
1466441709.88,2.696361,-0.063994,-1.663114,-0.158549,5.791863,-0.106569,0.429785,0.063951,0.900663,0.102121,0.019042,0.050081,-36.298458,132.678406,15.467017,,,,,,
1466441709.89,2.752002,-0.062980,-1.661611,-0.153640,5.479659,-0.092897,0.379057,0.062939,0.923231,0.147570,0.046940,0.014224,-36.298458,132.678406,15.467017,,,,,,
1466441709.90,2.803424,-0.061874,-1.660302,-0.148940,4.991213,-0.084506,0.331126,0.061834,0.941558,0.214239,0.031351,-0.053833,-39.681538,132.430832,6.915130,,,,,,
1466441709.91,2.847639,-0.060829,-1.659253,-0.112624,4.254266,-0.067075,0.289203,0.060791,0.955336,0.226712,-0.056549,-0.069792,-39.681538,132.430832,6.915130,,,,,,
1466441709.92,2.884341,-0.060113,-1.658340,-0.088045,3.479135,-0.061125,0.253964,0.060077,0.965346,0.226321,-0.048313,-0.114485,-39.681538,132.430832,6.915130,,,,,,
1466441709.93,2.914481,-0.059500,-1.657638,-0.073934,2.860070,-0.047648,0.224766,0.059465,0.972597,0.218533,0.002898,-0.137209,-40.375782,132.356232,3.463039,,,,,,
1466441709.94,2.939007,-0.059039,-1.657053,-0.051182,2.318548,-0.047422,0.200852,0.059005,0.977843,0.265243,0.008134,-0.104857,-40.375782,132.356232,3.463039,,,,,,
1466441709.95,2.958678,-0.058578,-1.656627,-0.054968,1.867248,-0.031822,0.181584,0.058545,0.981631,0.238582,0.007678,-0.167682,-40.375782,132.356232,3.463039,,,,,,
1466441709.96,2.973549,-0.058291,-1.656320,-0.026892,1.343744,-0.021060,0.166970,0.058258,0.984239,0.261894,0.002090,-0.153124,-40.797882,132.270355,-0.670085,,,,,,
1466441709.97,2.981971,-0.058151,-1.656131,-0.013909,0.664175,-0.013592,0.158676,0.058118,0.985619,0.259278,-0.024366,-0.175240,-40.797882,132.270355,-0.670085,,,,,,
1466441709.98,2.982938,-0.058262,-1.656128,0.019196,-0.091872,0.000763,0.157722,0.058229,0.985765,0.225289,-0.029070,-0.186250,-40.797882,132.270355,-0.670085,,,,,,
1466441709.99,2.977145,-0.058566,-1.656281,0.035432,-0.719423,0.011102,0.163426,0.058532,0.984818,0.218989,-0.002532,-0.160355,-40.826889,132.253983,-1.552760,,,,,,
1466441710.00,2.966394,-0.058956,-1.656516,0.046543,-1.191942,0.018334,0.174001,0.058922,0.982981,0.219340,0.001442,-0.137812,-40.826889,132.253983,-1.552760,,,,,,
1466441710.01,2.950464,-0.059400,-1.656854,0.050112,-1.730299,0.029165,0.189632,0.059365,0.980059,0.184834,0.019172,-0.152926,-40.826889,132.253983,-1.552760,,,,,,
1466441710.02,2.929258,-0.059927,-1.657340,0.065430,-2.236810,0.040873,0.210365,0.059891,0.975787,0.156640,-0.002365,-0.117236,-40.793144,132.272766,-0.447891,,,,,,
1466441710.03,2.904159,-0.060537,-1.657901,0.072456,-2.580832,0.040908,0.234778,0.060500,0.970164,0.162195,-0.002929,-0.070857,-40.793144,132.272766,-0.447891,,,,,,
1466441710.04,2.876066,-0.061225,-1.658532,0.083786,-2.882396,0.044940,0.261926,0.061187,0.963146,0.160987,-0.013366,-0.046215,-40.793144,132.272766,-0.447891,,,,,,
1466441710.05,2.845106,-0.061973,-1.659242,0.094097,-3.145736,0.049795,0.291601,0.061934,0.954533,0.155954,-0.010450,-0.023747,-40.671303,132.305038,1.259501,,,,,,
1466441710.06,2.813202,-0.062725,-1.659996,0.095121,-3.182891,0.046836,0.321885,0.062683,0.944701,0.166945,0.002670,0.004243,-40.671303,132.305038,1.259501,,,,,,
1466441710.07,2.780678,-0.063497,-1.660746,0.098211,-3.267835,0.046307,0.352418,0.063454,0.933689,0.122115,0.009681,0.005459,-40.671303,132.305038,1.259501,,,,,,
1466441710.08,2.746378,-0.064275,-1.661588,0.103244,-3.492951,0.051982,0.384211,0.064230,0.921008,0.067037,0.012888,-0.014117,-39.994232,132.392334,5.753092,,,,,,
1466441710.09,2.709043,-0.064967,-1.662548,0.102857,-3.791335,0.060239,0.418303,0.064921,0.905985,0.028170,0.018560,0.000921,-39.994232,132.392334,5.753092,,,,,,
1466441710.10,2.671558,-0.065610,-1.663490,0.096609,-3.686202,0.055316,0.451943,0.065563,0.889634,0.006858,0.010654,0.092162,-39.994232,132.392334,5.753092,,,,,,
1466441710.11,2.637545,-0.066138,-1.664375,0.085384,-3.301817,0.050765,0.481918,0.066090,0.873721,-0.027419,0.008419,0.120435,-39.346287,132.450058,8.319731,,,,,,
1466441710.12,2.606395,-0.066651,-1.665174,0.085715,-3.049088,0.041729,0.508879,0.066601,0.858258,-0.045988,-0.009946,0.131625,-39.346287,132.450058,8.319731,,,,,,
1466441710.13,2.577974,-0.067119,-1.665905,0.074362,-2.769816,0.035709,0.533046,0.067069,0.843424,-0.077907,0.004754,0.105887,-39.346287,132.450058,8.319731,,,,,,
1466441710.15,2.529056,-0.067862,-1.667147,0.049523,-2.201736,0.031057,0.573621,0.067810,0.816309,-0.110166,0.036301,0.100073,-37.701557,132.561081,12.904129,,,,,,
1466441710.14,2.551892,-0.067549,-1.666574,0.070387,-2.543650,0.034286,0.554844,0.067498,0.829212,-0.101002,0.017417,0.121685,-37.701557,132.561081,12.904129,,,,,,
1466441710.16,2.511103,-0.067973,-1.667532,0.025759,-1.630462,0.023192,0.588179,0.067921,0.805873,-0.103896,0.047527,0.086903,-37.701557,132.561081,12.904129,,,,,,
1466441710.17,2.500278,-0.067932,-1.667721,0.001116,-0.906297,0.017562,0.596870,0.067879,0.799462,-0.132392,0.036323,0.113090,-36.744774,131.000778,16.972319,,,,,,
1466441710.18,2.495030,-0.067826,-1.667738,-0.008914,-0.429516,0.004981,0.601061,0.067774,0.796324,-0.119921,0.009543,0.102830,-36.744774,131.000778,16.972319,,,,,,
1466441710.19,2.503390,-0.066967,-1.666920,-0.007736,-0.338138,0.003344,0.594418,0.066917,0.801367,-0.128185,-0.010628,0.081048,-36.744774,131.000778,16.972319,,,,,,
1466441710.21,2.492407,-0.067091,-1.667110,0.019436,-0.739525,0.010146,0.603178,0.067040,0.794784,-0.187559,-0.010384,0.118012,-36.250893,130.998169,18.022097,,,,,,
1466441710.20,2.499077,-0.067001,-1.666948,0.008071,-0.474048,0.001019,0.597867,0.066951,0.798794,-0.152494,-0.027492,0.107089,-36.250893,130.998169,18.022097,,,,,,
1466441710.22,2.482455,-0.067167,-1.667526,0.037064,-1.071954,0.039924,0.611055,0.067117,0.788738,-0.199769,0.004630,0.120350,-36.250893,130.998169,18.022097,,,,,,
1466441710.23,2.473196,-0.067320,-1.667934,0.023585,-0.811755,0.020183,0.618325,0.067269,0.783039,-0.141457,0.025092,0.047970,-36.040966,131.004852,18.390772,,,,,,
1466441710.24,2.471906,-0.067149,-1.667858,-0.025289,0.099331,0.001647,0.619341,0.067099,0.782249,-0.126849,0.021906,0.122490,-36.040966,131.004852,18.390772,,,,,,
1466441710.25,2.476136,-0.067079,-1.667811,-0.003560,0.453948,0.004767,0.616030,0.067029,0.784866,-0.130602,0.005939,0.161499,-36.040966,131.004852,18.390772,,,,,,
1466441710.27,2.496049,-0.066453,-1.666899,-0.028601,0.842664,-0.011535,0.600305,0.066404,0.797010,-0.085504,-0.004362,0.083895,-35.664810,131.032776,18.917656,,,,,,
1466441710.26,2.480129,-0.066956,-1.667753,-0.019585,0.403004,-0.000252,0.612896,0.066906,0.787326,-0.135006,0.000736,0.032056,-35.664810,131.032776,18.917656,,,,,,
1466441710.28,2.507276,-0.066327,-1.666586,-0.028166,1.180332,-0.018974,0.591325,0.066278,0.803705,-0.084809,-0.001047,0.134603,-35.664810,131.032776,18.917656,,,,,,
1466441710.29,2.519846,-0.066152,-1.666258,-0.034438,1.280133,-0.015349,0.581182,0.066104,0.811085,-0.082982,0.010236,0.054455,-36.079205,131.000992,18.343204,,,,,,
1466441710.30,2.534699,-0.065922,-1.665787,-0.048982,1.557291,-0.024552,0.569080,0.065874,0.819640,-0.041629,0.014753,0.041933,-36.079205,131.000992,18.343204,,,,,,
1466441710.31,2.551763,-0.065689,-1.665315,-0.046680,1.699564,-0.022249,0.555020,0.065642,0.829243,-0.049695,0.016054,0.046856,-36.079205,131.000992,18.343204,,,,,,
1466441710.33,2.588555,-0.065140,-1.664328,-0.054783,2.014950,-0.033815,0.524161,0.065094,0.849128,-0.002707,-0.011657,0.055337,-37.159374,130.943176,16.507854,,,,,,
1466441710.32,2.569086,-0.065432,-1.664896,-0.046619,1.751586,-0.020446,0.540581,0.065385,0.838747,-0.046562,0.008620,0.030638,-37.159374,130.943176,16.507854,,,,,,
1466441710.34,2.609432,-0.064940,-1.663732,-0.045115,2.073362,-0.040559,0.506327,0.064895,0.859896,0.027075,-0.021941,0.055417,-37.159374,130.943176,16.507854,,,,,,
1466441710.35,2.629322,-0.064755,-1.663199,-0.038871,1.957622,-0.039827,0.489130,0.064710,0.869807,-0.005961,-0.012525,0.027898,-37.812378,130.907455,15.261198,,,,,,
1466441710.36,2.649589,-0.064559,-1.662639,-0.044070,2.055314,-0.041509,0.471409,0.064514,0.879552,0.027996,-0.002014,0.038508,-37.812378,130.907455,15.261198,,,,,,
1466441710.37,2.669937,-0.064567,-1.662097,-0.016463,1.988418,-0.045320,0.453415,0.064522,0.888961,0.079681,-0.058571,0.103425,-37.812378,130.907455,15.261198,,,,,,
1466441710.38,2.688621,-0.064662,-1.661592,-0.012357,1.849349,-0.055088,0.436725,0.064617,0.897271,0.026150,-0.036007,-0.041070,-39.151608,130.821548,12.341646,,,,,,
1466441710.39,2.708214,-0.064922,-1.661068,0.000610,1.999060,-0.057078,0.419055,0.064877,0.905640,0.069806,-0.035900,0.042251,-39.151608,130.821548,12.341646,,,,,,
1466441710.40,2.728402,-0.064849,-1.660453,-0.038817,1.985256,-0.049580,0.400689,0.064804,0.913919,0.069617,0.092835,-0.070444,-39.151608,130.821548,12.341646,,,,,,
1466441710.41,2.745983,-0.064757,-1.660039,-0.032852,1.683639,-0.025329,0.384563,0.064712,0.920828,0.029026,0.086945,-0.082357,-39.735920,130.777481,10.851229,,,,,,
1466441710.42,2.762109,-0.064365,-1.659661,-0.051057,1.605066,-0.021661,0.369674,0.064321,0.926933,0.042191,0.051493,-0.093467,-39.735920,130.777481,10.851229,,,,,,
1466441710.43,2.777874,-0.064145,-1.659287,-0.030887,1.548795,-0.026610,0.355021,0.064101,0.932658,0.126989,-0.016677,0.010777,-39.735920,130.777481,10.851229,,,,,,
1466441710.44,2.791382,-0.064063,-1.658905,-0.014196,1.260000,-0.033298,0.342392,0.064019,0.937374,0.137283,-0.066766,-0.009700,-40.574860,130.710373,8.241427,,,,,,
1466441710.45,2.800016,-0.064020,-1.658726,0.011899,0.847994,-0.027494,0.334287,0.063976,0.940298,0.132724,-0.035427,-0.064062,-40.574860,130.710373,8.241427,,,,,,
1466441710.46,2.806660,-0.064068,-1.658491,-0.008636,0.615452,-0.019670,0.328032,0.064024,0.942495,0.137575,0.045595,-0.124883,-40.574860,130.710373,8.241427,,,,,,
1466441710.47,2.811214,-0.064049,-1.658372,-0.003622,0.387129,-0.006524,0.323736,0.064005,0.943980,0.122095,0.056326,-0.122233,-40.810596,130.688324,7.382488,,,,,,
1466441710.48,2.812447,-0.063904,-1.658361,-0.016872,0.028214,0.007423,0.322575,0.063860,0.944387,0.122265,0.066038,-0.148794,-40.810596,130.688324,7.382488,,,,,,
1466441710.49,2.797892,-0.063825,-1.659224,0.003957,-0.340310,0.011885,0.336288,0.063782,0.939597,0.124253,-0.003418,-0.099372,-40.810596,130.688324,7.382488,,,,,,
1466441710.50,2.792232,-0.063889,-1.659378,0.011044,-0.634430,0.012673,0.341599,0.063845,0.937675,0.128692,-0.021853,-0.075431,-40.725296,130.709961,7.469853,,,,,,
1466441710.51,2.783829,-0.064087,-1.659583,0.030934,-0.907320,0.013340,0.349461,0.064043,0.934759,0.121562,-0.030550,-0.046545,-40.725296,130.709961,7.469853,,,,,,
1466441710.52,2.772834,-0.064339,-1.659875,0.030614,-1.153673,0.020206,0.359712,0.064294,0.930846,0.094115,-0.001947,-0.053770,-40.725296,130.709961,7.469853,,,,,,
1466441710.54,2.747279,-0.064695,-1.660567,0.019766,-1.300221,0.029630,0.383371,0.064650,0.921329,0.051581,0.031953,-0.036853,-40.584538,130.722839,7.992480,,,,,,
1466441710.53,2.760222,-0.064580,-1.660211,0.028342,-1.260927,0.025135,0.371417,0.064535,0.926221,0.072812,0.041101,-0.068036,-40.584538,130.722839,7.992480,,,,,,
1466441710.55,2.733948,-0.064742,-1.660935,0.020772,-1.343761,0.032033,0.395618,0.064697,0.916134,0.026120,0.030182,-0.027386,-40.584538,130.722839,7.992480,,,,,,
1466441710.56,2.719886,-0.064855,-1.661351,0.027060,-1.422341,0.033597,0.408458,0.064810,0.910473,0.016423,-0.006597,0.007816,-40.008480,130.773315,9.854046,,,,,,
1466441710.57,2.705608,-0.064960,-1.661740,0.032412,-1.409584,0.027135,0.421413,0.064915,0.904543,0.003102,-0.011906,0.016875,-40.008480,130.773315,9.854046,,,,,,
1466441710.58,2.692855,-0.065216,-1.662112,0.037999,-1.206771,0.021611,0.432906,0.065170,0.899080,-0.000594,-0.031311,0.070250,-40.008480,130.773315,9.854046,,,,,,
1466441710.59,2.683544,-0.065454,-1.662319,0.026781,-0.835096,0.005431,0.441252,0.065407,0.894996,0.008134,-0.018700,0.078865,-39.630550,130.804459,10.911441,,,,,,
1466441710.60,2.677375,-0.065702,-1.662464,0.027153,-0.548392,-0.002753,0.446758,0.065655,0.892243,0.014592,-0.009121,0.064087,-39.630550,130.804459,10.911441,,,,,,
1466441710.61,2.673428,-0.066097,-1.662537,0.010439,-0.289311,-0.002266,0.450264,0.066049,0.890449,0.030281,0.013312,0.033745,-39.630550,130.804459,10.911441,,,,,,
1466441710.62,2.671578,-0.067759,-1.662552,-0.000839,0.043049,-0.010750,0.451860,0.067707,0.889516,0.032591,0.026745,0.017436,-39.233833,130.828781,11.999171,,,,,,
1466441710.63,2.673559,-0.069788,-1.662450,-0.016500,0.292566,-0.008074,0.450034,0.069731,0.890285,0.016549,0.033571,0.012654,-39.233833,130.828781,11.999171,,,,,,
1466441710.64,2.676735,-0.070824,-1.662307,-0.019531,0.412559,-0.013088,0.447172,0.070765,0.891644,0.019014,0.019476,0.003513,-39.233833,130.828781,11.999171,,,,,,
1466441710.65,2.681044,-0.071602,-1.662107,-0.025893,0.434854,-0.011106,0.443301,0.071541,0.893514,-0.001879,0.015633,-0.015675,-39.463261,130.798569,11.568490,,,,,,
1466441710.66,2.684672,-0.071586,-1.661932,-0.018525,0.366894,-0.010673,0.440057,0.071524,0.895117,0.005912,0.001794,-0.008139,-39.463261,130.798569,11.568490,,,,,,
1466441710.67,2.687548,-0.071167,-1.661761,-0.015530,0.211865,-0.007568,0.437494,0.071106,0.896406,-0.010278,-0.006943,-0.013273,-39.463261,130.798569,11.568490,,,,,,
1466441710.68,2.688667,-0.070652,-1.661666,-0.005126,0.023914,-0.003186,0.436506,0.070593,0.896927,-0.015577,-0.010275,-0.015763,-39.780605,130.760300,10.894698,,,,,,
1466441710.69,2.688417,-0.069916,-1.661602,0.001093,-0.108812,-0.002346,0.436753,0.069859,0.896865,-0.018052,-0.016255,-0.010207,-39.780605,130.760300,10.894698,,,,,,
1466441710.70,2.687646,-0.069039,-1.661538,0.008484,-0.161893,-0.005199,0.437472,0.068984,0.896582,-0.013155,-0.019881,0.011758,-39.780605,130.760300,10.894698,,,,,,
1466441710.71,2.687024,-0.068376,-1.661471,0.013780,-0.182064,-0.005066,0.438049,0.068322,0.896351,-0.019073,-0.016977,0.022930,-39.736973,130.763336,11.016640,,,,,,
1466441710.72,2.686761,-0.068307,-1.661371,0.010619,-0.156569,-0.006294,0.438287,0.068254,0.896240,-0.029214,-0.004320,0.016449,-39.736973,130.763336,11.016640,,,,,,
