timestamp,attitude_roll,attitude_pitch,attitude_yaw,rotation_rate_x,rotation_rate_y,rotation_rate_z,gravity_x,gravity_y,gravity_z,user_acc_x,user_acc_y,user_acc_z,magnetic_field_x,magnetic_field_y,magnetic_field_z,latitude(degree),longitude(degree),altitude(meter),speed(m/s),course(degree),timestamp
1465313333.36,-0.595318,-0.034586,-2.436867,0.006686,-0.049433,-0.000318,-0.560437,0.034579,-0.827475,0.007794,-0.002230,-0.002573,68.012009,-33.735580,-66.773895,,,,,,
1465313333.37,-0.595556,-0.034630,-2.436856,-0.001763,0.012144,0.003545,-0.560632,0.034623,-0.827341,-0.000403,0.001235,0.016336,67.985252,-33.732922,-66.802483,,,,,,
1465313333.38,-0.595065,-0.034745,-2.436880,-0.002725,0.089663,-0.000135,-0.560225,0.034738,-0.827612,-0.001055,0.003500,0.022238,67.985252,-33.732922,-66.802483,,,,,,
,,,,,,,,,,,,,,,,29.719929,-95.399122,9.847343,-1.000000,-1.000000,1465315425.94
,,,,,,,,,,,,,,,,29.719928,-95.399121,9.847343,-1.000000,-1.000000,1465315419.39
1465313333.39,-0.593917,-0.034736,-2.436876,0.000489,0.106648,0.000826,-0.559274,0.034729,-0.828255,0.002939,-0.000717,0.000298,67.985252,-33.732922,-66.802483,,,,,,
1465313333.40,-0.593040,-0.034747,-2.436904,-0.003833,0.051446,-0.002026,-0.558547,0.034740,-0.828745,0.007155,-0.000515,-0.009939,67.999519,-33.728909,-66.789978,,,,,,
1465313333.41,-0.592960,-0.034693,-2.436859,0.019424,-0.085530,-0.003272,-0.558482,0.034686,-0.828791,0.014674,0.003659,-0.027395,67.999519,-33.728909,-66.789978,,,,,,
1465313333.42,-0.594571,-0.034498,-2.436776,0.003256,-0.237366,0.000857,-0.559821,0.034491,-0.827896,0.013235,-0.004081,-0.035950,67.999519,-33.728909,-66.789978,,,,,,
1465313333.43,-0.596725,-0.034606,-2.436809,-0.004061,-0.123760,0.003331,-0.561600,0.034599,-0.826685,-0.006958,0.001228,0.034037,68.034035,-33.742859,-66.747772,,,,,,
1465313333.44,-0.597004,-0.034654,-2.436797,0.004705,0.069490,-0.001065,-0.561829,0.034647,-0.826527,-0.010604,0.004049,0.040105,68.034035,-33.742859,-66.747772,,,,,,
1465313333.45,-0.596060,-0.034651,-2.436849,-0.004915,0.032345,-0.005100,-0.561049,0.034644,-0.827057,0.017745,-0.000312,-0.011032,68.034035,-33.742859,-66.747772,,,,,,
1465313333.46,-0.596264,-0.034614,-2.436833,0.001272,-0.121628,0.000130,-0.561219,0.034607,-0.826944,0.019776,-0.001312,-0.040595,67.869179,-33.738274,-66.917709,,,,,,
1465313333.47,-0.597757,-0.034591,-2.436809,0.000158,-0.155614,0.003535,-0.562453,0.034584,-0.826106,0.004378,-0.002022,-0.003530,67.869179,-33.738274,-66.917709,,,,,,
1465313333.48,-0.599106,-0.034564,-2.436802,0.001337,-0.066422,0.001912,-0.563568,0.034557,-0.825347,-0.011261,-0.002406,0.026229,67.869179,-33.738274,-66.917709,,,,,,
1465313333.49,-0.599613,-0.034569,-2.436818,-0.000699,0.004724,-0.000665,-0.563986,0.034562,-0.825061,-0.011163,-0.000261,0.025515,67.730202,-33.739323,-67.057831,,,,,,
1465313333.50,-0.599424,-0.034589,-2.436831,-0.000683,0.017465,-0.000745,-0.563830,0.034582,-0.825167,0.002886,0.000575,0.005037,67.730202,-33.739323,-67.057831,,,,,,
1465313333.51,-0.599429,-0.034639,-2.436828,0.001401,-0.018637,-0.000516,-0.563832,0.034632,-0.825163,0.003774,0.003576,-0.004564,67.730202,-33.739323,-67.057831,,,,,,
1465313333.52,-0.599652,-0.034662,-2.436824,-0.000722,-0.012268,0.000506,-0.564016,0.034655,-0.825036,0.000662,0.001585,0.004617,67.709267,-33.736160,-67.080566,,,,,,
1465313333.53,-0.599663,-0.034675,-2.436824,0.002505,0.011096,-0.001766,-0.564025,0.034668,-0.825030,0.000350,0.001434,0.008120,67.709267,-33.736160,-67.080566,,,,,,
1465313333.54,-0.599537,-0.034651,-2.436813,0.002501,0.011090,0.000363,-0.563922,0.034644,-0.825101,-0.000471,-0.000220,0.002821,67.692375,-33.735592,-67.097900,,,,,,
1465313333.55,-0.599457,-0.034642,-2.436817,0.001434,0.007908,-0.000682,-0.563856,0.034635,-0.825146,0.000730,0.000323,0.000531,67.692375,-33.735592,-67.097900,,,,,,
1465313333.56,-0.599235,-0.034589,-2.436804,0.001437,0.011091,0.000362,-0.563673,0.034582,-0.825274,0.006712,-0.002158,-0.000898,67.692375,-33.735592,-67.097900,,,,,,
1465313333.57,-0.599229,-0.034554,-2.436795,0.000358,-0.012320,0.000505,-0.563669,0.034547,-0.825278,0.000818,-0.002336,-0.004465,67.692375,-33.735592,-67.097900,,,,,,
1465313333.58,-0.599314,-0.034534,-2.436792,-0.002835,-0.011256,0.000496,-0.563740,0.034528,-0.825230,0.004154,-0.002194,0.000462,67.721146,-33.738712,-67.067307,,,,,,
1465313333.59,-0.599396,-0.034544,-2.436786,0.000366,-0.005949,0.000465,-0.563807,0.034537,-0.825184,0.003230,0.000344,0.005894,67.721146,-33.738712,-67.067307,,,,,,
1465313333.60,-0.599445,-0.034544,-2.436779,0.000354,-0.015505,0.000525,-0.563848,0.034537,-0.825156,0.004109,0.000390,-0.001199,67.716476,-33.740833,-67.070946,,,,,,
1465313333.61,-0.599613,-0.034532,-2.436774,0.000346,-0.021875,0.000565,-0.563987,0.034525,-0.825062,0.001685,-0.000956,-0.001827,67.716476,-33.740833,-67.070946,,,,,,
1465313333.62,-0.599777,-0.034603,-2.436762,0.002472,-0.022941,0.001639,-0.564120,0.034596,-0.824968,0.006915,0.004115,0.003785,67.716476,-33.740833,-67.070946,,,,,,
1465313333.63,-0.600048,-0.034595,-2.436772,0.000344,-0.025058,-0.000479,-0.564344,0.034589,-0.824815,-0.001009,-0.000684,0.002534,67.716476,-33.740833,-67.070946,,,,,,
1465313333.64,-0.600346,-0.034601,-2.436766,0.000351,-0.019749,-0.000512,-0.564590,0.034594,-0.824646,-0.000748,0.000791,0.006912,67.683243,-33.742405,-67.103683,,,,,,
1465313333.65,-0.600432,-0.034609,-2.436767,-0.001747,0.005735,-0.000674,-0.564661,0.034602,-0.824597,-0.000357,0.000478,0.006619,67.683243,-33.742405,-67.103683,,,,,,
1465313333.66,-0.600303,-0.034636,-2.436762,0.002520,0.012104,-0.000710,-0.564554,0.034629,-0.824670,0.003137,0.002633,0.003823,67.683243,-33.742405,-67.103683,,,,,,
1465313333.67,-0.600171,-0.034641,-2.436765,-0.001751,0.002550,-0.000654,-0.564444,0.034635,-0.824744,0.004828,0.000369,-0.000634,67.647293,-33.741882,-67.140182,,,,,,
1465313333.68,-0.600160,-0.034671,-2.436751,0.002491,-0.009135,0.000488,-0.564435,0.034664,-0.824750,0.004269,0.002231,-0.001056,67.647293,-33.741882,-67.140182,,,,,,
1465313333.69,-0.600198,-0.034653,-2.436746,0.001434,-0.002763,0.000447,-0.564467,0.034646,-0.824728,0.003432,-0.000817,0.004461,67.647293,-33.741882,-67.140182,,,,,,
1465313333.70,-0.600275,-0.034663,-2.436735,0.002501,-0.002761,-0.000616,-0.564530,0.034656,-0.824685,0.002305,0.002072,0.006753,67.655930,-33.742275,-67.131302,,,,,,
1465313333.71,-0.600238,-0.034609,-2.436730,0.000376,0.000426,-0.000639,-0.564501,0.034602,-0.824707,0.001696,-0.002757,-0.000321,67.655930,-33.742275,-67.131302,,,,,,
1465313333.72,-0.600179,-0.034626,-2.436735,0.000375,-0.000636,-0.000632,-0.564452,0.034619,-0.824740,0.003310,0.001117,-0.000868,67.655930,-33.742275,-67.131302,,,,,,
1465313333.73,-0.600170,-0.034610,-2.436750,0.000379,-0.000630,-0.002761,-0.564444,0.034603,-0.824746,0.002250,-0.000058,0.001564,67.654968,-33.744598,-67.131096,,,,,,
1465313333.74,-0.600250,-0.034626,-2.436739,0.004627,-0.005947,-0.000594,-0.564510,0.034619,-0.824700,0.001034,0.002505,0.004158,67.654968,-33.744598,-67.131096,,,,,,
1465313333.75,-0.600227,-0.034620,-2.436730,0.002509,0.003610,-0.000656,-0.564491,0.034613,-0.824713,0.002434,0.000940,0.003897,67.654968,-33.744598,-67.131096,,,,,,
1465313333.76,-0.600217,-0.034593,-2.436733,0.001441,-0.000634,-0.001695,-0.564484,0.034587,-0.824719,0.000260,-0.000041,0.000394,67.650345,-33.744175,-67.135963,,,,,,
1465313333.77,-0.600218,-0.034578,-2.436725,0.001435,-0.002763,0.000447,-0.564485,0.034571,-0.824719,0.002107,-0.000239,0.000256,67.650345,-33.744175,-67.135963,,,,,,
1465313333.78,-0.600222,-0.034551,-2.436713,0.001434,-0.004883,-0.000604,-0.564488,0.034544,-0.824718,0.003102,-0.000655,0.001430,67.650345,-33.744175,-67.135963,,,,,,
1465313333.79,-0.600221,-0.034492,-2.436716,0.001434,-0.004883,-0.000604,-0.564489,0.034486,-0.824720,0.002584,-0.002686,-0.000384,67.652916,-33.747860,-67.131523,,,,,,
1465313333.81,-0.600142,-0.034365,-2.436711,0.004638,0.000427,-0.001699,-0.564426,0.034359,-0.824768,0.000950,-0.002422,0.002106,67.652916,-33.747860,-67.131523,,,,,,
1465313333.80,-0.600145,-0.034449,-2.436720,-0.000682,0.005736,-0.000673,-0.564427,0.034443,-0.824764,0.003347,-0.001773,0.000881,67.652916,-33.747860,-67.131523,,,,,,
1465313333.82,-0.600190,-0.034382,-2.436705,0.002503,-0.000640,0.000435,-0.564466,0.034375,-0.824740,0.001172,0.001498,0.006610,67.660149,-33.749027,-67.123642,,,,,,
1465313333.83,-0.600232,-0.034329,-2.436699,0.002534,0.025901,0.001332,-0.564502,0.034323,-0.824718,-0.009778,-0.002279,0.008602,67.660149,-33.749027,-67.123642,,,,,,
1465313333.84,-0.599965,-0.034347,-2.436687,0.004729,0.076868,-0.000049,-0.564281,0.034341,-0.824869,-0.011235,0.002677,0.022806,67.660149,-33.749027,-67.123642,,,,,,
1465313333.85,-0.599248,-0.034294,-2.436686,0.005893,0.155437,-0.000541,-0.563690,0.034287,-0.825274,-0.024780,-0.000611,0.030826,67.673225,-33.753796,-67.108055,,,,,,
1465313333.86,-0.597719,-0.034295,-2.436680,0.009242,0.277541,-0.002368,-0.562428,0.034289,-0.826135,-0.033504,0.004881,0.048028,67.673225,-33.753796,-67.108055,,,,,,
1465313333.87,-0.594772,-0.034165,-2.436697,0.011561,0.424073,-0.006478,-0.559993,0.034158,-0.827793,-0.034276,-0.001626,0.053532,67.673225,-33.753796,-67.108055,,,,,,
1465313333.88,-0.590566,-0.034075,-2.436702,0.013841,0.546171,-0.006177,-0.556508,0.034069,-0.830144,-0.039363,0.002980,0.054738,67.824532,-33.755348,-66.954346,,,,,,
1465313333.89,-0.584831,-0.033879,-2.436734,0.013997,0.662978,-0.011168,-0.551742,0.033873,-0.833327,-0.031754,-0.002958,0.044875,67.824532,-33.755348,-66.954346,,,,,,
1465313333.90,-0.577863,-0.033698,-2.436746,0.016190,0.713943,-0.011485,-0.545925,0.033691,-0.837156,-0.009266,0.000275,0.023023,67.824532,-33.755348,-66.954346,,,,,,
1465313333.91,-0.571222,-0.033505,-2.436748,0.017161,0.640675,-0.009960,-0.540357,0.033498,-0.840769,0.010022,-0.000097,-0.011450,69.153557,-33.759418,-65.578682,,,,,,
1465313333.92,-0.565393,-0.033349,-2.436744,0.012805,0.568466,-0.006318,-0.535449,0.033343,-0.843909,0.018253,0.001112,-0.021631,69.153557,-33.759418,-65.578682,,,,,,
1465313333.93,-0.560057,-0.033191,-2.436735,0.013811,0.518566,-0.008133,-0.530942,0.033185,-0.846758,0.025571,-0.001874,-0.018537,69.153557,-33.759418,-65.578682,,,,,,
1465313333.94,-0.554960,-0.033014,-2.436691,0.014818,0.477148,-0.004679,-0.526622,0.033008,-0.849458,0.007228,-0.000355,-0.010008,69.972221,-33.765656,-64.701195,,,,,,
1465313333.95,-0.550039,-0.032900,-2.436695,0.009519,0.495204,-0.005862,-0.522438,0.032894,-0.852043,0.009758,-0.002605,-0.000374,69.972221,-33.765656,-64.701195,,,,,,
1465313333.96,-0.545244,-0.032753,-2.436661,0.014814,0.473963,-0.004659,-0.518349,0.032748,-0.854542,0.002739,0.000456,-0.000820,69.972221,-33.765656,-64.701195,,,,,,
1465313333.97,-0.540329,-0.032648,-2.436672,0.007395,0.497332,-0.006942,-0.514144,0.032642,-0.857083,0.003051,-0.002567,0.003140,71.269402,-33.783619,-63.259907,,,,,,
1465313333.98,-0.535177,-0.032518,-2.436666,0.012686,0.469727,-0.007828,-0.509723,0.032512,-0.859724,0.013569,0.000859,-0.005694,71.269402,-33.783619,-63.259907,,,,,,
1465313333.99,-0.531094,-0.032420,-2.436657,0.008311,0.385832,-0.001984,-0.506211,0.032414,-0.861800,0.017731,-0.003499,-0.021272,71.269402,-33.783619,-63.259907,,,,,,
1465313334.00,-0.527467,-0.032309,-2.436620,0.011482,0.365659,-0.002919,-0.503084,0.032303,-0.863634,0.004564,0.000030,-0.007643,71.906876,-33.787212,-62.532406,,,,,,
1465313334.02,-0.518637,-0.032191,-2.436582,0.012988,0.709689,-0.010397,-0.495440,0.032185,-0.868046,-0.059171,0.010112,0.084903,71.906876,-33.787212,-62.532406,,,,,,
1465313334.01,-0.523330,-0.032171,-2.436552,0.017951,0.433606,-0.001210,-0.499509,0.032166,-0.865712,-0.021335,0.001419,0.025502,71.906876,-33.787212,-62.532406,,,,,,
1465313334.03,-0.510149,-0.031973,-2.436613,0.020642,0.864717,-0.014555,-0.488057,0.031968,-0.872226,-0.023448,-0.001603,0.062549,72.934082,-33.800659,-61.323826,,,,,,
1465313334.05,-0.494706,-0.031536,-2.436655,0.018345,0.734111,-0.011609,-0.474536,0.031531,-0.879671,0.008731,-0.003699,-0.016264,72.934082,-33.800659,-61.323826,,,,,,
1465313334.04,-0.502106,-0.031730,-2.436628,0.018399,0.777645,-0.011882,-0.481030,0.031725,-0.876130,-0.001483,0.000975,-0.000457,72.934082,-33.800659,-61.323826,,,,,,
1465313334.06,-0.487064,-0.031350,-2.436651,0.012987,0.708630,-0.010390,-0.467803,0.031345,-0.883277,0.020782,0.001202,-0.012719,73.946793,-33.804245,-60.096756,,,,,,
1465313334.07,-0.481257,-0.031213,-2.436681,0.010620,0.522810,-0.007098,-0.462668,0.031208,-0.885982,0.051566,-0.005848,-0.051030,73.946793,-33.804245,-60.096756,,,,,,
1465313334.08,-0.477545,-0.031107,-2.436648,0.010371,0.332732,-0.000584,-0.459378,0.031102,-0.887696,0.040234,-0.001149,-0.063674,73.946793,-33.804245,-60.096756,,,,,,
1465313334.09,-0.474817,-0.031054,-2.436641,0.003893,0.256295,-0.003305,-0.456955,0.031049,-0.888948,0.045807,-0.003233,-0.044860,75.410660,-33.813019,-58.244205,,,,,,
1465313334.10,-0.471409,-0.030910,-2.436607,0.001515,0.055630,-0.003113,-0.453925,0.030905,-0.890504,0.082740,-0.004660,-0.070876,75.410660,-33.813019,-58.244205,,,,,,
1465313334.11,-0.473443,-0.030883,-2.436575,0.001092,-0.273544,0.004273,-0.455736,0.030878,-0.889579,0.067522,-0.002909,-0.106011,75.410660,-33.813019,-58.244205,,,,,,
1465313334.12,-0.476231,-0.030939,-2.436537,-0.002075,-0.250185,0.005188,-0.458213,0.030934,-0.888304,0.016288,-0.000172,-0.030382,75.768394,-33.820148,-57.773903,,,,,,
1465313334.13,-0.477198,-0.030913,-2.436524,0.002449,-0.047368,-0.001401,-0.459073,0.030908,-0.887861,-0.011661,0.000800,0.044447,75.768394,-33.820148,-57.773903,,,,,,
1465313334.14,-0.477792,-0.030982,-2.436564,-0.001767,-0.012330,-0.001625,-0.459599,0.030977,-0.887586,-0.010601,0.002440,0.029127,75.768394,-33.820148,-57.773903,,,,,,
1465313334.15,-0.478527,-0.031024,-2.436594,-0.004007,-0.099399,-0.000017,-0.460251,0.031019,-0.887247,0.013260,-0.002668,-0.020010,75.395576,-33.822933,-58.257973,,,,,,
1465313334.16,-0.480302,-0.031091,-2.436588,-0.006276,-0.203467,0.004891,-0.461823,0.031086,-0.886427,0.028428,-0.001805,-0.036745,75.395576,-33.822933,-58.257973,,,,,,
1465313334.17,-0.483117,-0.031161,-2.436569,-0.003214,-0.307528,0.006611,-0.464316,0.031156,-0.885121,0.036749,-0.002668,-0.040599,75.395576,-33.822933,-58.257973,,,,,,
1465313334.18,-0.486053,-0.031291,-2.436521,-0.005357,-0.316022,0.007727,-0.466911,0.031286,-0.883751,0.010017,0.002436,-0.016152,75.248177,-33.818882,-58.450577,,,,,,
1465313334.19,-0.488347,-0.031340,-2.436496,-0.002000,-0.191784,0.003758,-0.468937,0.031335,-0.882676,-0.017651,0.001136,0.027512,75.248177,-33.818882,-58.450577,,,,,,
1465313334.20,-0.489055,-0.031360,-2.436497,-0.002860,-0.033566,-0.000429,-0.469561,0.031355,-0.882343,-0.026258,0.005556,0.051945,75.248177,-33.818882,-58.450577,,,,,,
1465313334.21,-0.488680,-0.031369,-2.436517,0.000443,0.051379,-0.002023,-0.469230,0.031364,-0.882519,-0.025323,0.000695,0.039547,74.726509,-33.822826,-59.113792,,,,,,
1465313334.22,-0.488387,-0.031396,-2.436529,0.003663,0.075791,-0.000044,-0.468971,0.031391,-0.882656,-0.011910,0.001492,0.019832,74.726509,-33.822826,-59.113792,,,,,,
1465313334.23,-0.487400,-0.031390,-2.436528,0.002632,0.102336,-0.000211,-0.468100,0.031385,-0.883118,-0.009683,-0.000700,0.010560,74.726509,-33.822826,-59.113792,,,,,,
1465313334.24,-0.486169,-0.031351,-2.436523,0.003736,0.132069,-0.001461,-0.467013,0.031346,-0.883695,-0.006879,-0.002293,0.010877,74.766464,-33.819187,-59.065346,,,,,,
1465313334.25,-0.484392,-0.031314,-2.436524,0.003816,0.195777,-0.001860,-0.465442,0.031309,-0.884524,-0.016858,0.000384,0.021594,74.766464,-33.819187,-59.065346,,,,,,
1465313334.26,-0.482562,-0.031316,-2.436528,0.011381,0.284961,-0.002412,-0.463822,0.031311,-0.885375,-0.022384,0.003235,0.032851,74.766464,-33.819187,-59.065346,,,,,,
1465313334.27,-0.478681,-0.031197,-2.436507,0.012627,0.426186,-0.005425,-0.460385,0.031192,-0.887171,-0.038059,0.003445,0.049632,75.110451,-33.820648,-58.626446,,,,,,
1465313334.28,-0.473112,-0.031022,-2.436498,0.017104,0.597139,-0.008622,-0.455439,0.031017,-0.889727,-0.041341,0.003773,0.062731,75.110451,-33.820648,-58.626446,,,,,,
1465313334.29,-0.466188,-0.030817,-2.436498,0.016191,0.718185,-0.009382,-0.449271,0.030812,-0.892864,-0.036004,0.002757,0.056423,75.664711,-33.828457,-57.904778,,,,,,
1465313334.30,-0.458845,-0.030627,-2.436528,0.015194,0.770216,-0.010774,-0.442705,0.030622,-0.896144,-0.025496,0.000017,0.034328,75.664711,-33.828457,-57.904778,,,,,,
1465313334.31,-0.450870,-0.030370,-2.436536,0.023765,0.810563,-0.012083,-0.435548,0.030366,-0.899653,-0.019866,0.001861,0.025386,75.664711,-33.828457,-57.904778,,,,,,
1465313334.32,-0.442131,-0.030077,-2.436534,0.028137,0.900814,-0.012644,-0.427673,0.030073,-0.903433,-0.028290,0.000124,0.032706,76.489990,-33.832394,-56.807808,,,,,,
1465313334.33,-0.431995,-0.029750,-2.436529,0.032589,1.054773,-0.013606,-0.418498,0.029746,-0.907730,-0.041966,0.003564,0.057785,76.489990,-33.832394,-56.807808,,,,,,
1465313334.34,-0.419822,-0.029372,-2.436548,0.033942,1.277763,-0.019261,-0.407422,0.029368,-0.912768,-0.064166,0.003927,0.083254,76.489990,-33.832394,-56.807808,,,,,,
1465313334.35,-0.405690,-0.028963,-2.436617,0.037350,1.443411,-0.023489,-0.394487,0.028959,-0.918445,-0.048201,0.001345,0.080203,78.665894,-33.851944,-53.741955,,,,,,
1465313334.36,-0.390776,-0.028488,-2.436646,0.045941,1.504986,-0.021738,-0.380751,0.028484,-0.924239,-0.046159,-0.002162,0.054991,78.665894,-33.851944,-53.741955,,,,,,
1465313334.37,-0.373765,-0.027972,-2.436675,0.048428,1.789548,-0.023520,-0.364980,0.027969,-0.930595,-0.089396,0.001893,0.092369,78.665894,-33.851944,-53.741955,,,,,,
1465313334.38,-0.352740,-0.027342,-2.436748,0.058533,2.198351,-0.031396,-0.345341,0.027339,-0.938079,-0.096981,0.003331,0.150985,80.208153,-33.857719,-51.408012,,,,,,
1465313334.39,-0.329116,-0.026628,-2.436862,0.063050,2.400097,-0.034786,-0.323092,0.026625,-0.945993,-0.083844,0.000642,0.130502,80.208153,-33.857719,-51.408012,,,,,,
1465313334.40,-0.303914,-0.025912,-2.437001,0.063266,2.571051,-0.036922,-0.299157,0.025909,-0.953852,-0.082755,-0.000122,0.102763,80.208153,-33.857719,-51.408012,,,,,,
1465313334.41,-0.276791,-0.025123,-2.437183,0.073083,2.752623,-0.041245,-0.273184,0.025121,-0.961634,-0.059519,0.000743,0.098978,84.403526,-33.868069,-44.175484,,,,,,
1465313334.42,-0.248621,-0.024274,-2.437380,0.077441,2.833315,-0.040682,-0.245995,0.024272,-0.968967,-0.043510,0.005636,0.080906,84.403526,-33.868069,-44.175484,,,,,,
1465313334.43,-0.219152,-0.023439,-2.437607,0.077650,2.997897,-0.042778,-0.217342,0.023437,-0.975814,-0.055516,0.000230,0.084548,84.403526,-33.868069,-44.175484,,,,,,
1465313334.44,-0.187484,-0.022507,-2.437852,0.089647,3.225116,-0.044192,-0.186340,0.022505,-0.982227,-0.056549,-0.001127,0.108250,86.742340,-33.860195,-39.391998,,,,,,
1465313334.45,-0.153258,-0.021550,-2.438170,0.087858,3.491639,-0.049058,-0.152623,0.021549,-0.988050,-0.067714,0.005154,0.131604,86.742340,-33.860195,-39.391998,,,,,,
1465313334.46,-0.116755,-0.020552,-2.438577,0.096633,3.690203,-0.054553,-0.116466,0.020551,-0.992982,-0.050313,0.002169,0.130510,86.742340,-33.860195,-39.391998,,,,,,
1465313334.47,-0.078830,-0.019410,-2.439004,0.111722,3.838842,-0.053341,-0.078733,0.019409,-0.996707,-0.050844,0.004395,0.114383,91.224312,-33.810356,-27.521988,,,,,,
1465313334.48,-0.037581,-0.018331,-2.439536,0.103711,4.232793,-0.062206,-0.037566,0.018330,-0.999126,-0.023545,0.005077,0.187908,91.224312,-33.810356,-27.521988,,,,,,
1465313334.49,0.007223,-0.017110,-2.440187,0.124347,4.548152,-0.069486,0.007222,0.017109,-0.999828,-0.006581,0.003353,0.153606,91.224312,-33.810356,-27.521988,,,,,,
1465313334.50,0.053949,-0.015898,-2.440943,0.121357,4.707431,-0.072617,0.053916,0.015897,-0.998419,0.027245,0.000613,0.121100,93.150841,-33.757477,-20.145195,,,,,,
1465313334.51,0.101875,-0.014728,-2.441763,0.126811,4.811485,-0.073264,0.101688,0.014727,-0.994707,0.047863,0.003980,0.102495,93.150841,-33.757477,-20.145195,,,,,,
1465313334.52,0.150534,-0.013501,-2.442645,0.131167,4.892173,-0.071637,0.149953,0.013501,-0.988601,0.052516,0.003375,0.108657,94.645462,-33.665768,-11.459877,,,,,,
1465313334.53,0.200484,-0.012405,-2.443585,0.127061,5.011104,-0.074515,0.199128,0.012404,-0.979895,0.112700,-0.002089,0.053061,94.645462,-33.665768,-11.459877,,,,,,
1465313334.54,0.249239,-0.011232,-2.444625,0.136402,4.814671,-0.075403,0.246651,0.011232,-0.969039,0.119652,0.003661,0.000595,94.645462,-33.665768,-11.459877,,,,,,
1465313334.55,0.295929,-0.010336,-2.445610,0.108468,4.619305,-0.071012,0.291613,0.010336,-0.956480,0.154874,-0.013296,-0.049608,95.150871,-33.396706,7.310769,,,,,,
1465313334.56,0.339695,-0.009393,-2.446613,0.122951,4.289064,-0.064669,0.333185,0.009393,-0.942815,0.136679,-0.001336,-0.050258,95.150871,-33.396706,7.310769,,,,,,
1465313334.57,0.380701,-0.008621,-2.447531,0.098158,4.054404,-0.057900,0.371557,0.008620,-0.928370,0.111643,-0.007415,-0.032461,95.150871,-33.396706,7.310769,,,,,,
1465313334.58,0.420278,-0.007837,-2.448509,0.118249,3.926933,-0.060275,0.408002,0.007837,-0.912948,0.116138,0.001547,-0.013185,94.143181,-33.239792,15.957915,,,,,,
1465313334.59,0.458486,-0.007207,-2.449470,0.091431,3.765555,-0.060354,0.442579,0.007207,-0.896700,0.132921,-0.009556,-0.065534,94.143181,-33.239792,15.957915,,,,,,
1465313334.60,0.493376,-0.006620,-2.450355,0.095197,3.389646,-0.047348,0.473592,0.006620,-0.880720,0.094813,-0.003629,-0.091555,94.143181,-33.239792,15.957915,,,,,,
1465313334.62,0.556585,-0.005607,-2.451989,0.079858,3.044567,-0.045200,0.528281,0.005607,-0.849051,0.063806,-0.011100,-0.059244,90.655487,-32.932728,30.323143,,,,,,
1465313334.61,0.525580,-0.006051,-2.451196,0.086434,3.194278,-0.046132,0.501706,0.006051,-0.865017,0.111499,-0.001687,-0.037601,90.655487,-32.932728,30.323143,,,,,,
1465313334.63,0.585641,-0.005120,-2.452784,0.082833,2.877848,-0.038829,0.552726,0.005120,-0.833347,0.062050,-0.000954,-0.019436,90.655487,-32.932728,30.323143,,,,,,
1465313334.65,0.643107,-0.004216,-2.454322,0.093519,2.913935,-0.035851,0.599679,0.004216,-0.800230,-0.029244,-0.000187,0.071149,88.586693,-32.795166,36.046513,,,,,,
1465313334.64,0.614156,-0.004719,-2.453514,0.071087,2.854489,-0.036565,0.576263,0.004719,-0.817251,0.016816,0.002468,0.018560,88.586693,-32.795166,36.046513,,,,,,
1465313334.66,0.674102,-0.003732,-2.455211,0.090679,3.187897,-0.042894,0.624191,0.003732,-0.781263,-0.065048,0.006629,0.158216,88.586693,-32.795166,36.046513,,,,,,
1465313334.67,0.709446,-0.003316,-2.456196,0.098718,3.644485,-0.052137,0.651410,0.003316,-0.758719,-0.045163,-0.000524,0.153510,83.792679,-32.521561,46.299152,,,,,,
1465313334.68,0.747710,-0.002851,-2.457361,0.112844,3.869584,-0.054599,0.679959,0.002851,-0.733245,-0.063366,0.004764,0.142424,83.792679,-32.521561,46.299152,,,,,,
1465313334.69,0.788657,-0.002479,-2.458528,0.107939,4.195574,-0.061970,0.709405,0.002479,-0.704796,-0.038141,0.001778,0.164513,83.792679,-32.521561,46.299152,,,,,,
1465313334.70,0.833374,-0.002079,-2.459929,0.137133,4.542784,-0.069441,0.740203,0.002079,-0.672381,-0.032637,0.001232,0.171892,80.192146,-32.332809,52.405010,,,,,,
1465313334.71,0.880975,-0.001789,-2.461361,0.119407,4.837980,-0.073439,0.771358,0.001789,-0.636399,0.008030,0.001187,0.150284,80.192146,-32.332809,52.405010,,,,,,
1465313334.72,0.930694,-0.001557,-2.462828,0.139817,4.989793,-0.069049,0.802034,0.001557,-0.597277,-0.003801,0.007461,0.115343,80.192146,-32.332809,52.405010,,,,,,
1465313334.73,0.982034,-0.001351,-2.464506,0.144355,5.190509,-0.084141,0.831628,0.001351,-0.555332,0.105613,-0.005013,0.115909,69.388153,-31.836912,66.288544,,,,,,
1465313334.75,1.082510,-0.001480,-2.467507,0.129931,4.733927,-0.075969,0.883137,0.001480,-0.469113,0.227047,-0.002227,-0.122730,69.388153,-31.836912,66.288544,,,,,,
1465313334.74,1.033931,-0.001410,-2.465999,0.116632,5.159728,-0.082911,0.859316,0.001410,-0.511444,0.160689,-0.001242,-0.016831,69.388153,-31.836912,66.288544,,,,,,
1465313334.76,1.125274,-0.001586,-2.468789,0.102515,4.111701,-0.063579,0.902385,0.001586,-0.430929,0.229207,-0.014587,-0.202723,69.388153,-31.836912,66.288544,,,,,,
1465313334.77,1.162017,-0.001670,-2.469971,0.104983,3.542555,-0.053620,0.917605,0.001670,-0.397489,0.259259,-0.012947,-0.185228,55.342720,-31.271891,78.623970,,,,,,
1465313334.78,1.192961,-0.001795,-2.470871,0.072244,2.920331,-0.041235,0.929464,0.001795,-0.368909,0.222285,-0.007670,-0.229586,55.342720,-31.271891,78.623970,,,,,,
1465313334.79,1.217400,-0.001813,-2.471656,0.074670,2.321450,-0.028961,0.938201,0.001813,-0.346086,0.128007,-0.002256,-0.154860,55.342720,-31.271891,78.623970,,,,,,
1465313334.80,1.239624,-0.001832,-2.472415,0.064961,2.220583,-0.028338,0.945660,0.001832,-0.325151,0.079349,-0.006090,-0.017287,49.927994,-31.071070,82.245117,,,,,,
1465313334.81,1.262094,-0.001927,-2.473036,0.059671,2.249252,-0.027459,0.952727,0.001927,-0.303822,0.010194,0.002116,-0.003459,49.927994,-31.071070,82.245117,,,,,,
1465313334.82,1.285056,-0.001963,-2.473884,0.082137,2.334185,-0.027969,0.959451,0.001963,-0.281867,-0.025614,0.007314,0.085257,46.053577,-30.923964,84.529594,,,,,,
1465313334.83,1.310747,-0.002147,-2.474592,0.059130,2.649582,-0.040614,0.966375,0.002147,-0.257127,-0.026434,-0.001643,0.103471,46.053577,-30.923964,84.529594,,,,,,
1465313334.84,1.339092,-0.002375,-2.475423,0.084953,2.862995,-0.042991,0.973274,0.002375,-0.229636,-0.004585,0.007192,0.046164,46.053577,-30.923964,84.529594,,,,,,
1465313334.85,1.367594,-0.002610,-2.476372,0.081706,2.822645,-0.041677,0.979422,0.002610,-0.201807,0.034830,-0.000535,0.015161,37.468769,-30.629641,88.771576,,,,,,
1465313334.87,1.423725,-0.003126,-2.477987,0.092387,2.852365,-0.039724,0.989200,0.003126,-0.146541,0.019177,-0.000608,0.035167,37.468769,-30.629641,88.771576,,,,,,
1465313334.86,1.395339,-0.002879,-2.477076,0.063536,2.770620,-0.039240,0.984643,0.002879,-0.174558,0.022712,-0.000865,0.000257,37.468769,-30.629641,88.771576,,,,,,
1465313334.88,1.453051,-0.003414,-2.478872,0.079728,2.939452,-0.044541,0.993070,0.003414,-0.117473,0.014864,-0.001858,0.055797,32.442661,-30.464420,90.784744,,,,,,
1465313334.89,1.483342,-0.003786,-2.479717,0.083047,3.044560,-0.042003,0.996171,0.003786,-0.087342,-0.008928,0.005842,0.053712,32.442661,-30.464420,90.784744,,,,,,
1465313334.90,1.515204,-0.004150,-2.480716,0.099220,3.201706,-0.045101,0.998447,0.004150,-0.055563,-0.007861,-0.004043,0.073187,32.442661,-30.464420,90.784744,,,,,,
1465313334.91,1.548905,-0.004564,-2.481662,0.089926,3.433182,-0.045498,0.999750,0.004564,-0.021889,-0.029627,0.005675,0.116311,21.397308,-30.097740,94.120972,,,,,,
1465313334.93,1.623831,-0.005714,-2.483609,0.101084,3.823950,-0.058582,0.998578,0.005714,0.053009,0.054386,0.005287,0.044602,21.397308,-30.097740,94.120972,,,,,,
1465313334.92,1.585775,-0.005098,-2.482592,0.096696,3.726257,-0.054780,0.999875,0.005098,0.014978,0.008350,0.002073,0.094076,21.397308,-30.097740,94.120972,,,,,,
1465313334.94,1.661149,-0.006311,-2.484547,0.103014,3.676338,-0.050203,0.995901,0.006310,0.090228,0.023539,-0.005136,-0.011126,14.734098,-29.903811,95.452309,,,,,,
1465313334.96,1.740801,-0.007609,-2.486588,0.103808,4.302815,-0.058389,0.985555,0.007609,0.169182,0.012156,0.007619,0.160332,14.734098,-29.903811,95.452309,,,,,,
1465313334.95,1.698852,-0.006896,-2.485637,0.112779,3.827101,-0.047946,0.991789,0.006896,0.127703,-0.007261,0.002748,0.121977,14.734098,-29.903811,95.452309,,,,,,
1465313334.97,1.784959,-0.008476,-2.487598,0.123093,4.389888,-0.064238,0.977120,0.008476,0.212522,0.039833,-0.004433,0.047167,14.734098,-29.903811,95.452309,,,,,,
1465313334.98,1.828792,-0.009354,-2.488713,0.128435,4.411110,-0.060108,0.966861,0.009353,0.255132,0.000317,0.005310,0.115123,-0.129989,-29.482407,96.712189,,,,,,
1465313334.99,1.876409,-0.010346,-2.489718,0.126913,4.886813,-0.068416,0.953612,0.010346,0.300861,-0.006026,0.009719,0.204266,-0.129989,-29.482407,96.712189,,,,,,
1465313335.00,1.928776,-0.011562,-2.490893,0.158354,5.324282,-0.078579,0.936544,0.011562,0.350359,-0.024755,0.005223,0.203169,-0.129989,-29.482407,96.712189,,,,,,
1465313335.01,1.985764,-0.012931,-2.492029,0.148377,5.850955,-0.087214,0.915053,0.012930,0.403127,0.001100,0.012995,0.269420,-18.140034,-29.007311,95.141953,,,,,,
1465313335.02,2.048117,-0.014465,-2.492998,0.161793,6.344713,-0.099878,0.888136,0.014465,0.459353,0.055208,0.009568,0.240339,-18.140034,-29.007311,95.141953,,,,,,
1465313335.03,2.113387,-0.016197,-2.494069,0.178052,6.581476,-0.097089,0.856262,0.016196,0.516288,0.077866,0.009530,0.204552,-18.140034,-29.007311,95.141953,,,,,,
1465313335.04,2.181719,-0.017692,-2.494781,0.113533,6.954148,-0.080330,0.818991,0.017691,0.573534,0.240885,0.035181,0.148313,-29.294413,-28.758808,92.397202,,,,,,
1465313335.05,2.244887,-0.019405,-2.495105,0.149510,5.905107,-0.087553,0.781128,0.019404,0.624070,0.509812,-0.044749,-0.348847,-29.294413,-28.758808,92.397202,,,,,,
1465313335.06,2.291949,-0.020832,-2.495862,0.128428,4.412161,-0.055857,0.750882,0.020831,0.660108,0.358371,-0.002642,-0.372266,-29.294413,-28.758808,92.397202,,,,,,
1465313335.07,2.332723,-0.021718,-2.496144,0.073612,4.018230,-0.042797,0.723337,0.021716,0.690154,0.306174,-0.004581,-0.130385,-50.656330,-28.379982,82.770699,,,,,,
1465313335.08,2.371255,-0.022751,-2.496454,0.108442,3.764459,-0.047557,0.696197,0.022749,0.717490,0.253312,0.010683,-0.153190,-50.656330,-28.379982,82.770699,,,,,,
1465313335.09,2.404477,-0.023682,-2.496759,0.068298,3.171984,-0.040688,0.671967,0.023680,0.740203,0.217010,-0.019224,-0.154708,-50.656330,-28.379982,82.770699,,,,,,
1465313335.10,2.432836,-0.024177,-2.496773,0.046440,2.734512,-0.030515,0.650700,0.024175,0.758950,0.210796,-0.005117,-0.168893,-57.029640,-28.291422,78.547386,,,,,,
1465313335.11,2.457945,-0.024886,-2.497035,0.063121,2.458423,-0.024509,0.631430,0.024883,0.775034,0.177851,0.000843,-0.142648,-57.029640,-28.291422,78.547386,,,,,,
1465313335.12,2.479439,-0.025300,-2.497002,0.022084,1.996562,-0.022718,0.614620,0.025297,0.788418,0.269413,-0.017744,-0.197292,-57.029640,-28.291422,78.547386,,,,,,
1465313335.13,2.494304,-0.025610,-2.497081,0.035080,1.337150,-0.008989,0.602828,0.025608,0.797460,0.216203,-0.002811,-0.254659,-65.146103,-28.196558,71.995941,,,,,,
1465313335.14,2.505127,-0.025823,-2.497154,0.012317,1.017556,-0.005943,0.594159,0.025820,0.803933,0.224933,-0.015383,-0.182123,-65.146103,-28.196558,71.995941,,,,,,
1465313335.15,2.513065,-0.025888,-2.497125,0.004481,0.708581,-0.006142,0.587758,0.025885,0.808623,0.225658,-0.011816,-0.180739,-65.146103,-28.196558,71.995941,,,,,,
1465313335.16,2.517390,-0.025984,-2.497154,0.009347,0.345439,-0.002795,0.584253,0.025981,0.811155,0.225180,-0.022273,-0.185377,-66.968796,-28.173201,70.313065,,,,,,
1465313335.17,2.518854,-0.025951,-2.497137,-0.002696,0.086356,0.002011,0.583065,0.025948,0.812011,0.199649,-0.023262,-0.158202,-66.968796,-28.173201,70.313065,,,,,,
1465313335.18,2.519750,-0.026012,-2.497133,0.003753,0.121416,-0.006718,0.582337,0.026009,0.812531,0.161148,-0.021004,-0.069673,-66.968796,-28.173201,70.313065,,,,,,
1465313335.19,2.521732,-0.026089,-2.497028,0.001738,0.202131,-0.013613,0.580724,0.026086,0.813682,0.162791,-0.015542,-0.065559,-67.986160,-28.172028,69.330330,,,,,,
1465313335.20,2.522753,-0.026231,-2.496930,0.006882,0.053485,-0.015869,0.579891,0.026228,0.814272,0.161213,-0.016142,-0.104845,-67.986160,-28.172028,69.330330,,,,,,
1465313335.21,2.521788,-0.026291,-2.496796,-0.001882,-0.144003,-0.015704,0.580675,0.026288,0.813711,0.135038,-0.010724,-0.126455,-67.986160,-28.172028,69.330330,,,,,,
1465313335.22,2.518578,-0.026329,-2.496670,-0.008577,-0.385035,-0.012070,0.583284,0.026326,0.811842,0.114241,-0.009358,-0.126356,-68.185425,-28.187784,69.127937,,,,,,
1465313335.23,2.512224,-0.026308,-2.496538,-0.011140,-0.728001,-0.007793,0.588431,0.026305,0.808119,0.106302,-0.011519,-0.120604,-68.185425,-28.187784,69.127937,,,,,,
1465313335.24,2.502137,-0.026171,-2.496395,-0.019072,-1.102826,-0.001192,0.596554,0.026168,0.802146,0.078052,-0.008590,-0.117957,-68.185425,-28.187784,69.127937,,,,,,
1465313335.25,2.488401,-0.025970,-2.496277,-0.024855,-1.463845,0.004260,0.607519,0.025968,0.793881,0.043253,-0.011655,-0.083325,-66.733841,-28.239920,70.509422,,,,,,
1465313335.26,2.471455,-0.025677,-2.496114,-0.035882,-1.766453,0.006147,0.620890,0.025674,0.783478,0.027990,-0.009271,-0.055389,-66.733841,-28.239920,70.509422,,,,,,
1465313335.27,2.451253,-0.025296,-2.495933,-0.041660,-2.122166,0.012630,0.636595,0.025294,0.770783,0.041505,-0.008005,-0.054596,-66.733841,-28.239920,70.509422,,,,,,
1465313335.28,2.426667,-0.024851,-2.495799,-0.042197,-2.545834,0.018479,0.655359,0.024849,0.754909,0.011557,-0.011284,-0.028881,-64.541267,-28.275085,72.508072,,,,,,
1465313335.29,2.399292,-0.024276,-2.495598,-0.061675,-2.786869,0.025294,0.675786,0.024273,0.736698,-0.010533,-0.002316,0.027493,-64.541267,-28.275085,72.508072,,,,,,
1465313335.30,2.370473,-0.023693,-2.495338,-0.056497,-2.913208,0.019705,0.696743,0.023691,0.716930,-0.001384,-0.002618,0.058339,-64.541267,-28.275085,72.508072,,,,,,
1465313335.31,2.339605,-0.023085,-2.495098,-0.063198,-3.150007,0.028634,0.718548,0.023083,0.695094,-0.008862,0.001438,0.043584,-56.924889,-28.382393,78.590538,,,,,,
1465313335.32,2.307414,-0.022387,-2.494803,-0.071806,-3.219026,0.031187,0.740560,0.022385,0.671618,-0.010030,0.000564,0.078749,-56.924889,-28.382393,78.590538,,,,,,
1465313335.33,2.276074,-0.021728,-2.494484,-0.064196,-3.095858,0.029358,0.761252,0.021726,0.648092,-0.018897,0.010028,0.105402,-56.924889,-28.382393,78.590538,,,,,,
1465313335.34,2.247218,-0.021160,-2.494179,-0.058499,-2.804915,0.023281,0.779643,0.021158,0.625867,-0.042735,0.008398,0.131305,-51.875374,-28.455362,81.986069,,,,,,
1465313335.35,2.221847,-0.020683,-2.493834,-0.056971,-2.443888,0.015696,0.795277,0.020682,0.605893,-0.048497,0.009882,0.137119,-51.875374,-28.455362,81.986069,,,,,,
1465313335.36,2.200243,-0.020347,-2.493566,-0.035231,-2.093494,0.010327,0.808186,0.020346,0.588576,-0.076359,0.005091,0.113954,-51.875374,-28.455362,81.986069,,,,,,
1465313335.37,2.183095,-0.020148,-2.493360,-0.030309,-1.573198,0.001747,0.818163,0.020147,0.574633,-0.105288,0.000605,0.171171,-42.832085,-28.607433,87.002892,,,,,,
1465313335.38,2.171294,-0.020065,-2.493125,-0.017938,-1.061392,-0.009966,0.824888,0.020064,0.564939,-0.105604,0.000703,0.169695,-42.832085,-28.607433,87.002892,,,,,,
1465313335.39,2.163458,-0.020159,-2.492998,-0.003630,-0.698248,-0.017552,0.829289,0.020157,0.558457,-0.104160,0.005401,0.134246,-42.832085,-28.607433,87.002892,,,,,,
1465313335.40,2.166111,-0.020585,-2.492728,0.001024,-0.389216,-0.022679,0.827797,0.020583,0.560651,-0.101478,0.005113,0.125446,-40.294540,-28.654167,88.191635,,,,,,
1465313335.41,2.164689,-0.020809,-2.492637,0.007830,-0.055814,-0.024763,0.828589,0.020808,0.559470,-0.105384,0.011114,0.128854,-40.294540,-28.654167,88.191635,,,,,,
1465313335.42,2.175452,-0.021447,-2.492446,0.022152,0.320116,-0.031364,0.822509,0.021446,0.568348,-0.100265,0.004860,0.123211,-40.294540,-28.654167,88.191635,,,,,,
1465313335.43,2.181037,-0.021871,-2.492470,0.030002,0.629108,-0.037552,0.819314,0.021869,0.572928,-0.100778,0.016720,0.114969,-40.615955,-28.696104,88.030411,,,,,,
1465313335.44,2.188698,-0.022320,-2.492523,0.027020,0.805358,-0.034402,0.814893,0.022318,0.579182,-0.083951,0.011023,0.110363,-40.615955,-28.696104,88.030411,,,,,,
1465313335.45,2.197692,-0.022775,-2.492557,0.029303,0.932764,-0.032006,0.809642,0.022773,0.586482,-0.064678,0.008431,0.093023,-40.615955,-28.696104,88.030411,,,,,,
1465313335.46,2.208145,-0.023322,-2.492659,0.039018,1.040000,-0.031604,0.803458,0.023320,0.594905,-0.049475,0.010387,0.096792,-41.759495,-28.674210,87.500923,,,,,,
1465313335.47,2.219133,-0.023848,-2.492773,0.046585,1.117531,-0.040598,0.796862,0.023845,0.603690,-0.057681,-0.002208,0.065454,-41.759495,-28.674210,87.500923,,,,,,
1465313335.48,2.231450,-0.024345,-2.492873,0.039324,1.278914,-0.036295,0.789357,0.024342,0.613451,-0.050298,0.001628,0.067030,-41.759495,-28.674210,87.500923,,,,,,
1465313335.49,2.246182,-0.024970,-2.493027,0.052439,1.545426,-0.040083,0.780223,0.024968,0.625003,-0.032756,-0.002919,0.071500,-45.422085,-28.606977,85.679352,,,,,,
1465313335.50,2.263852,-0.025728,-2.493183,0.060257,1.822577,-0.050329,0.769043,0.025725,0.638680,-0.010925,-0.001860,0.074989,-45.422085,-28.606977,85.679352,,,,,,
1465313335.51,2.282562,-0.026443,-2.493277,0.052846,1.862917,-0.046331,0.756945,0.026440,0.652944,0.018629,0.016712,0.006801,-45.422085,-28.606977,85.679352,,,,,,
1465313335.52,2.300552,-0.027215,-2.493500,0.069775,1.786444,-0.040513,0.745061,0.027212,0.666441,0.026789,0.000284,-0.026838,-48.149834,-28.554323,84.194534,,,,,,
1465313335.53,2.319207,-0.027925,-2.493662,0.058225,1.908569,-0.045548,0.732486,0.027921,0.680210,0.013272,0.008090,-0.008151,-48.149834,-28.554323,84.194534,,,,,,
1465313335.54,2.339069,-0.028632,-2.493782,0.058332,1.995634,-0.045029,0.718817,0.028628,0.694609,0.027032,0.013029,-0.005065,-48.149834,-28.554323,84.194534,,,,,,
1465313335.55,2.358315,-0.029304,-2.493915,0.050739,1.897928,-0.035909,0.705303,0.029300,0.708300,0.049046,0.009625,-0.020007,-54.294235,-28.448313,80.407120,,,,,,
1465313335.56,2.376495,-0.029876,-2.493978,0.047413,1.793870,-0.034195,0.692299,0.029872,0.720993,0.082970,0.004201,-0.058746,-54.294235,-28.448313,80.407120,,,,,,
1465313335.57,2.393752,-0.030526,-2.494135,0.060069,1.701481,-0.031474,0.679740,0.030521,0.732818,0.079446,-0.002140,-0.054610,-54.294235,-28.448313,80.407120,,,,,,
1465313335.58,2.409800,-0.031058,-2.494210,0.042900,1.581449,-0.031804,0.667882,0.031053,0.743619,0.079798,-0.007844,-0.052884,-57.244755,-28.408583,78.348358,,,,,,
1465313335.59,2.424037,-0.031571,-2.494283,0.049090,1.420056,-0.032914,0.657217,0.031566,0.753040,0.089121,-0.009059,-0.075962,-57.244755,-28.408583,78.348358,,,,,,
1465313335.60,2.436393,-0.032108,-2.494381,0.043496,1.207691,-0.029459,0.647852,0.032102,0.761090,0.110418,-0.016340,-0.084973,-57.244755,-28.408583,78.348358,,,,,,
1465313335.61,2.446288,-0.032540,-2.494460,0.042197,1.022931,-0.027237,0.640280,0.032534,0.767452,0.093332,-0.010775,-0.081890,-61.800800,-28.332455,74.835876,,,,,,
1465313335.62,2.454005,-0.032924,-2.494563,0.038839,0.892323,-0.026421,0.634331,0.032918,0.772360,0.075691,-0.006032,-0.066504,-61.800800,-28.332455,74.835876,,,,,,
1465313335.63,2.462138,-0.033320,-2.494572,0.030178,0.782953,-0.022551,0.628020,0.033314,0.777484,0.075395,0.003261,-0.072253,-61.800800,-28.332455,74.835876,,,,,,
1465313335.64,2.468635,-0.033700,-2.494612,0.032076,0.601377,-0.019281,0.622948,0.033694,0.781538,0.072731,0.002164,-0.082273,-63.098885,-28.301214,73.756676,,,,,,
1465313335.65,2.473328,-0.033967,-2.494601,0.016951,0.427249,-0.018204,0.619267,0.033960,0.784445,0.077815,-0.000132,-0.086295,-63.098885,-28.301214,73.756676,,,,,,
1465313335.66,2.470278,-0.033771,-2.494810,0.018860,0.258378,-0.012885,0.621661,0.033765,0.782558,0.086179,-0.008359,-0.075313,-63.098885,-28.301214,73.756676,,,,,,
1465313335.67,2.471094,-0.033970,-2.494817,0.012168,0.019470,-0.009264,0.621018,0.033963,0.783060,0.077300,-0.003629,-0.084863,-64.281921,-28.263273,72.742683,,,,,,
1465313335.68,2.463696,-0.034222,-2.495025,0.007619,-0.205669,-0.004664,0.626789,0.034216,0.778438,0.066204,0.002085,-0.087596,-64.281921,-28.263273,72.742683,,,,,,
1465313335.69,2.460783,-0.034293,-2.495056,0.008530,-0.323538,-0.000731,0.629052,0.034287,0.776607,0.065787,-0.001496,-0.060832,-64.281921,-28.263273,72.742683,,,,,,
1465313335.70,2.456512,-0.034301,-2.495054,0.000899,-0.466875,-0.000904,0.632363,0.034294,0.773912,0.055426,0.001778,-0.058168,-63.799015,-28.235104,73.177460,,,,,,
1465313335.71,2.450812,-0.034285,-2.495052,-0.001398,-0.598540,0.000984,0.636765,0.034278,0.770296,0.048599,-0.006233,-0.053346,-63.799015,-28.235104,73.177460,,,,,,
1465313335.72,2.441759,-0.033839,-2.495129,-0.000416,-0.665448,0.001405,0.643722,0.033832,0.764511,0.034959,-0.010059,-0.040833,-63.799015,-28.235104,73.177460,,,,,,
1465313335.73,2.434604,-0.033796,-2.495115,-0.009021,-0.731281,0.003938,0.649176,0.033789,0.759888,0.043558,-0.012427,-0.005401,-62.187973,-28.231630,74.552711,,,,,,
1465313335.74,2.427196,-0.033769,-2.495089,0.001626,-0.739766,-0.001320,0.654788,0.033763,0.755058,0.024334,-0.007151,-0.021247,-62.187973,-28.231630,74.552711,,,,,,
1465313335.75,2.420425,-0.033715,-2.495039,-0.009977,-0.652693,-0.001878,0.659887,0.033708,0.750608,0.022333,0.009199,-0.017408,-62.187973,-28.231630,74.552711,,,,,,
1465313335.76,2.413453,-0.033988,-2.495033,-0.004615,-0.620848,-0.001008,0.665098,0.033981,0.745983,0.032977,0.015259,-0.009548,-61.096008,-28.236656,75.448296,,,,,,
1465313335.77,2.407055,-0.033837,-2.494964,-0.018498,-0.645277,0.004454,0.669861,0.033830,0.741716,0.019806,0.031554,-0.051133,-61.096008,-28.236656,75.448296,,,,,,
1465313335.78,2.400448,-0.033645,-2.494930,-0.019604,-0.664412,0.013088,0.674751,0.033639,0.737278,0.040276,0.030219,-0.037770,-61.096008,-28.236656,75.448296,,,,,,
1465313335.79,2.393947,-0.033424,-2.494889,-0.019563,-0.633617,0.011831,0.679535,0.033418,0.732882,0.033921,0.013808,-0.041033,-59.054951,-28.253887,77.050034,,,,,,
1465313335.80,2.387959,-0.033002,-2.494849,-0.016127,-0.447797,0.006411,0.683921,0.032996,0.728810,0.044198,-0.010673,-0.013661,-59.054951,-28.253887,77.050034,,,,,,
1465313335.81,2.385484,-0.032953,-2.494786,-0.007265,-0.183394,-0.001625,0.685723,0.032947,0.727116,0.050574,-0.021366,0.011440,-59.054951,-28.253887,77.050034,,,,,,
1465313335.82,2.383611,-0.032603,-2.494749,0.001463,-0.029421,-0.011097,0.687092,0.032598,0.725839,0.030346,-0.007650,-0.005685,-58.098648,-28.272577,77.766861,,,,,,
1465313335.83,2.382198,-0.032174,-2.494703,-0.002840,-0.065525,-0.010874,0.688126,0.032168,0.724877,0.025756,-0.010623,-0.002252,-58.098648,-28.272577,77.766861,,,,,,
1465313335.84,2.379458,-0.032994,-2.494643,-0.007374,-0.273657,-0.003188,0.690091,0.032988,0.722970,-0.009427,0.017092,-0.025537,-58.098648,-28.272577,77.766861,,,,,,
1465313335.85,2.374137,-0.033762,-2.494569,-0.023747,-0.576294,0.009337,0.693911,0.033756,0.719269,-0.016390,0.020581,-0.021744,-57.430920,-28.292431,78.254089,,,,,,
1465313335.86,2.365452,-0.034318,-2.494490,-0.029585,-0.974487,0.019279,0.700118,0.034311,0.713202,-0.033095,0.027334,-0.022986,-57.430920,-28.292431,78.254089,,,,,,
1465313335.87,2.352024,-0.033872,-2.494454,-0.038742,-1.465068,0.034055,0.709642,0.033866,0.703748,-0.023699,0.005914,-0.006131,-57.430920,-28.292431,78.254089,,,,,,
1465313335.88,2.335702,-0.033177,-2.494359,-0.057074,-1.646632,0.037304,0.721051,0.033171,0.692088,-0.026684,-0.006224,0.022008,-56.299557,-28.284538,79.074776,,,,,,
1465313335.89,2.321742,-0.032661,-2.494271,-0.029995,-1.294101,0.025540,0.730654,0.032655,0.681966,-0.014910,-0.001725,0.038981,-56.299557,-28.284538,79.074776,,,,,,
1465313335.90,2.310502,-0.032355,-2.494278,-0.023359,-1.100850,0.022206,0.738280,0.032350,0.673718,-0.021025,-0.000200,0.097125,-56.299557,-28.284538,79.074776,,,,,,
1465313335.91,2.299337,-0.031945,-2.494140,-0.039354,-1.119955,0.022310,0.745766,0.031939,0.665442,-0.028130,-0.005343,0.044870,-51.908066,-28.338072,82.005989,,,,,,
1465313335.92,2.289284,-0.031583,-2.494065,-0.023235,-1.003160,0.020529,0.752426,0.031578,0.657919,-0.043076,0.000221,0.050913,-51.908066,-28.338072,82.005989,,,,,,
1465313335.93,2.280820,-0.031294,-2.493989,-0.028292,-0.793976,0.017083,0.757975,0.031289,0.651532,-0.029704,0.007606,0.063464,-51.908066,-28.338072,82.005989,,,,,,
1465313335.94,2.273582,-0.031002,-2.493903,-0.021812,-0.719656,0.017688,0.762678,0.030997,0.646035,-0.036360,0.011194,0.047675,-50.168442,-28.371513,83.070213,,,,,,
1465313335.95,2.266178,-0.030662,-2.493875,-0.030369,-0.738785,0.025251,0.767449,0.030657,0.640377,-0.030602,0.011106,0.040821,-50.168442,-28.371513,83.070213,,,,,,
1465313335.96,2.260593,-0.030449,-2.493800,-0.016257,-0.534903,0.016535,0.771018,0.030444,0.636086,-0.048148,0.009549,0.027092,-50.168442,-28.371513,83.070213,,,,,,
1465313335.97,2.257234,-0.030274,-2.493819,-0.012736,-0.277942,0.012798,0.773154,0.030269,0.633495,-0.039344,-0.006984,0.101368,-47.784122,-28.415987,84.449310,,,,,,
1465313335.98,2.255882,-0.030137,-2.493824,-0.002921,-0.094252,0.010591,0.774013,0.030132,0.632452,-0.069622,0.011280,0.065927,-47.784122,-28.415987,84.449310,,,,,,
1465313335.99,2.256245,-0.030059,-2.493866,-0.003753,0.086263,0.006265,0.773786,0.030054,0.632734,-0.054196,-0.002085,0.089205,-47.784122,-28.415987,84.449310,,,,,,
1465313336.00,2.262869,-0.030109,-2.493764,0.001844,0.301831,0.003854,0.769576,0.030105,0.637845,-0.054107,0.002259,0.073642,-47.393089,-28.418962,84.668373,,,,,,
1465313336.01,2.266990,-0.030139,-2.493841,0.006273,0.439860,0.004057,0.766940,0.030135,0.641010,-0.042713,0.006746,0.072124,-47.393089,-28.418962,84.668373,,,,,,
1465313336.02,2.277534,-0.029186,-2.492758,-0.281980,1.529397,0.003323,0.760161,0.029182,0.649080,-0.036711,0.011147,0.035140,-47.393089,-28.418962,84.668373,,,,,,
1465313336.03,2.241609,-0.028611,-2.491028,-0.044651,-6.274838,0.003540,0.782996,0.028607,0.621368,2.386712,-0.095699,-1.398316,-49.213291,-28.536795,83.583366,,,,,,
1465313336.04,2.125650,-0.026933,-2.493661,-0.004711,-12.190925,0.317441,0.849670,0.026929,0.526627,0.616654,0.159976,-2.246537,-49.213291,-28.536795,83.583366,,,,,,
1465313336.05,2.036025,-0.022126,-2.490202,-0.603437,-7.505722,0.204433,0.893500,0.022125,0.448517,0.170022,-0.115371,0.599182,-49.213291,-28.536795,83.583366,,,,,,
1465313336.06,1.989251,-0.020881,-2.489473,0.083355,-4.237561,0.084563,0.913519,0.020880,0.406260,0.039469,0.076517,1.220495,-36.070934,-28.488466,90.054276,,,,,,
1465313336.07,1.937709,-0.020135,-2.490584,-0.134561,-5.583938,0.136432,0.933250,0.020133,0.358663,-0.281074,-0.058250,-0.110906,-36.070934,-28.488466,90.054276,,,,,,
1465313336.08,1.882110,-0.017208,-2.486867,-0.355618,-5.287534,0.116257,0.951791,0.017207,0.306264,-0.088357,-0.051600,0.674999,-36.070934,-28.488466,90.054276,,,,,,
1465313336.09,1.845194,-0.016567,-2.487855,0.147553,-3.141806,0.075626,0.962456,0.016566,0.270930,-0.222710,-0.024653,0.548238,-13.483829,-29.298656,95.824074,,,,,,
1465313336.10,1.821700,-0.015994,-2.487160,-0.198333,-2.220965,0.038636,0.968564,0.015994,0.248248,-0.310834,-0.067797,0.302198,-13.483829,-29.298656,95.824074,,,,,,
1465313336.11,1.803559,-0.015381,-2.485800,-0.049558,-1.626386,0.019089,0.972918,0.015381,0.230639,-0.289324,0.054550,0.411542,-13.483829,-29.298656,95.824074,,,,,,
1465313336.12,1.796146,-0.015372,-2.486666,0.064838,-0.406426,0.009423,0.974601,0.015371,0.223421,-0.332679,0.013194,0.373854,-7.711134,-29.290724,96.462776,,,,,,
1465313336.13,1.800423,-0.015153,-2.486021,-0.087176,0.656480,0.015379,0.973640,0.015153,0.227588,-0.326865,0.070693,0.351484,-7.711134,-29.290724,96.462776,,,,,,
1465313336.14,1.816101,-0.015417,-2.485395,-0.068435,1.861884,-0.089027,0.969948,0.015416,0.242823,0.777672,-0.018910,-0.482951,-7.711134,-29.290724,96.462776,,,,,,
1465313336.15,1.810511,-0.015273,-2.485778,0.081223,-1.665920,0.085463,0.971292,0.015273,0.237398,0.037008,0.023637,-0.754808,-7.172081,-29.468515,96.450211,,,,,,
1465313336.16,1.782689,-0.014106,-2.484925,-0.216102,-2.716971,0.097081,0.977537,0.014105,0.210290,0.287920,-0.064032,-0.206018,-7.172081,-29.468515,96.450211,,,,,,
1465313336.17,1.761245,-0.013331,-2.484455,0.032923,-1.998199,0.072597,0.981832,0.013331,0.189283,-0.073141,0.002996,0.113421,-7.172081,-29.468515,96.450211,,,,,,
1465313336.18,1.746084,-0.012887,-2.484668,-0.034337,-1.347189,0.035449,0.984595,0.012887,0.174377,-0.001929,-0.049508,0.099595,-3.980345,-29.534824,96.614319,,,,,,
1465313336.19,1.733863,-0.012405,-2.483841,-0.071479,-1.246302,0.035843,0.986658,0.012405,0.162332,-0.110666,-0.022216,0.060874,-3.980345,-29.534824,96.614319,,,,,,
1465313336.20,1.722434,-0.012088,-2.484134,0.032050,-1.042497,0.037862,0.988453,0.012088,0.151046,-0.128574,0.000897,0.234391,-0.475650,-29.579353,96.681503,,,,,,
1465313336.21,1.717275,-0.011857,-2.483730,-0.064981,-0.340535,0.011009,0.989222,0.011857,0.145945,-0.088999,-0.004593,0.266561,-0.475650,-29.579353,96.681503,,,,,,
1465313336.22,1.716255,-0.011693,-2.483531,0.003485,-0.073012,0.015786,0.989372,0.011693,0.144936,-0.122779,0.012782,0.134590,-0.475650,-29.579353,96.681503,,,,,,
1465313336.23,1.716537,-0.011593,-2.483711,0.003697,0.089455,0.010510,0.989332,0.011593,0.145215,-0.088850,-0.000057,0.151278,-0.475650,-29.579353,96.681503,,,,,,
1465313336.24,1.720611,-0.011589,-2.483425,-0.022364,0.507863,-0.008107,0.988732,0.011588,0.149245,-0.045907,-0.002174,0.098055,2.379260,-29.707233,96.614166,,,,,,
1465313336.25,1.726936,-0.011744,-2.483640,0.032129,0.654376,-0.013229,0.987767,0.011744,0.155495,-0.066945,-0.001734,0.024269,2.379260,-29.707233,96.614166,,,,,,
1465313336.26,1.734734,-0.011877,-2.483649,-0.005981,0.829592,-0.014366,0.986523,0.011876,0.163193,-0.031658,-0.006032,0.014557,2.379260,-29.707233,96.614166,,,,,,
1465313336.27,1.744263,-0.012037,-2.483686,0.013380,0.985668,-0.015326,0.984921,0.012036,0.172585,0.018024,0.005298,-0.038567,0.598294,-29.692991,96.645973,,,,,,
1465313336.28,1.753839,-0.012223,-2.483805,0.012235,0.918781,-0.017036,0.983221,0.012222,0.182008,0.084024,-0.007813,-0.136705,0.598294,-29.692991,96.645973,,,,,,
1465313336.29,1.760122,-0.012364,-2.483904,0.012789,0.516348,-0.011319,0.982056,0.012364,0.188183,0.101180,-0.018284,-0.158230,0.598294,-29.692991,96.645973,,,,,,
1465313336.30,1.762694,-0.012504,-2.484064,0.020910,0.196747,-0.011435,0.981567,0.012504,0.190707,0.043869,-0.021568,-0.064318,-1.239028,-29.672453,96.646194,,,,,,
1465313336.31,1.764993,-0.012723,-2.484273,0.023166,0.283837,-0.020495,0.981124,0.012723,0.192963,-0.065764,-0.011777,0.097457,-1.239028,-29.672453,96.646194,,,,,,
1465313336.32,1.771356,-0.012941,-2.484475,0.025899,0.776492,-0.016130,0.979873,0.012941,0.199201,-0.167068,0.019057,0.223254,-1.239028,-29.672453,96.646194,,,,,,
1465313336.33,1.784446,-0.013161,-2.484630,0.011900,1.501708,-0.019628,0.977179,0.013161,0.212010,-0.128409,0.035240,0.216549,-2.915607,-29.596802,96.633354,,,,,,
1465313336.34,1.802663,-0.013540,-2.484671,0.016619,1.841529,-0.038786,0.973150,0.013540,0.229773,0.097330,0.002009,-0.003836,-2.915607,-29.596802,96.633354,,,,,,
1465313336.36,1.820159,-0.013918,-2.484785,-0.005647,0.255142,-0.005441,0.968976,0.013918,0.246762,0.200030,-0.025758,-0.221891,-5.923326,-29.568390,96.504402,,,,,,
1465313336.37,1.819474,-0.013878,-2.484595,-0.023212,-0.163205,-0.000706,0.969145,0.013877,0.246099,0.211900,-0.012489,-0.208395,-5.923326,-29.568390,96.504402,,,,,,
1465313336.35,1.815859,-0.013860,-2.484823,0.017761,1.078051,-0.019094,0.970029,0.013860,0.242594,0.156467,-0.008107,-0.252955,-5.923326,-29.568390,96.504402,,,,,,
1465313336.38,1.813275,-0.013840,-2.484601,0.000469,-0.793952,0.011789,0.970653,0.013840,0.240087,0.154408,-0.014297,-0.190785,-5.923326,-29.568390,96.504402,,,,,,
1465313336.39,1.801998,-0.013346,-2.483888,-0.104420,-1.198499,0.033382,0.973305,0.013345,0.229127,0.117851,0.001562,-0.222795,-6.937916,-29.570087,96.436256,,,,,,
1465313336.40,1.788140,-0.012813,-2.483569,-0.025998,-1.454497,0.058483,0.976394,0.012813,0.215619,-0.001494,0.000615,-0.152707,-6.937916,-29.570087,96.436256,,,,,,
1465313336.42,1.764012,-0.011123,-2.482822,-0.075693,-1.133884,0.084099,0.981331,0.011123,0.192004,0.121040,-0.004684,-0.154421,-4.533831,-29.685284,96.543793,,,,,,
1465313336.41,1.774677,-0.011971,-2.483358,-0.044941,-1.240068,0.080537,0.979218,0.011970,0.202457,-0.000519,0.022606,0.031170,-4.533831,-29.685284,96.543793,,,,,,
1465313336.43,1.745030,-0.009710,-2.483154,0.039035,-2.079142,0.161459,0.984813,0.009710,0.173345,-0.354046,0.047984,0.111338,-4.533831,-29.685284,96.543793,,,,,,
1465313336.44,1.736726,-0.008860,-2.483124,-0.060585,-0.172875,0.047218,0.986227,0.008860,0.165163,-0.227178,-0.032267,0.735320,-2.247516,-29.783991,96.593674,,,,,,
1465313336.45,1.750831,-0.009273,-2.482756,0.016580,1.764097,-0.067041,0.983795,0.009273,0.179056,-0.168152,-0.008586,0.509023,-2.247516,-29.783991,96.593674,,,,,,
1465313336.46,1.769844,-0.010288,-2.483008,0.020945,1.799219,-0.098126,0.980203,0.010288,0.197725,0.129004,-0.048664,-0.110796,-2.247516,-29.783991,96.593674,,,,,,
1465313336.47,1.777329,-0.010861,-2.482622,-0.023551,0.343398,-0.048590,0.978690,0.010861,0.205056,0.198175,-0.011425,-0.318551,-2.836502,-29.779936,96.579430,,,,,,
1465313336.48,1.773222,-0.011006,-2.482657,0.010367,-0.568810,-0.005580,0.979522,0.011006,0.201034,0.157898,0.001339,-0.199798,-2.836502,-29.779936,96.579430,,,,,,
1465313336.49,1.765727,-0.010904,-2.482683,-0.002693,-0.767408,0.012684,0.981003,0.010904,0.193687,0.006165,0.018744,0.080574,-2.836502,-29.779936,96.579430,,,,,,
1465313336.50,1.760346,-0.010874,-2.482643,-0.003313,-0.432904,-0.002188,0.982031,0.010874,0.188406,-0.050070,-0.000773,0.243235,-3.139353,-29.801680,96.563347,,,,,,
1465313336.51,1.759527,-0.010996,-2.482590,-0.009067,0.052378,-0.018011,0.982184,0.010995,0.187601,-0.065939,0.008078,0.181372,-3.139353,-29.801680,96.563347,,,,,,
1465313336.52,1.762161,-0.011234,-2.482411,-0.002416,0.249890,-0.026694,0.981684,0.011234,0.190187,0.043158,-0.015339,-0.106477,-3.139353,-29.801680,96.563347,,,,,,
1465313336.53,1.760435,-0.011397,-2.482746,0.038355,-0.320371,-0.003917,0.982009,0.011397,0.188492,0.032747,-0.001860,-0.115570,-2.062731,-29.821316,96.586288,,,,,,
1465313336.54,1.755750,-0.011284,-2.482613,-0.026816,-0.472220,0.012937,0.982882,0.011284,0.183890,0.002637,-0.001747,-0.006293,-2.062731,-29.821316,96.586288,,,,,,
1465313336.55,1.752943,-0.011138,-2.482706,0.019319,-0.185568,0.015443,0.983396,0.011138,0.181130,-0.036756,0.012575,0.082741,-2.062731,-29.821316,96.586288,,,,,,
1465313336.56,1.752864,-0.011076,-2.482840,0.007859,0.005580,0.007846,0.983411,0.011076,0.181053,-0.004590,-0.005186,0.027352,-1.443359,-29.801279,96.603706,,,,,,
1465313336.57,1.752028,-0.010989,-2.482886,0.003449,-0.113343,0.009652,0.983563,0.010988,0.180230,0.017764,-0.008028,-0.008248,-1.443359,-29.801279,96.603706,,,,,,
1465313336.58,1.750367,-0.010943,-2.482924,0.004460,-0.176029,0.004724,0.983862,0.010943,0.178597,0.017436,-0.011095,-0.015557,-1.443359,-29.801279,96.603706,,,,,,
1465313336.59,1.748861,-0.010948,-2.482969,0.004526,-0.131418,-0.000878,0.984129,0.010948,0.177115,0.005205,-0.002311,0.011209,-0.935310,-29.777285,96.617363,,,,,,
1465313336.60,1.748051,-0.010962,-2.482980,0.002468,-0.073021,-0.000182,0.984272,0.010962,0.176317,-0.001973,0.006830,0.008940,-0.935310,-29.777285,96.617363,,,,,,
1465313336.61,1.747219,-0.010925,-2.483039,0.004568,-0.086843,0.006293,0.984419,0.010925,0.175499,-0.000197,0.009171,0.016594,-0.935310,-29.777285,96.617363,,,,,,
1465313336.62,1.746334,-0.010868,-2.483047,-0.001817,-0.083655,0.006267,0.984575,0.010868,0.174628,0.000624,0.006344,0.007669,-0.711313,-29.771585,96.621033,,,,,,
1465313336.63,1.745678,-0.010828,-2.483084,0.005665,-0.064540,0.004026,0.984689,0.010828,0.173981,0.006567,0.002997,-0.006791,-0.711313,-29.771585,96.621033,,,,,,
1465313336.64,1.744856,-0.010821,-2.483159,0.004578,-0.086829,0.000971,0.984832,0.010821,0.173172,0.008424,0.002821,0.006225,-0.711313,-29.771585,96.621033,,,,,,
1465313336.65,1.744057,-0.010842,-2.483180,0.001413,-0.068768,-0.002339,0.984970,0.010842,0.172385,0.001694,0.001762,0.022439,-0.407879,-29.756870,96.627312,,,,,,
1465313336.67,1.744056,-0.010891,-2.483197,0.003635,0.006616,-0.001745,0.984970,0.010890,0.172384,0.006302,-0.000438,-0.008261,-0.407879,-29.756870,96.627312,,,,,,
1465313336.66,1.743937,-0.010868,-2.483169,0.000442,0.005559,-0.002806,0.984990,0.010867,0.172267,-0.000966,-0.000476,0.006963,-0.407879,-29.756870,96.627312,,,,,,
1465313336.68,1.743889,-0.010888,-2.483180,-0.002792,-0.020993,0.000551,0.984998,0.010887,0.172219,0.004916,0.000572,-0.003305,-0.407879,-29.756870,96.627312,,,,,,
1465313336.70,1.743713,-0.010834,-2.483236,0.005753,0.005539,0.003586,0.985029,0.010833,0.172046,0.004381,0.002518,0.009351,-0.312573,-29.753796,96.628624,,,,,,
1465313336.69,1.743690,-0.010861,-2.483183,0.000406,-0.014630,0.002643,0.985033,0.010861,0.172023,-0.000002,0.007831,0.007466,-0.312573,-29.753796,96.628624,,,,,,
1465313336.71,1.743645,-0.010823,-2.483328,0.008932,-0.008263,0.002612,0.985041,0.010823,0.171979,0.005682,-0.003270,0.018115,-0.312573,-29.753796,96.628624,,,,,,
1465313336.72,1.743743,-0.010815,-2.483334,-0.000618,0.016166,0.001384,0.985024,0.010815,0.172075,0.005836,0.000186,-0.011049,-0.297447,-29.749382,96.630028,,,,,,
1465313336.73,1.742574,-0.010871,-2.483399,0.008959,0.011907,0.001421,0.985224,0.010871,0.170924,0.010427,0.000725,-0.020121,-0.297447,-29.749382,96.630028,,,,,,
1465313336.74,1.742783,-0.011073,-2.483485,0.006771,-0.031629,0.003820,0.985186,0.011073,0.171130,-0.000842,0.003438,0.007520,-0.301510,-29.740307,96.632805,,,,,,
1465313336.75,1.745304,-0.010985,-2.483485,0.002585,0.027843,0.004507,0.984753,0.010985,0.173612,-0.006786,-0.000914,0.042650,-0.301510,-29.740307,96.632805,,,,,,
1465313336.76,1.747599,-0.011339,-2.483505,0.002704,0.127650,0.007073,0.984348,0.011338,0.175872,-0.012012,0.007750,0.020356,-0.301510,-29.740307,96.632805,,,,,,
1465313336.77,1.747898,-0.011091,-2.483609,0.011205,0.115958,0.008220,0.984298,0.011091,0.176167,0.006455,-0.003614,-0.019429,-0.659936,-29.715488,96.638664,,,,,,
1465313336.79,1.748781,-0.010480,-2.483742,-0.000566,0.067123,0.007452,0.984149,0.010480,0.177036,0.004819,-0.001493,0.007091,-0.659936,-29.715488,96.638664,,,,,,
1465313336.78,1.747966,-0.010623,-2.483728,0.008978,0.036325,0.007654,0.984291,0.010622,0.176234,0.012871,-0.008181,-0.007701,-0.659936,-29.715488,96.638664,,,,,,
1465313336.80,1.750000,-0.010290,-2.483754,-0.000444,0.151028,-0.001590,0.983934,0.010290,0.178236,0.011183,-0.004187,-0.001021,-0.717710,-29.705938,96.641182,,,,,,
1465313336.82,1.750616,-0.009699,-2.483836,0.003695,0.050158,-0.004144,0.983830,0.009699,0.178844,0.010540,-0.007242,0.005146,-0.717710,-29.705938,96.641182,,,,,,
1465313336.81,1.749908,-0.009953,-2.483803,0.002704,0.110677,-0.003461,0.983954,0.009953,0.178147,0.017588,-0.008900,-0.029572,-0.717710,-29.705938,96.641182,,,,,,
1465313336.83,1.752704,-0.009868,-2.483763,-0.006861,0.126612,-0.002506,0.983452,0.009868,0.180898,-0.007928,0.003682,0.024715,-0.717710,-29.705938,96.641182,,,,,,
1465313336.84,1.755461,-0.010208,-2.483771,0.003894,0.212617,-0.003035,0.982947,0.010208,0.183608,-0.007071,0.007630,0.018495,-1.001512,-29.710701,96.637192,,,,,,
1465313336.85,1.757309,-0.010512,-2.483759,-0.001450,0.200930,0.000225,0.982603,0.010512,0.185423,0.001986,0.007997,-0.008100,-1.001512,-29.710701,96.637192,,,,,,
1465313336.86,1.758435,-0.010565,-2.483756,-0.002563,0.168003,0.003624,0.982393,0.010565,0.186529,0.012221,0.002359,-0.016424,-1.454436,-29.708603,96.632088,,,,,,
1465313336.88,1.759988,-0.010601,-2.483740,-0.002533,0.191352,0.003477,0.982101,0.010601,0.188055,0.015472,0.000767,-0.039953,-1.454436,-29.708603,96.632088,,,,,,
1465313336.87,1.759473,-0.010630,-2.483774,-0.002565,0.165876,0.003637,0.982198,0.010630,0.187549,0.010921,0.002951,-0.014911,-1.454436,-29.708603,96.632088,,,,,,
1465313336.89,1.759440,-0.010537,-2.483756,-0.000445,0.156303,0.002634,0.982205,0.010536,0.187517,0.025302,-0.000588,-0.065569,-1.880176,-29.705120,96.625809,,,,,,
1465313336.90,1.760649,-0.010515,-2.483679,-0.010082,0.108536,-0.000269,0.981978,0.010514,0.188704,0.037386,-0.011384,-0.106108,-1.880176,-29.705120,96.625809,,,,,,
1465313336.91,1.760789,-0.010533,-2.483735,0.010003,-0.009331,-0.000574,0.981951,0.010532,0.188841,0.017667,-0.010731,-0.063169,-1.880176,-29.705120,96.625809,,,,,,
1465313336.92,1.761669,-0.010527,-2.483584,-0.020695,0.131907,-0.002555,0.981785,0.010527,0.189705,0.008221,-0.004957,-0.027336,-1.880176,-29.705120,96.625809,,,,,,
1465313336.93,1.760979,-0.010546,-2.483516,-0.002446,0.245504,-0.006443,0.981915,0.010546,0.189028,0.020053,-0.000887,-0.089815,-2.043702,-29.721197,96.617546,,,,,,
1465313336.94,1.762462,-0.010603,-2.483560,-0.001556,0.109587,-0.003460,0.981633,0.010603,0.190484,0.037486,-0.000242,-0.157799,-2.043702,-29.721197,96.617546,,,,,,
