timestamp,attitude_roll,attitude_pitch,attitude_yaw,rotation_rate_x,rotation_rate_y,rotation_rate_z,gravity_x,gravity_y,gravity_z,user_acc_x,user_acc_y,user_acc_z,magnetic_field_x,magnetic_field_y,magnetic_field_z,latitude(degree),longitude(degree),altitude(meter),speed(m/s),course(degree),timestamp
1466451589.68,-0.613185,0.000965,-0.781580,0.004083,-0.089652,0.001691,-0.575475,-0.000965,-0.817819,-0.006648,0.001270,0.006662,-23.790989,370.931763,-70.812225,,,,,,
1466451589.69,-0.614048,0.000950,-0.781555,0.004144,-0.042931,0.000334,-0.576181,-0.000950,-0.817322,-0.012412,0.001988,0.012711,-23.790989,370.931763,-70.812225,,,,,,
1466451589.70,-0.614451,0.000980,-0.781536,0.003117,-0.014261,-0.000911,-0.576509,-0.000980,-0.817090,-0.007063,0.000171,0.010022,-23.914608,370.931244,-70.773254,,,,,,
1466451589.71,-0.614576,0.000963,-0.781528,0.002055,-0.010016,0.000126,-0.576612,-0.000963,-0.817018,-0.000689,0.002092,0.002382,-23.914608,370.931244,-70.773254,,,,,,
1466451589.72,-0.614595,0.000988,-0.781506,0.003066,-0.051428,0.001451,-0.576627,-0.000988,-0.817007,0.021497,-0.000492,-0.004755,-23.914608,370.931244,-70.773254,,,,,,
,,,,,,,,,,,,,,,,29.719981,-95.399038,10.703684,-1.000000,-1.000000,1466451896.41
1466451589.73,-0.615111,0.000971,-0.781451,0.007079,-0.176687,0.003322,-0.577049,-0.000971,-0.816709,0.049415,0.003015,-0.019763,-23.946438,370.929779,-70.770134,,,,,,
1466451589.74,-0.617053,0.000975,-0.781356,0.010037,-0.361441,0.006613,-0.578634,-0.000975,-0.815587,0.065801,0.001890,-0.030894,-23.946438,370.929779,-70.770134,,,,,,
1466451589.75,-0.621974,0.001051,-0.781210,0.016211,-0.532394,0.007691,-0.582641,-0.001051,-0.812729,0.068664,0.003065,-0.033844,-23.946438,370.929779,-70.770134,,,,,,
1466451589.76,-0.628234,0.001128,-0.781033,0.017119,-0.652387,0.011638,-0.587717,-0.001128,-0.809066,0.059000,0.003264,-0.026078,-24.392769,370.916687,-70.686188,,,,,,
1466451589.77,-0.635392,0.001223,-0.780821,0.020209,-0.735209,0.012160,-0.593492,-0.001223,-0.804839,0.048158,0.003558,-0.016313,-24.392769,370.916687,-70.686188,,,,,,
1466451589.78,-0.643032,0.001301,-0.780582,0.022256,-0.799982,0.013633,-0.599624,-0.001301,-0.800281,0.036667,0.002324,-0.013288,-24.392769,370.916687,-70.686188,,,,,,
1466451589.79,-0.651358,0.001395,-0.780338,0.022203,-0.840333,0.014951,-0.606266,-0.001395,-0.795260,0.026280,0.000953,-0.006085,-24.392769,370.916687,-70.686188,,,,,,
1466451589.80,-0.659854,0.001476,-0.780080,0.021123,-0.850954,0.016081,-0.613001,-0.001476,-0.790081,0.019205,-0.002994,-0.004185,-26.279068,370.873199,-70.236801,,,,,,
1466451589.81,-0.668588,0.001562,-0.779820,0.023215,-0.880685,0.016269,-0.619878,-0.001562,-0.784697,0.022634,0.001699,-0.002871,-26.279068,370.873199,-70.236801,,,,,,
,,,,,,,,,,,,,,,,29.720023,-95.399138,10.703684,-1.000000,-1.000000,1466451917.48
,,,,,,,,,,,,,,,,29.720064,-95.399233,10.703684,-1.000000,-1.000000,1466451917.51
1466451589.82,-0.677490,0.001659,-0.779553,0.024281,-0.881745,0.015212,-0.626838,-0.001659,-0.779148,0.003044,-0.000767,0.000537,-27.372833,370.850006,-69.941101,,,,,,
1466451589.83,-0.685730,0.001736,-0.779313,0.022259,-0.797859,0.013620,-0.633238,-0.001736,-0.773956,-0.012591,0.000836,0.014770,-27.372833,370.850006,-69.941101,,,,,,
1466451589.84,-0.692814,0.001794,-0.779089,0.018149,-0.678935,0.012870,-0.638704,-0.001794,-0.769451,-0.028487,0.002129,0.027996,-27.372833,370.850006,-69.941101,,,,,,
1466451589.85,-0.698898,0.001841,-0.778895,0.016135,-0.588678,0.011237,-0.643374,-0.001841,-0.765550,-0.026014,0.001277,0.025865,-27.372833,370.850006,-69.941101,,,,,,
1466451589.86,-0.704975,0.001859,-0.778709,0.016202,-0.534529,0.010898,-0.648014,-0.001859,-0.761627,-0.019284,0.002058,0.018844,-29.283638,370.809479,-69.379662,,,,,,
1466451589.87,-0.710343,0.001918,-0.778537,0.016191,-0.545144,0.009900,-0.652092,-0.001918,-0.758137,0.010460,0.002147,0.007054,-29.283638,370.809479,-69.379662,,,,,,
1466451589.88,-0.716576,0.001965,-0.778337,0.018175,-0.657702,0.012737,-0.656806,-0.001965,-0.754057,0.040228,0.001522,-0.012224,-29.283638,370.809479,-69.379662,,,,,,
1466451589.89,-0.724329,0.002032,-0.778099,0.022237,-0.814851,0.013726,-0.662631,-0.002032,-0.748943,0.060504,0.000735,-0.028492,-29.993500,370.795990,-69.148117,,,,,,
1466451589.90,-0.733109,0.002091,-0.777831,0.024237,-0.914666,0.016483,-0.669182,-0.002091,-0.743096,0.043648,0.002381,-0.022804,-29.993500,370.795990,-69.148117,,,,,,
1466451589.91,-0.741918,0.002138,-0.777576,0.020052,-0.856265,0.016113,-0.675702,-0.002138,-0.737172,-0.000675,0.001405,0.004674,-29.993500,370.795990,-69.148117,,,,,,
1466451589.92,-0.749309,0.002204,-0.777342,0.021324,-0.695925,0.011915,-0.681132,-0.002204,-0.732158,-0.029577,0.002936,0.028941,-31.954052,370.758514,-68.467537,,,,,,
1466451589.93,-0.755171,0.002252,-0.777158,0.015112,-0.556822,0.009972,-0.685412,-0.002252,-0.728152,-0.035368,0.000848,0.037311,-31.954052,370.758514,-68.467537,,,,,,
1466451589.94,-0.761101,0.002272,-0.776985,0.015190,-0.496302,0.008528,-0.689717,-0.002272,-0.724075,-0.024181,0.002013,0.023117,-32.774673,370.740723,-68.175362,,,,,,
1466451589.95,-0.765672,0.002306,-0.776846,0.012066,-0.440024,0.008172,-0.693020,-0.002306,-0.720915,-0.025700,-0.000395,0.016356,-32.774673,370.740723,-68.175362,,,,,,
1466451589.96,-0.769473,0.002331,-0.776736,0.008975,-0.361444,0.005547,-0.695755,-0.002331,-0.718275,-0.019989,0.000027,0.017546,-32.774673,370.740723,-68.175362,,,,,,
1466451589.97,-0.772765,0.002366,-0.776619,0.010088,-0.323219,0.005309,-0.698116,-0.002366,-0.715981,-0.010350,-0.001983,0.014199,-33.419174,370.729706,-67.921822,,,,,,
1466451589.98,-0.776132,0.002425,-0.776518,0.007932,-0.344454,0.005440,-0.700523,-0.002425,-0.713626,0.006019,-0.001404,0.001804,-33.419174,370.729706,-67.921822,,,,,,
1466451589.99,-0.779960,0.002442,-0.776400,0.009995,-0.395425,0.006826,-0.703249,-0.002442,-0.710939,0.018374,0.000138,-0.006209,-33.419174,370.729706,-67.921822,,,,,,
,,,,,,,,,,,,,,,,29.720001,-95.399008,10.431988,-1.000000,-1.000000,1466451917.69
1466451590.00,-0.784383,0.002470,-0.776264,0.012046,-0.457013,0.008279,-0.706387,-0.002470,-0.707822,0.028286,0.000349,-0.007556,-34.303955,370.709595,-67.589722,,,,,,
1466451590.01,-0.789618,0.002496,-0.776106,0.014057,-0.549394,0.009924,-0.710082,-0.002496,-0.704114,0.042297,0.001413,-0.013507,-34.303955,370.709595,-67.589722,,,,,,
1466451590.02,-0.795240,0.002504,-0.775890,0.020263,-0.691679,0.012952,-0.714029,-0.002504,-0.700111,0.062357,0.001863,-0.022087,-34.303955,370.709595,-67.589722,,,,,,
1466451590.03,-0.803630,0.002541,-0.775631,0.021068,-0.893431,0.017412,-0.719878,-0.002541,-0.694096,0.087065,-0.000297,-0.036830,-34.892933,370.698853,-67.346664,,,,,,
1466451590.04,-0.814478,0.002575,-0.775287,0.029251,-1.155709,0.022258,-0.727365,-0.002575,-0.686246,0.116159,0.001400,-0.048877,-34.892933,370.698853,-67.346664,,,,,,
1466451590.05,-0.828795,0.002616,-0.774851,0.037286,-1.535848,0.027843,-0.737115,-0.002616,-0.675762,0.162332,0.004066,-0.068653,-34.892933,370.698853,-67.346664,,,,,,
1466451590.07,-0.870640,0.002701,-0.773577,0.059610,-2.392769,0.046013,-0.764739,-0.002701,-0.644335,0.191970,0.004822,-0.086805,-37.221809,370.660706,-66.301598,,,,,,
1466451590.06,-0.847609,0.002656,-0.774284,0.047340,-1.999875,0.036086,-0.749697,-0.002656,-0.661775,0.192248,0.003602,-0.095534,-37.221809,370.660706,-66.301598,,,,,,
1466451590.08,-0.897342,0.002726,-0.772768,0.066588,-2.767594,0.050500,-0.781669,-0.002726,-0.623688,0.202766,0.004175,-0.070648,-37.221809,370.660706,-66.301598,,,,,,
1466451590.09,-0.927771,0.002732,-0.771855,0.075719,-3.121191,0.056984,-0.800282,-0.002732,-0.599617,0.185704,0.005448,-0.078010,-39.682556,370.624054,-65.067993,,,,,,
1466451590.10,-0.960553,0.002712,-0.770875,0.078667,-3.314447,0.060328,-0.819506,-0.002712,-0.573065,0.147737,0.008327,-0.036219,-39.682556,370.624054,-65.067993,,,,,,
1466451590.11,-0.994689,0.002652,-0.769836,0.085938,-3.454617,0.064408,-0.838587,-0.002652,-0.544762,0.143259,0.003292,-0.020928,-39.682556,370.624054,-65.067993,,,,,,
1466451590.12,-1.031407,0.002536,-0.768679,0.092993,-3.758320,0.074835,-0.858020,-0.002536,-0.513611,0.172259,0.008929,-0.022278,-46.657280,370.534546,-60.811035,,,,,,
1466451590.13,-1.073212,0.002382,-0.767416,0.107164,-4.346563,0.077474,-0.878735,-0.002382,-0.477303,0.269879,0.004640,-0.071998,-46.657280,370.534546,-60.811035,,,,,,
1466451590.14,-1.121500,0.002130,-0.765922,0.123389,-4.974129,0.093135,-0.900751,-0.002130,-0.434330,0.288721,0.014657,-0.008068,-46.657280,370.534546,-60.811035,,,,,,
1466451590.15,-1.175168,0.001797,-0.764343,0.133397,-5.482740,0.097399,-0.922753,-0.001797,-0.385387,0.221505,0.000958,0.021358,-50.767578,370.491028,-57.704361,,,,,,
1466451590.16,-1.231948,0.001319,-0.762675,0.138399,-5.730157,0.104278,-0.943137,-0.001319,-0.332401,0.253730,0.021476,0.073902,-50.767578,370.491028,-57.704361,,,,,,
1466451590.17,-1.291881,0.000738,-0.760957,0.149661,-6.079514,0.112867,-0.961354,-0.000738,-0.275313,0.219747,-0.011133,0.057906,-50.767578,370.491028,-57.704361,,,,,,
1466451590.19,-1.421928,-0.000985,-0.757329,0.167889,-6.813252,0.126003,-0.988939,0.000985,-0.148319,0.226305,-0.009835,0.069294,-60.831886,370.430420,-47.450317,,,,,,
1466451590.18,-1.354929,-0.000062,-0.759176,0.155657,-6.382148,0.121158,-0.976791,0.000062,-0.214194,0.269211,0.027511,0.102286,-60.831886,370.430420,-47.450317,,,,,,
1466451590.20,-1.492254,-0.002126,-0.755490,0.170742,-7.076596,0.132980,-0.996915,0.002126,-0.078462,0.231870,0.028636,0.188157,-60.831886,370.430420,-47.450317,,,,,,
1466451590.21,-1.564287,-0.003367,-0.753683,0.175850,-7.245431,0.136172,-0.999973,0.003367,-0.006509,0.224888,-0.010493,0.124459,-65.641129,370.445953,-40.395252,,,,,,
1466451590.22,-1.638247,-0.004811,-0.752006,0.174524,-7.456723,0.135367,-0.997715,0.004811,0.067398,0.250858,0.038478,0.190841,-65.641129,370.445953,-40.395252,,,,,,
1466451590.23,-1.715320,-0.006461,-0.750249,0.193236,-7.793368,0.153464,-0.989554,0.006461,0.144018,0.231863,-0.004401,0.157633,-65.641129,370.445953,-40.395252,,,,,,
1466451590.24,-1.794947,-0.008258,-0.748690,0.186602,-8.002517,0.146254,-0.974950,0.008258,0.222270,0.238790,0.032346,0.212102,-72.889084,370.605469,-22.572044,,,,,,
1466451590.25,-1.876195,-0.010274,-0.747158,0.202370,-8.143779,0.159929,-0.953677,0.010274,0.300658,0.192248,-0.002660,0.242464,-72.889084,370.605469,-22.572044,,,,,,
1466451590.26,-1.957922,-0.012333,-0.745919,0.187437,-8.180908,0.150566,-0.925928,0.012332,0.377499,0.168893,0.021313,0.255191,-72.889084,370.605469,-22.572044,,,,,,
1466451590.27,-2.039610,-0.014626,-0.744747,0.201276,-8.167138,0.160074,-0.892010,0.014626,0.451780,0.247112,0.020057,0.258990,-74.560165,370.762207,-12.120989,,,,,,
1466451590.28,-2.123210,-0.016943,-0.743802,0.198816,-8.434706,0.159621,-0.851138,0.016942,0.524668,0.195316,0.001139,0.220495,-74.560165,370.762207,-12.120989,,,,,,
1466451590.29,-2.208750,-0.019447,-0.743040,0.203967,-8.570622,0.161543,-0.803164,0.019446,0.595440,0.233722,0.032251,0.276722,-74.560165,370.762207,-12.120989,,,,,,
1466451590.30,-2.295114,-0.022045,-0.742433,0.213429,-8.656651,0.168478,-0.748770,0.022043,0.662463,0.165472,0.003180,0.301938,-72.607315,371.222412,9.634537,,,,,,
1466451590.31,-2.381669,-0.024660,-0.742109,0.199633,-8.623721,0.166129,-0.688657,0.024657,0.724668,0.084409,0.015092,0.317172,-72.607315,371.222412,9.634537,,,,,,
1466451590.32,-2.465600,-0.027206,-0.742002,0.203248,-8.294553,0.159811,-0.625441,0.027203,0.779797,0.015211,0.002506,0.365100,-72.607315,371.222412,9.634537,,,,,,
1466451590.33,-2.545172,-0.029657,-0.742117,0.181464,-7.843263,0.152701,-0.561438,0.029653,0.826987,0.027197,0.010508,0.319772,-68.783417,371.518127,20.343815,,,,,,
1466451590.34,-2.621380,-0.031946,-0.742491,0.178592,-7.584185,0.152137,-0.496811,0.031940,0.867271,0.130463,0.009213,0.268609,-68.783417,371.518127,20.343815,,,,,,
1466451590.35,-2.698612,-0.034322,-0.742945,0.187934,-7.779555,0.151243,-0.428382,0.034315,0.902946,0.135078,0.009126,0.208001,-68.783417,371.518127,20.343815,,,,,,
1466451590.36,-2.777521,-0.036606,-0.743674,0.181369,-7.913352,0.156333,-0.355843,0.036598,0.933829,0.190865,0.022042,0.235803,-57.197231,372.130951,37.653496,,,,,,
1466451590.37,-2.857399,-0.038952,-0.744530,0.198264,-8.031212,0.153896,-0.280171,0.038942,0.959160,0.289357,0.020384,0.219887,-57.197231,372.130951,37.653496,,,,,,
1466451590.38,-2.941307,-0.041230,-0.745613,0.193401,-8.505847,0.161126,-0.198780,0.041218,0.979177,0.146931,0.011898,0.242838,-57.197231,372.130951,37.653496,,,,,,
1466451590.40,-3.109560,-0.045491,-0.748488,0.194776,-8.255268,0.161685,-0.031994,0.045475,0.998453,0.225109,0.018138,0.308310,-49.477406,372.453735,44.731781,,,,,,
1466451590.39,-3.026659,-0.043435,-0.747005,0.195558,-8.465531,0.172584,-0.114572,0.043421,0.992466,0.161783,0.011480,0.303372,-49.477406,372.453735,44.731781,,,,,,
1466451590.41,3.088675,-0.047460,-0.750238,0.200693,-8.611010,0.176695,0.052833,0.047442,0.997476,0.251869,0.015256,0.225806,-49.477406,372.453735,44.731781,,,,,,
1466451590.42,2.998882,-0.049359,-0.752149,0.207621,-9.039964,0.173005,0.142054,0.049339,0.988629,0.155981,0.007591,0.314915,-49.477406,372.453735,44.731781,,,,,,
1466451590.43,2.909227,-0.051014,-0.754285,0.199279,-8.889201,0.178438,0.229980,0.050992,0.971859,0.107559,0.019382,0.364750,-29.955866,373.116852,55.292038,,,,,,
1466451590.44,2.822791,-0.052447,-0.756459,0.195477,-8.538781,0.167721,0.312997,0.052423,0.948306,0.030920,0.004477,0.403211,-29.955866,373.116852,55.292038,,,,,,
1466451590.45,2.739473,-0.053635,-0.758664,0.185208,-8.245704,0.160551,0.390807,0.053609,0.918910,-0.028487,0.017085,0.369389,-18.454754,373.434814,58.108582,,,,,,
1466451590.47,2.587639,-0.055329,-0.762911,0.159067,-7.036262,0.140166,0.525248,0.055301,0.849150,-0.193034,0.007718,0.384401,-18.454754,373.434814,58.108582,,,,,,
1466451590.46,2.660111,-0.054619,-0.760827,0.178341,-7.784865,0.153396,0.462402,0.054592,0.884988,-0.139633,0.002446,0.389472,-18.454754,373.434814,58.108582,,,,,,
1466451590.48,2.523592,-0.055852,-0.764748,0.141000,-6.182525,0.120956,0.578504,0.055823,0.813767,-0.229001,0.001993,0.360610,2.719776,373.913177,57.898914,,,,,,
1466451590.49,2.467119,-0.056245,-0.766433,0.128080,-5.467890,0.103688,0.623499,0.056216,0.779800,-0.253794,0.000043,0.287277,2.719776,373.913177,57.898914,,,,,,
1466451590.50,2.418106,-0.056472,-0.767835,0.101406,-4.675751,0.091242,0.660946,0.056442,0.748307,-0.334149,-0.002579,0.293593,2.719776,373.913177,57.898914,,,,,,
1466451590.51,2.378692,-0.056618,-0.768995,0.083522,-3.680785,0.067953,0.689914,0.056588,0.721677,-0.375537,-0.004708,0.275485,10.463146,374.056091,56.065094,,,,,,
1466451590.52,2.350242,-0.056674,-0.769819,0.056211,-2.548866,0.052311,0.710161,0.056644,0.701757,-0.438418,0.001736,0.279658,10.463146,374.056091,56.065094,,,,,,
1466451590.53,2.333242,-0.056725,-0.770332,0.032120,-1.414793,0.024950,0.721986,0.056695,0.689581,-0.446839,-0.003167,0.230478,10.463146,374.056091,56.065094,,,,,,
1466451590.55,2.333590,-0.056735,-0.770334,-0.019278,0.854385,-0.018073,0.721746,0.056705,0.689832,-0.432302,-0.000949,0.204989,18.717346,374.181885,52.993523,,,,,,
1466451590.54,2.327770,-0.056721,-0.770487,0.005913,-0.255262,0.007007,0.725748,0.056690,0.685621,-0.460718,-0.002537,0.245562,18.717346,374.181885,52.993523,,,,,,
1466451590.56,2.350331,-0.056680,-0.769836,-0.042388,1.938523,-0.034475,0.710099,0.056649,0.701819,-0.400528,-0.004281,0.229699,18.717346,374.181885,52.993523,,,,,,
1466451590.58,2.412982,-0.056510,-0.768007,-0.081524,3.802078,-0.071749,0.664771,0.056479,0.744909,-0.307502,-0.002006,0.224421,18.696728,374.182404,52.996948,,,,,,
1466451590.57,2.377114,-0.056627,-0.769047,-0.064566,2.904822,-0.057589,0.691051,0.056597,0.720586,-0.349590,0.001356,0.191050,18.696728,374.182404,52.996948,,,,,,
1466451590.59,2.456975,-0.056354,-0.766754,-0.098636,4.568746,-0.090412,0.631373,0.056324,0.773431,-0.217860,0.004497,0.189429,18.696728,374.182404,52.996948,,,,,,
1466451590.60,2.507640,-0.056028,-0.765276,-0.119112,5.214345,-0.098739,0.591404,0.055999,0.804428,-0.168171,-0.001296,0.215576,11.097610,374.070129,55.848907,,,,,,
1466451590.61,2.563761,-0.055620,-0.763650,-0.131231,5.718742,-0.114688,0.545364,0.055591,0.836354,-0.093170,0.010648,0.185222,11.097610,374.070129,55.848907,,,,,,
1466451590.62,2.624306,-0.055070,-0.761913,-0.138141,6.144540,-0.121623,0.493774,0.055042,0.867847,-0.058608,-0.000049,0.221341,11.097610,374.070129,55.848907,,,,,,
1466451590.63,2.688730,-0.054370,-0.760110,-0.149359,6.526815,-0.131483,0.436895,0.054343,0.897870,-0.001577,0.007821,0.211307,4.270729,373.948517,57.576080,,,,,,
1466451590.64,2.756686,-0.053495,-0.758267,-0.155333,6.862339,-0.130400,0.374935,0.053469,0.925508,0.047275,0.005124,0.231185,4.270729,373.948517,57.576080,,,,,,
1466451590.65,2.826646,-0.052527,-0.756452,-0.151942,7.005705,-0.139811,0.309338,0.052503,0.949502,0.138385,0.013644,0.193000,4.270729,373.948517,57.576080,,,,,,
1466451590.66,2.896507,-0.051391,-0.754687,-0.158492,6.945199,-0.135165,0.242320,0.051368,0.968836,0.187200,0.007699,0.170401,-13.011822,373.580414,58.643719,,,,,,
1466451590.67,2.964792,-0.050184,-0.753052,-0.150186,6.781668,-0.130938,0.175660,0.050163,0.983172,0.236571,0.008126,0.148420,-13.011822,373.580414,58.643719,,,,,,
1466451590.68,3.030858,-0.048880,-0.751561,-0.148395,6.518328,-0.125026,0.110376,0.048860,0.992688,0.284491,0.013029,0.109210,-13.011822,373.580414,58.643719,,,,,,
1466451590.69,3.093077,-0.047591,-0.750211,-0.137196,6.110588,-0.121394,0.048442,0.047573,0.997692,0.298482,0.010029,0.077503,-22.047932,373.352386,57.381367,,,,,,
1466451590.70,-3.132244,-0.046264,-0.749043,-0.133521,5.653996,-0.113204,-0.009339,0.046247,0.998886,0.367417,0.015444,0.031646,-22.047932,373.352386,57.381367,,,,,,
1466451590.71,-3.080523,-0.045021,-0.748069,-0.116286,4.983954,-0.096211,-0.060970,0.045005,0.997124,0.423534,0.010033,-0.030175,-22.047932,373.352386,57.381367,,,,,,
1466451590.72,-3.037336,-0.043942,-0.747304,-0.096140,4.083509,-0.080964,-0.103968,0.043928,0.993610,0.427271,0.017565,-0.098957,-36.907173,372.912903,52.388527,,,,,,
1466451590.73,-3.002861,-0.043066,-0.746726,-0.073800,3.237208,-0.063925,-0.138159,0.043053,0.989474,0.422720,0.007789,-0.115237,-36.907173,372.912903,52.388527,,,,,,
1466451590.74,-2.976507,-0.042375,-0.746293,-0.054600,2.433385,-0.048220,-0.164189,0.042362,0.985519,0.401097,0.013882,-0.130416,-36.907173,372.912903,52.388527,,,,,,
1466451590.75,-2.958305,-0.041874,-0.746001,-0.041810,1.608334,-0.034517,-0.182103,0.041862,0.982388,0.396230,0.016014,-0.167248,-41.453659,372.760132,50.022167,,,,,,
1466451590.76,-2.948643,-0.041577,-0.745834,-0.022672,0.757785,-0.016391,-0.191589,0.041565,0.980595,0.378403,0.014756,-0.166294,-41.453659,372.760132,50.022167,,,,,,
1466451590.77,-2.946691,-0.041421,-0.745815,-0.011907,0.017677,-0.002158,-0.193504,0.041409,0.980225,0.347739,0.013370,-0.162018,-41.453659,372.760132,50.022167,,,,,,
1466451590.78,-2.951605,-0.041470,-0.745887,0.007454,-0.659790,0.011690,-0.188685,0.041458,0.981162,0.340571,0.008362,-0.142814,-44.646355,372.637451,48.153515,,,,,,
1466451590.79,-2.963533,-0.041709,-0.746071,0.022515,-1.370170,0.025740,-0.176967,0.041696,0.983333,0.329005,0.006369,-0.152813,-44.646355,372.637451,48.153515,,,,,,
1466451590.80,-2.982560,-0.042142,-0.746363,0.042903,-2.078429,0.039783,-0.158223,0.042129,0.986504,0.324696,0.003754,-0.131600,-43.716728,372.662292,48.809601,,,,,,
1466451590.81,-3.008426,-0.042748,-0.746773,0.056955,-2.744213,0.053552,-0.132652,0.042734,0.990241,0.292228,0.007467,-0.118461,-43.716728,372.662292,48.809601,,,,,,
1466451590.82,-3.040151,-0.043507,-0.747310,0.072202,-3.309120,0.064562,-0.101172,0.043494,0.993918,0.290961,0.006052,-0.081930,-43.716728,372.662292,48.809601,,,,,,
1466451590.83,-3.077679,-0.044376,-0.747962,0.086355,-3.896328,0.076774,-0.063807,0.044362,0.996976,0.264582,-0.005879,-0.064511,-41.173145,372.744110,50.372051,,,,,,
1466451590.84,-3.120909,-0.045419,-0.748773,0.103736,-4.458051,0.087765,-0.020661,0.045403,0.998755,0.261033,-0.002938,-0.041297,-41.173145,372.744110,50.372051,,,,,,
1466451590.85,3.113618,-0.046581,-0.749734,0.120092,-4.988981,0.098563,0.027941,0.046564,0.998524,0.217726,-0.013773,0.006221,-41.173145,372.744110,50.372051,,,,,,
1466451590.86,3.060959,-0.047812,-0.750817,0.130311,-5.328766,0.101768,0.080454,0.047794,0.995612,0.159994,-0.001072,0.041299,-41.173145,372.744110,50.372051,,,,,,
1466451590.87,3.006706,-0.049032,-0.751991,0.133377,-5.427521,0.104520,0.134316,0.049013,0.989726,0.095146,-0.000108,0.112676,-31.502571,373.052979,54.861519,,,,,,
1466451590.88,2.952231,-0.050142,-0.753239,0.129098,-5.443446,0.104615,0.187996,0.050121,0.980890,0.068978,0.018223,0.104529,-31.502571,373.052979,54.861519,,,,,,
1466451590.89,2.897533,-0.051193,-0.754544,0.130118,-5.474247,0.108003,0.241327,0.051170,0.969094,0.043951,0.020241,0.124107,-31.502571,373.052979,54.861519,,,,,,
1466451590.90,2.843389,-0.052082,-0.755910,0.120688,-5.354256,0.106176,0.293405,0.052059,0.954570,-0.031244,0.013661,0.142079,-17.697117,373.452271,58.231972,,,,,,
1466451590.91,2.791955,-0.052871,-0.757232,0.115746,-5.060117,0.097940,0.342079,0.052846,0.938184,-0.043678,0.017222,0.166186,-17.697117,373.452271,58.231972,,,,,,
1466451590.92,2.743506,-0.053561,-0.758507,0.108668,-4.769165,0.090786,0.387100,0.053535,0.920482,-0.084808,0.005349,0.171528,-17.697117,373.452271,58.231972,,,,,,
1466451590.93,2.698521,-0.054122,-0.759729,0.098513,-4.381592,0.085152,0.428088,0.054095,0.902116,-0.145709,0.005887,0.171492,-10.743116,373.621857,58.838955,,,,,,
1466451590.94,2.658730,-0.054551,-0.760850,0.085382,-3.822004,0.077371,0.463626,0.054524,0.884352,-0.200396,0.000194,0.192812,-10.743116,373.621857,58.838955,,,,,,
1466451590.95,2.625299,-0.054871,-0.761794,0.069170,-3.180640,0.063753,0.492917,0.054843,0.868346,-0.207731,0.002926,0.180970,-10.743116,373.621857,58.838955,,,,,,
1466451590.96,2.597944,-0.055125,-0.762572,0.059271,-2.597682,0.051571,0.516476,0.055097,0.854527,-0.243863,-0.003874,0.168681,0.263496,373.858276,58.315056,,,,,,
1466451590.98,2.562236,-0.055404,-0.763607,0.026854,-1.307525,0.025352,0.546645,0.055376,0.835531,-0.229324,-0.006273,0.140970,0.263496,373.858276,58.315056,,,,,,
1466451590.97,2.576845,-0.055298,-0.763200,0.043083,-1.935085,0.038884,0.534385,0.055270,0.843432,-0.244239,-0.003283,0.157437,0.263496,373.858276,58.315056,,,,,,
1466451590.99,2.553488,-0.055487,-0.763863,0.018016,-0.726691,0.013184,0.553931,0.055458,0.830713,-0.241843,-0.005791,0.130239,3.441006,373.919678,57.818478,,,,,,
1466451591.00,2.550921,-0.055527,-0.763936,0.003919,-0.093829,0.001750,0.556061,0.055499,0.829286,-0.238663,-0.002017,0.120146,3.441006,373.919678,57.818478,,,,,,
1466451591.01,2.554757,-0.055513,-0.763828,-0.010176,0.537978,-0.011806,0.552876,0.055485,0.831414,-0.229268,-0.002003,0.121375,4.955093,373.947754,57.526279,,,,,,
1466451591.02,2.564625,-0.055439,-0.763534,-0.025388,1.131554,-0.022995,0.544647,0.055410,0.836833,-0.216659,0.003824,0.106435,4.955093,373.947754,57.526279,,,,,,
1466451591.03,2.580126,-0.055281,-0.763090,-0.040658,1.681590,-0.031782,0.531615,0.055253,0.845182,-0.190551,0.001143,0.102709,4.955093,373.947754,57.526279,,,,,,
1466451591.04,2.600524,-0.055086,-0.762507,-0.049641,2.149867,-0.041115,0.514271,0.055058,0.855859,-0.157139,0.004680,0.088752,4.955093,373.947754,57.526279,,,,,,
1466451591.05,2.625317,-0.054823,-0.761791,-0.062915,2.591601,-0.050285,0.492903,0.054795,0.868357,-0.158690,0.002441,0.095068,3.220367,373.915771,57.856373,,,,,,
1466451591.07,2.689410,-0.054077,-0.759993,-0.081990,3.490997,-0.069783,0.436291,0.054051,0.898181,-0.083218,0.000988,0.102231,3.220367,373.915771,57.856373,,,,,,
1466451591.06,2.655269,-0.054484,-0.760960,-0.071841,3.106596,-0.058846,0.466686,0.054457,0.882745,-0.127513,0.004182,0.112250,3.220367,373.915771,57.856373,,,,,,
1466451591.08,2.726760,-0.053615,-0.758981,-0.085842,3.813790,-0.072876,0.402457,0.053590,0.913869,-0.078681,0.001510,0.101314,-3.942383,373.765808,58.773232,,,,,,
1466451591.09,2.767285,-0.053058,-0.757884,-0.096099,4.114303,-0.081157,0.365114,0.053033,0.929451,-0.018388,0.004096,0.100731,-3.942383,373.765808,58.773232,,,,,,
1466451591.10,2.809923,-0.052426,-0.756786,-0.096947,4.287377,-0.082244,0.325175,0.052402,0.944201,0.027517,0.001278,0.093183,-9.089449,373.651184,58.931541,,,,,,
1466451591.11,2.852960,-0.051762,-0.755663,-0.099054,4.296949,-0.087628,0.284261,0.051739,0.957350,0.071101,0.008060,0.061327,-9.089449,373.651184,58.931541,,,,,,
1466451591.12,2.895887,-0.051050,-0.754592,-0.095898,4.271455,-0.084272,0.242924,0.051028,0.968702,0.108486,0.001402,0.061113,-9.089449,373.651184,58.931541,,,,,,
1466451591.13,2.938286,-0.050305,-0.753542,-0.095951,4.225804,-0.086114,0.201654,0.050284,0.978165,0.120536,0.006799,0.052841,-9.089449,373.651184,58.931541,,,,,,
1466451591.14,2.979748,-0.049511,-0.752591,-0.095048,4.104743,-0.080032,0.160941,0.049491,0.985722,0.167886,0.008126,0.029704,-20.351109,373.374237,57.863869,,,,,,
1466451591.15,3.018485,-0.048747,-0.751692,-0.085878,3.780879,-0.074798,0.122651,0.048727,0.991253,0.203139,0.012811,-0.002300,-20.351109,373.374237,57.863869,,,,,,
1466451591.16,3.053932,-0.047964,-0.750941,-0.086288,3.462324,-0.067479,0.087448,0.047946,0.995015,0.203110,0.010450,-0.027760,-20.351109,373.374237,57.863869,,,,,,
1466451591.17,3.086599,-0.047210,-0.750244,-0.078109,3.201102,-0.060510,0.054905,0.047193,0.997376,0.201366,0.015567,-0.013611,-25.529362,373.232849,56.711845,,,,,,
1466451591.19,3.139728,-0.045894,-0.749145,-0.060130,2.268804,-0.046129,0.001863,0.045878,0.998945,0.275481,0.007558,-0.068586,-25.529362,373.232849,56.711845,,,,,,
1466451591.18,3.115514,-0.046518,-0.749657,-0.072192,2.825218,-0.058146,0.026047,0.046502,0.998579,0.250595,0.013786,-0.055448,-25.529362,373.232849,56.711845,,,,,,
1466451591.20,-3.125294,-0.045401,-0.748785,-0.043856,1.673104,-0.034926,-0.016281,0.045386,0.998837,0.271561,0.006052,-0.121792,-33.141659,372.996338,54.277824,,,,,,
1466451591.21,-3.112754,-0.045063,-0.748533,-0.030747,1.103944,-0.021763,-0.028805,0.045048,0.998569,0.296994,-0.002919,-0.095219,-33.141659,372.996338,54.277824,,,,,,
1466451591.22,-3.106672,-0.044884,-0.748421,-0.010304,0.437101,-0.010109,-0.034878,0.044869,0.998384,0.301785,-0.000146,-0.136598,-33.141659,372.996338,54.277824,,,,,,
1466451591.23,-3.107553,-0.044898,-0.748438,0.003698,-0.263731,0.007073,-0.033998,0.044882,0.998414,0.299349,-0.004462,-0.131043,-35.027683,372.930786,53.538944,,,,,,
1466451591.24,-3.115078,-0.045071,-0.748577,0.022049,-0.906143,0.015378,-0.026485,0.045056,0.998633,0.279140,0.003635,-0.142875,-35.027683,372.930786,53.538944,,,,,,
1466451591.25,-3.129362,-0.045427,-0.748859,0.035140,-1.488051,0.029685,-0.012217,0.045411,0.998894,0.255793,-0.001161,-0.110619,-35.027683,372.930786,53.538944,,,,,,
1466451591.26,3.135291,-0.045860,-0.749220,0.047318,-1.957389,0.037963,0.006295,0.045844,0.998929,0.202979,0.004235,-0.106244,-34.011551,372.961426,53.978687,,,,,,
1466451591.28,3.087417,-0.046984,-0.750208,0.064535,-2.646534,0.051883,0.054089,0.046967,0.997431,0.153629,0.002471,-0.055689,-34.011551,372.961426,53.978687,,,,,,
1466451591.27,3.113079,-0.046391,-0.749674,0.053261,-2.302495,0.046520,0.028479,0.046375,0.998518,0.178003,0.004025,-0.059385,-34.011551,372.961426,53.978687,,,,,,
1466451591.29,3.058117,-0.047640,-0.750825,0.068397,-2.959776,0.055980,0.083285,0.047622,0.995387,0.133879,0.001938,-0.033046,-31.493313,373.040771,54.949844,,,,,,
1466451591.30,3.027195,-0.048318,-0.751502,0.075656,-3.107382,0.061171,0.114015,0.048299,0.992304,0.081771,0.000422,-0.003718,-31.493313,373.040771,54.949844,,,,,,
1466451591.31,2.995816,-0.048974,-0.752196,0.073475,-3.151971,0.059319,0.145087,0.048954,0.988207,0.073923,0.005825,0.018278,-28.041443,373.145752,56.095261,,,,,,
1466451591.32,2.963452,-0.049629,-0.752937,0.077595,-3.256041,0.064234,0.176982,0.049609,0.982963,0.038335,0.004606,0.029366,-28.041443,373.145752,56.095261,,,,,,
1466451591.33,2.930149,-0.050267,-0.753714,0.076432,-3.337794,0.062616,0.209606,0.050246,0.976494,0.042271,0.010103,0.021110,-28.041443,373.145752,56.095261,,,,,,
1466451591.34,2.896591,-0.050863,-0.754525,0.076416,-3.344177,0.066914,0.242244,0.050841,0.968882,0.001316,0.000840,0.048879,-19.814434,373.377686,58.027874,,,,,,
1466451591.35,2.864382,-0.051396,-0.755340,0.072395,-3.159412,0.062558,0.273313,0.051373,0.960552,-0.050687,0.004886,0.066486,-19.814434,373.377686,58.027874,,,,,,
1466451591.36,2.834478,-0.051880,-0.756106,0.066284,-2.941733,0.059058,0.301903,0.051856,0.951927,-0.043220,0.002023,0.091484,-19.814434,373.377686,58.027874,,,,,,
1466451591.37,2.805860,-0.052325,-0.756855,0.065377,-2.819620,0.056162,0.329010,0.052301,0.942877,-0.070480,0.004416,0.066583,-19.814434,373.377686,58.027874,,,,,,
1466451591.38,2.779454,-0.052726,-0.757548,0.058252,-2.565830,0.049241,0.353783,0.052702,0.933842,-0.089088,-0.005781,0.085079,-11.624342,373.582275,58.922939,,,,,,
1466451591.39,2.756060,-0.053104,-0.758152,0.057577,-2.265322,0.040969,0.375523,0.053079,0.925292,-0.095311,-0.000787,0.089250,-11.624342,373.582275,58.922939,,,,,,
1466451591.40,2.735874,-0.053393,-0.758700,0.046291,-1.927660,0.037776,0.394117,0.053368,0.917510,-0.141920,-0.003044,0.092149,-11.624342,373.582275,58.922939,,,,,,
1466451591.41,2.719895,-0.053620,-0.759120,0.034090,-1.480615,0.027509,0.408722,0.053594,0.911084,-0.153366,-0.000219,0.097476,-8.342251,373.661530,58.976349,,,,,,
1466451591.42,2.708138,-0.053795,-0.759441,0.027153,-1.077111,0.019649,0.419401,0.053769,0.906208,-0.157987,0.003116,0.092587,-8.342251,373.661530,58.976349,,,,,,
1466451591.43,2.700873,-0.053908,-0.759621,0.014923,-0.648123,0.012688,0.425971,0.053882,0.903131,-0.173606,0.001354,0.082755,-8.342251,373.661530,58.976349,,,,,,
1466451591.44,2.698077,-0.053930,-0.759699,0.001714,-0.154360,0.003192,0.428494,0.053904,0.901935,-0.186520,0.006521,0.087017,-4.713257,373.746368,58.840393,,,,,,
1466451591.45,2.711562,-0.054000,-0.759028,-0.007247,0.334152,-0.005204,0.416291,0.053974,0.907628,-0.164582,0.002041,0.085689,-4.713257,373.746368,58.840393,,,,,,
1466451591.46,2.718238,-0.053920,-0.758847,-0.016259,0.774828,-0.016492,0.410224,0.053894,0.910391,-0.156379,-0.000045,0.078501,-5.555655,373.733551,58.847992,,,,,,
1466451591.47,2.729111,-0.053790,-0.758552,-0.026384,1.184701,-0.023331,0.400305,0.053764,0.914804,-0.128332,-0.002235,0.072654,-5.555655,373.733551,58.847992,,,,,,
1466451591.48,2.743482,-0.053617,-0.758171,-0.032358,1.508566,-0.029625,0.387121,0.053591,0.920470,-0.088079,-0.001879,0.061707,-5.555655,373.733551,58.847992,,,,,,
1466451591.49,2.760428,-0.053405,-0.757704,-0.038457,1.730501,-0.036346,0.371471,0.053380,0.926909,-0.057842,0.000621,0.043337,-5.555655,373.733551,58.847992,,,,,,
1466451591.50,2.779605,-0.053156,-0.757215,-0.042401,1.982151,-0.037928,0.353633,0.053131,0.933874,-0.054836,-0.003143,0.041071,-8.795204,373.663605,58.897247,,,,,,
1466451591.51,2.801234,-0.052854,-0.756659,-0.048495,2.211512,-0.042566,0.333359,0.052829,0.941319,-0.018906,0.003522,0.042187,-8.795204,373.663605,58.897247,,,,,,
1466451591.52,2.824186,-0.052523,-0.756079,-0.050499,2.308143,-0.045303,0.311674,0.052499,0.948738,0.012682,0.004813,0.026863,-8.795204,373.663605,58.897247,,,,,,
1466451591.53,2.847557,-0.052160,-0.755472,-0.053642,2.345313,-0.047668,0.289423,0.052136,0.955781,0.034918,-0.000577,0.016357,-11.485956,373.603668,58.814335,,,,,,
1466451591.54,2.871741,-0.051795,-0.754881,-0.051392,2.442995,-0.047214,0.266231,0.051772,0.962518,0.037511,0.001908,0.022864,-11.485956,373.603668,58.814335,,,,,,
1466451591.55,2.896209,-0.051426,-0.754263,-0.052456,2.436636,-0.051433,0.242607,0.051403,0.968762,0.083549,0.005878,0.010273,-11.485956,373.603668,58.814335,,,,,,
1466451591.57,2.944060,-0.050587,-0.753106,-0.054647,2.390974,-0.049020,0.196000,0.050565,0.979299,0.074127,0.011584,0.001795,-17.742071,373.455627,58.196735,,,,,,
1466451591.56,2.920153,-0.051013,-0.753682,-0.053601,2.381408,-0.045765,0.219348,0.050991,0.974313,0.070004,0.004902,-0.003686,-17.742071,373.455627,58.196735,,,,,,
1466451591.58,2.967459,-0.050135,-0.752574,-0.053701,2.304953,-0.043157,0.173037,0.050114,0.983640,0.113935,0.001491,0.002490,-17.742071,373.455627,58.196735,,,,,,
1466451591.59,2.988390,-0.049767,-0.752096,-0.041228,2.060733,-0.042677,0.152415,0.049746,0.987064,0.152227,-0.001742,-0.023029,-20.863625,373.375275,57.674461,,,,,,
1466451591.60,3.006686,-0.049431,-0.751668,-0.039497,1.751732,-0.035415,0.134333,0.049411,0.989704,0.169316,-0.002154,-0.044040,-20.863625,373.375275,57.674461,,,,,,
1466451591.61,3.022833,-0.049147,-0.751304,-0.031200,1.580769,-0.031142,0.118337,0.049127,0.991757,0.135111,0.002280,-0.047681,-20.863625,373.375275,57.674461,,,,,,
1466451591.62,3.037529,-0.048856,-0.750987,-0.032479,1.416179,-0.025853,0.103752,0.048837,0.993403,0.149269,0.009162,-0.032878,-25.935751,373.241547,56.469524,,,,,,
1466451591.63,3.049130,-0.048629,-0.750737,-0.025443,1.089130,-0.020601,0.092222,0.048609,0.994551,0.168917,0.017965,-0.065672,-25.935751,373.241547,56.469524,,,,,,
1466451591.64,3.057477,-0.048433,-0.750571,-0.020546,0.756768,-0.013190,0.083918,0.048414,0.995296,0.154760,0.001147,-0.064876,-25.935751,373.241547,56.469524,,,,,,
1466451591.65,3.063465,-0.048310,-0.750439,-0.012284,0.555019,-0.010852,0.077957,0.048291,0.995786,0.142013,-0.003812,-0.051344,-27.602829,373.195587,55.980968,,,,,,
1466451591.66,3.067613,-0.048266,-0.750351,-0.002937,0.368134,-0.008606,0.073826,0.048248,0.996103,0.130138,-0.009094,-0.038294,-27.602829,373.195587,55.980968,,,,,,
1466451591.67,3.062289,-0.048246,-0.750646,-0.001140,0.159993,-0.006219,0.079128,0.048228,0.995697,0.119557,0.018194,-0.063904,-28.503099,373.168884,55.707169,,,,,,
1466451591.68,3.054770,-0.049390,-0.751005,0.001764,-0.064103,0.000513,0.086608,0.049370,0.995018,0.111986,0.015801,-0.054787,-28.503099,373.168884,55.707169,,,,,,
1466451591.69,3.052545,-0.049407,-0.751048,0.001493,-0.275411,0.005031,0.088822,0.049387,0.994822,0.108734,0.013937,-0.054362,-28.503099,373.168884,55.707169,,,,,,
1466451591.70,3.042179,-0.049369,-0.751448,0.006550,-0.481447,0.010587,0.099129,0.049349,0.993850,0.098839,-0.002505,-0.031677,-27.704802,373.247040,55.586327,,,,,,
1466451591.71,3.036051,-0.049478,-0.751585,0.012721,-0.653465,0.012736,0.105217,0.049458,0.993219,0.092445,-0.011418,-0.031869,-27.704802,373.247040,55.586327,,,,,,
1466451591.72,3.028359,-0.049651,-0.751751,0.019981,-0.805309,0.014760,0.112852,0.049631,0.992371,0.088304,-0.009164,-0.022813,-27.704802,373.247040,55.586327,,,,,,
1466451591.73,3.018967,-0.049875,-0.751951,0.025076,-0.984763,0.018020,0.122166,0.049855,0.991257,0.084316,-0.001545,-0.038864,-27.704802,373.247040,55.586327,,,,,,
1466451591.74,3.007439,-0.050148,-0.752208,0.030139,-1.188638,0.021432,0.133584,0.050127,0.989769,0.081535,0.013029,-0.042183,-25.513205,373.300934,56.269257,,,,,,
1466451591.75,2.994319,-0.050410,-0.752497,0.030998,-1.347918,0.025625,0.146555,0.050388,0.987918,0.057043,0.003292,-0.026218,-25.513205,373.300934,56.269257,,,,,,
1466451591.76,2.979982,-0.050677,-0.752825,0.030865,-1.450918,0.028400,0.160702,0.050655,0.985702,0.039356,0.002766,-0.007904,-23.947987,373.346588,56.653019,,,,,,
1466451591.77,2.965277,-0.050957,-0.753174,0.034030,-1.474279,0.028550,0.175176,0.050935,0.983219,0.050135,-0.003435,-0.000827,-23.947987,373.346588,56.653019,,,,,,
1466451591.78,2.949120,-0.051310,-0.753564,0.038184,-1.559227,0.028022,0.191035,0.051287,0.980242,0.059392,0.002485,-0.015994,-23.947987,373.346588,56.653019,,,,,,
1466451591.79,2.932299,-0.051651,-0.753955,0.041168,-1.720635,0.033295,0.207492,0.051628,0.976873,0.025494,0.012215,-0.022940,-22.082176,373.396820,57.078220,,,,,,
1466451591.80,2.914564,-0.051974,-0.754379,0.038978,-1.767356,0.034651,0.224779,0.051950,0.973024,0.002256,0.007757,0.013304,-22.082176,373.396820,57.078220,,,,,,
1466451591.81,2.897514,-0.052239,-0.754807,0.032691,-1.682414,0.036241,0.241333,0.052215,0.969037,-0.027252,0.005707,0.022220,-22.082176,373.396820,57.078220,,,,,,
1466451591.82,2.881478,-0.052491,-0.755209,0.034967,-1.570917,0.032350,0.256837,0.052467,0.965030,-0.036927,-0.005241,0.043851,-17.695959,373.514893,57.829315,,,,,,
,,,,,,,,,,,,,,,,29.719983,-95.399091,10.299459,-1.000000,-1.000000,1466451919.50
1466451591.83,2.866675,-0.052747,-0.755582,0.034063,-1.447739,0.028383,0.271090,0.052723,0.961109,-0.043337,-0.012027,0.038296,-17.695959,373.514893,57.829315,,,,,,
1466451591.84,2.853202,-0.053008,-0.755930,0.034238,-1.311822,0.025402,0.284011,0.052983,0.957356,-0.035323,-0.011540,0.040721,-17.695959,373.514893,57.829315,,,,,,
1466451591.85,2.840853,-0.053241,-0.756238,0.032233,-1.216253,0.022672,0.295807,0.053216,0.953764,-0.025894,-0.011697,0.029634,-15.680399,373.565155,58.085659,,,,,,
1466451591.86,2.829135,-0.053511,-0.756525,0.034449,-1.152537,0.019081,0.306958,0.053486,0.950219,-0.050778,-0.010502,0.033088,-15.680399,373.565155,58.085659,,,,,,
1466451591.87,2.818629,-0.053789,-0.756788,0.034641,-1.003876,0.014956,0.316919,0.053763,0.946927,-0.071131,-0.013770,0.053256,-15.680399,373.565155,58.085659,,,,,,
1466451591.88,2.810404,-0.054062,-0.756988,0.030703,-0.756459,0.008078,0.324692,0.054035,0.944275,-0.077164,-0.005451,0.052551,-12.572899,373.655670,58.258926,,,,,,
1466451591.89,2.805989,-0.054212,-0.757055,0.026748,-0.517538,0.004446,0.328856,0.054185,0.942824,-0.076704,-0.004838,0.048020,-12.572899,373.655670,58.258926,,,,,,
1466451591.90,2.802162,-0.054423,-0.757139,0.021655,-0.339144,0.000129,0.332457,0.054396,0.941548,-0.073226,0.001314,0.032390,-12.572899,373.655670,58.258926,,,,,,
1466451591.91,2.800073,-0.054597,-0.757188,0.016553,-0.163941,-0.002039,0.334420,0.054570,0.940843,-0.067925,0.000743,0.035552,-11.794407,373.685394,58.231045,,,,,,
1466451591.92,2.803914,-0.054726,-0.756965,0.011472,0.025093,-0.006424,0.330802,0.054698,0.942114,-0.060889,0.000233,0.034510,-11.794407,373.685394,58.231045,,,,,,
1466451591.93,2.805548,-0.054860,-0.756918,0.010643,0.207732,-0.010763,0.329259,0.054832,0.942646,-0.057744,-0.002525,0.035091,-11.794407,373.685394,58.231045,,,,,,
1466451591.94,2.812078,-0.055105,-0.756652,0.006593,0.372334,-0.012864,0.323093,0.055077,0.944763,-0.049534,0.002814,0.025665,-11.794407,373.685394,58.231045,,,,,,
1466451591.95,2.817041,-0.055168,-0.756512,-0.000652,0.536920,-0.014968,0.318398,0.055140,0.946352,-0.044427,0.009954,0.017897,-11.896557,373.714264,58.024521,,,,,,
1466451591.96,2.823622,-0.055182,-0.756334,-0.004706,0.696198,-0.018100,0.312164,0.055154,0.948426,-0.037796,0.016684,0.010238,-11.896557,373.714264,58.024521,,,,,,
1466451591.97,2.831733,-0.055125,-0.756123,-0.014106,0.843791,-0.017971,0.304462,0.055097,0.950930,-0.028232,0.022662,0.004576,-12.741524,373.717590,57.823505,,,,,,
1466451591.99,2.851217,-0.055152,-0.755608,-0.027744,1.005193,-0.018996,0.285877,0.055125,0.956680,0.015988,0.021597,-0.013992,-12.741524,373.717590,57.823505,,,,,,
1466451591.98,2.841244,-0.055358,-0.755869,-0.021422,0.951041,-0.019715,0.295400,0.055330,0.953770,-0.008489,0.020552,-0.001927,-12.741524,373.717590,57.823505,,,,,,
1466451592.00,2.861311,-0.054905,-0.755354,-0.030945,1.003065,-0.016857,0.276209,0.054877,0.959530,0.029363,0.015329,-0.015896,-15.028521,373.689117,57.457134,,,,,,
1466451592.02,2.880544,-0.054434,-0.754894,-0.034176,0.975456,-0.015623,0.257712,0.054407,0.964689,0.017862,0.002646,-0.001112,-15.028521,373.689117,57.457134,,,,,,
1466451592.01,2.870966,-0.054696,-0.755121,-0.030992,0.965901,-0.016624,0.266936,0.054669,0.962162,0.022722,0.007938,-0.015431,-15.028521,373.689117,57.457134,,,,,,
1466451592.03,2.890660,-0.054139,-0.754650,-0.034111,1.027484,-0.015949,0.247944,0.054112,0.967262,0.015270,-0.000950,0.006935,-16.288347,373.650879,57.362659,,,,,,
1466451592.04,2.901259,-0.053841,-0.754392,-0.034060,1.064653,-0.018311,0.237682,0.053815,0.969851,0.022435,-0.000729,0.000425,-16.288347,373.650879,57.362659,,,,,,
1466451592.05,2.911926,-0.053550,-0.754145,-0.035129,1.062527,-0.017234,0.227326,0.053524,0.972347,0.026626,-0.000744,0.001393,-16.288347,373.650879,57.362659,,,,,,
1466451592.06,2.922317,-0.053245,-0.753899,-0.034111,1.025363,-0.017000,0.217214,0.053220,0.974672,0.043925,0.000659,-0.009981,-18.877762,373.561798,57.148415,,,,,,
1466451592.08,2.937889,-0.052593,-0.753631,-0.027954,0.844832,-0.013733,0.202018,0.052569,0.977970,0.070519,-0.004168,-0.016254,-18.877762,373.561798,57.148415,,,,,,
1466451592.09,2.941512,-0.051730,-0.753668,-0.021750,0.701459,-0.010698,0.198483,0.051707,0.978739,0.078617,-0.013560,-0.018901,-18.877762,373.561798,57.148415,,,,,,
1466451592.07,2.931277,-0.052975,-0.753708,-0.028876,0.956336,-0.015498,0.208476,0.052950,0.976593,0.057912,-0.000017,-0.016251,-18.877762,373.561798,57.148415,,,,,,
1466451592.10,2.944082,-0.050765,-0.753708,-0.013455,0.527299,-0.008534,0.195976,0.050744,0.979295,0.086342,-0.022362,-0.015580,-20.597908,373.452759,57.266773,,,,,,
1466451592.11,2.943395,-0.049320,-0.753836,0.000123,0.318096,-0.008273,0.196663,0.049300,0.979231,0.092109,-0.030150,-0.017149,-20.597908,373.452759,57.266773,,,,,,
1466451592.12,2.940737,-0.047926,-0.754010,0.016877,0.099328,-0.004756,0.199278,0.047908,0.978771,0.089494,-0.032527,-0.010113,-20.467287,373.331573,58.097885,,,,,,
1466451592.14,2.937555,-0.048575,-0.754057,0.040858,-0.307351,-0.003246,0.202386,0.048556,0.978101,0.077964,-0.025683,-0.016462,-20.467287,373.331573,58.097885,,,,,,
1466451592.13,2.940137,-0.048193,-0.754015,0.029390,-0.110915,-0.003425,0.199863,0.048174,0.978639,0.088788,-0.032824,-0.012223,-20.467287,373.331573,58.097885,,,,,,
1466451592.15,2.933251,-0.049038,-0.754118,0.048114,-0.466623,-0.003304,0.206589,0.049019,0.977199,0.063934,-0.012748,-0.016308,-20.128880,373.277313,58.562756,,,,,,
1466451592.16,2.925756,-0.049697,-0.754319,0.053273,-0.592998,0.000687,0.213900,0.049677,0.975592,0.037366,0.002661,-0.018896,-20.128880,373.277313,58.562756,,,,,,
1466451592.17,2.919185,-0.050208,-0.754472,0.053166,-0.673704,0.004387,0.220300,0.050187,0.974140,0.016760,0.020034,-0.024845,-20.128880,373.277313,58.562756,,,,,,
1466451592.18,2.912334,-0.050542,-0.754610,0.029743,-0.675810,0.002248,0.226966,0.050520,0.972592,-0.004065,0.110826,-0.079693,-18.898771,373.398376,58.199772,,,,,,
1466451592.20,2.899861,-0.050962,-0.754914,-0.005346,-0.613190,0.017787,0.239073,0.050940,0.969664,-0.042281,0.104258,-0.150039,-18.898771,373.398376,58.199772,,,,,,
1466451592.19,2.906095,-0.050953,-0.754815,0.046853,-0.609999,0.006110,0.233024,0.050931,0.971136,0.012459,-0.026196,0.057489,-18.898771,373.398376,58.199772,,,,,,
1466451592.21,2.894982,-0.052461,-0.755072,0.012883,-0.521867,0.011911,0.243783,0.052437,0.968411,-0.014672,0.054420,0.024905,-18.076595,373.448151,58.141640,,,,,,
1466451592.22,2.890303,-0.052248,-0.755181,-0.013658,-0.440130,0.024145,0.248314,0.052225,0.967271,-0.045433,-0.022516,-0.043473,-18.076595,373.448151,58.141640,,,,,,
1466451592.24,2.884024,-0.051884,-0.755343,-0.029346,-0.209720,0.025878,0.254387,0.051860,0.965711,-0.066185,0.021916,-0.001645,-17.474773,373.534637,57.768982,,,,,,
1466451592.23,2.886583,-0.052323,-0.755248,-0.006063,-0.373161,-0.005007,0.251909,0.052299,0.966337,-0.000399,0.068505,0.023623,-17.474773,373.534637,57.768982,,,,,,
1466451592.25,2.882411,-0.054832,-0.755419,-0.035701,-0.216040,0.009946,0.255905,0.054805,0.965147,-0.026107,0.066045,-0.041807,-17.474773,373.534637,57.768982,,,,,,
1466451592.27,2.881471,-0.054127,-0.755432,-0.036402,0.060052,-0.000301,0.256822,0.054101,0.964943,-0.019456,0.055777,-0.047295,-17.474773,373.534637,57.768982,,,,,,
1466451592.26,2.881404,-0.054462,-0.755471,-0.030222,-0.073794,0.020769,0.256881,0.054435,0.964909,-0.044387,-0.077857,0.072521,-17.474773,373.534637,57.768982,,,,,,
1466451592.28,2.883064,-0.053728,-0.755437,-0.045912,0.147075,0.017239,0.255290,0.053702,0.965372,-0.049418,-0.011558,0.037924,-16.724300,373.631470,57.363480,,,,,,
1466451592.29,2.885235,-0.053388,-0.755334,-0.034191,0.130126,0.002455,0.253197,0.053362,0.965942,-0.013055,0.003523,0.032303,-16.724300,373.631470,57.363480,,,,,,
1466451592.30,2.886941,-0.052944,-0.755323,-0.047977,0.189568,0.011648,0.251556,0.052919,0.966395,-0.032973,0.012572,0.013555,-16.904928,373.590515,57.576832,,,,,,
1466451592.31,2.889343,-0.052666,-0.755292,-0.014878,0.250098,0.002786,0.249237,0.052642,0.967011,-0.008728,-0.101622,0.074508,-16.904928,373.590515,57.576832,,,,,,
1466451592.33,2.892865,-0.049431,-0.755189,0.031898,0.162013,-0.021099,0.245871,0.049411,0.968042,0.021234,-0.085055,0.098837,-17.089249,373.552002,57.771908,,,,,,
1466451592.32,2.891117,-0.052677,-0.755290,0.006312,0.154545,-0.004045,0.247521,0.052653,0.967451,-0.002449,-0.112742,0.064654,-17.089249,373.552002,57.771908,,,,,,
1466451592.34,2.895302,-0.049720,-0.755089,0.026711,0.280920,-0.015464,0.243507,0.049700,0.968625,-0.012656,0.001600,-0.031003,-17.089249,373.552002,57.771908,,,,,,
1466451592.35,2.898372,-0.049984,-0.754983,0.016072,0.289417,-0.014463,0.240529,0.049963,0.969355,0.004405,0.038523,0.004110,-17.089249,373.552002,57.771908,,,,,,
1466451592.36,2.900562,-0.050036,-0.754949,0.006356,0.201260,-0.002211,0.238405,0.050015,0.969877,-0.009477,0.047748,-0.068006,-100.173363,360.777344,-32.745457,,,,,,
1466451592.37,2.901944,-0.052605,-0.754945,-0.001038,0.238428,-0.004579,0.237033,0.052581,0.970078,0.009243,0.054368,-0.044388,-100.173363,360.777344,-32.745457,,,,,,
1466451592.38,2.904545,-0.052516,-0.754863,-0.013797,0.251179,-0.005736,0.234510,0.052492,0.970695,0.015398,0.019591,-0.001640,-100.293495,360.626190,-34.017944,,,,,,
1466451592.39,2.906162,-0.052372,-0.754819,-0.017161,0.125870,0.001433,0.232942,0.052348,0.971081,0.007308,0.055409,-0.044872,-100.293495,360.626190,-34.017944,,,,,,
1466451592.40,2.906778,-0.052119,-0.754838,-0.025789,0.048345,0.008297,0.232347,0.052096,0.971237,0.009657,0.036024,-0.035324,-100.293495,360.626190,-34.017944,,,,,,
1466451592.41,2.906182,-0.052127,-0.754892,-0.025777,0.056834,0.008245,0.232926,0.052104,0.971098,0.020416,0.006246,-0.022581,-100.293495,360.626190,-34.017944,,,,,,
1466451592.42,2.906250,-0.051971,-0.754915,-0.014156,-0.022795,0.004498,0.232862,0.051948,0.971121,0.027209,-0.043265,0.027948,-100.126747,360.648621,-34.270420,,,,,,
1466451592.43,2.905335,-0.051959,-0.754947,0.007041,-0.105618,0.001845,0.233750,0.051936,0.970909,0.028350,-0.072718,0.035500,-100.126747,360.648621,-34.270420,,,,,,
1466451592.44,2.904081,-0.052071,-0.754967,0.011288,-0.121535,-0.002309,0.234966,0.052047,0.970609,0.019032,-0.027175,-0.001127,-100.122200,360.663055,-34.131660,,,,,,
1466451592.45,2.902799,-0.051960,-0.754975,0.012346,-0.124725,-0.001223,0.236212,0.051937,0.970313,0.006494,-0.005489,0.017190,-100.122200,360.663055,-34.131660,,,,,,
1466451592.46,2.901125,-0.052036,-0.755000,0.008022,-0.176751,-0.000901,0.237835,0.052013,0.969912,-0.003185,0.032032,-0.033114,-100.122200,360.663055,-34.131660,,,,,,
1466451592.47,2.899285,-0.052071,-0.755061,0.004811,-0.179953,0.005502,0.239619,0.052048,0.969471,-0.010981,0.015640,-0.022388,-100.122200,360.663055,-34.131660,,,,,,
1466451592.48,2.897685,-0.052010,-0.755090,-0.007931,-0.155519,0.003207,0.241170,0.051986,0.969090,-0.013173,0.038575,-0.022053,-100.296700,360.666840,-33.574890,,,,,,
1466451592.49,2.897134,-0.051114,-0.755092,0.000634,-0.114112,0.004020,0.241715,0.051092,0.969001,-0.010896,-0.020376,0.029244,-100.296700,360.666840,-33.574890,,,,,,
1466451592.51,2.895796,-0.050988,-0.755105,-0.004557,-0.015350,-0.000862,0.243013,0.050966,0.968683,-0.003862,-0.018496,0.072073,-100.273926,360.723724,-33.027130,,,,,,
1466451592.50,2.896008,-0.050998,-0.755099,-0.013186,-0.097116,0.003900,0.242807,0.050976,0.968734,-0.022089,0.040088,-0.057098,-100.273926,360.723724,-33.027130,,,,,,
1466451592.52,2.895999,-0.050849,-0.755080,-0.007685,0.043042,0.001962,0.242818,0.050827,0.968739,-0.019948,0.003830,-0.021840,-100.273926,360.723724,-33.027130,,,,,,
1466451592.53,2.897075,-0.050905,-0.755025,-0.010903,0.021815,0.001027,0.241775,0.050883,0.968997,-0.018768,0.002141,-0.001224,-100.273926,360.723724,-33.027130,,,,,,
1466451592.54,2.897804,-0.050893,-0.755002,0.003015,0.081271,-0.000396,0.241068,0.050871,0.969174,-0.006297,-0.035612,0.052967,-100.273926,360.723724,-33.027130,,,,,,
1466451592.55,2.898592,-0.050900,-0.754966,-0.000175,0.079158,-0.003580,0.240304,0.050878,0.969363,-0.012780,0.000743,-0.014789,-100.281334,360.729462,-32.941883,,,,,,
1466451592.56,2.899097,-0.050981,-0.754963,0.009341,0.029243,-0.001128,0.239814,0.050959,0.969481,-0.012275,-0.026789,0.030413,-100.251259,360.724579,-33.086662,,,,,,
1466451592.57,2.899341,-0.051096,-0.754932,0.010421,0.031384,-0.007527,0.239576,0.051074,0.969533,-0.001096,0.000028,-0.002874,-100.251259,360.724579,-33.086662,,,,,,
1466451592.58,2.899847,-0.051146,-0.754920,0.002995,0.060044,-0.003457,0.239085,0.051124,0.969652,-0.011546,0.012475,-0.017397,-100.251259,360.724579,-33.086662,,,,,,
1466451592.59,2.900544,-0.051141,-0.754910,-0.002312,0.074909,-0.002491,0.238409,0.051119,0.969818,-0.006033,0.011320,-0.019394,-100.251259,360.724579,-33.086662,,,,,,
1466451592.60,2.901108,-0.051115,-0.754896,-0.003398,0.057921,-0.002385,0.237863,0.051093,0.969954,-0.004296,0.005472,-0.019972,-100.227112,360.705963,-33.361599,,,,,,
1466451592.61,2.901514,-0.051226,-0.754883,-0.005507,0.074907,-0.001429,0.237467,0.051203,0.970045,0.001974,0.002950,-0.018980,-100.227112,360.705963,-33.361599,,,,,,
1466451592.62,2.902163,-0.051153,-0.754878,-0.009793,0.062153,0.003969,0.236839,0.051131,0.970203,-0.003425,0.010484,-0.020557,-100.211563,360.698730,-33.486012,,,,,,
1466451592.63,2.902669,-0.051063,-0.754859,-0.009824,0.038790,0.005180,0.236349,0.051040,0.970327,0.005182,0.025193,0.001246,-100.211563,360.698730,-33.486012,,,,,,
1466451592.64,2.902941,-0.050979,-0.754833,-0.009846,0.014380,0.001075,0.236085,0.050957,0.970395,0.013594,0.008430,0.020678,-100.211563,360.698730,-33.486012,,,,,,
1466451592.65,2.902456,-0.050874,-0.754845,-0.005589,0.008013,-0.002074,0.236557,0.050852,0.970286,0.010681,-0.000879,-0.012950,-100.167122,360.705872,-33.542423,,,,,,
1466451592.66,2.902325,-0.050780,-0.754835,-0.009870,-0.011094,-0.003023,0.236686,0.050758,0.970259,0.003152,0.004631,-0.029113,-100.167122,360.705872,-33.542423,,,,,,
1466451592.67,2.902021,-0.050672,-0.754856,-0.011035,-0.031260,0.002439,0.236981,0.050651,0.970193,0.001819,-0.003303,-0.013619,-100.167122,360.705872,-33.542423,,,,,,
1466451592.68,2.901358,-0.050578,-0.754866,-0.010023,-0.071612,0.003757,0.237626,0.050556,0.970040,-0.002382,0.007885,-0.021905,-100.156601,360.727478,-33.340534,,,,,,
1466451592.69,2.900716,-0.049973,-0.754875,-0.000462,-0.088602,0.002809,0.238257,0.049952,0.969917,0.001032,-0.013957,0.023186,-100.156601,360.727478,-33.340534,,,,,,
1466451592.70,2.899930,-0.049970,-0.754892,0.001684,-0.076920,0.001673,0.239019,0.049949,0.969729,0.000529,-0.015617,0.017743,-100.156601,360.727478,-33.340534,,,,,,
1466451592.71,2.899212,-0.050025,-0.754917,0.007021,-0.068425,0.000561,0.239714,0.050004,0.969555,-0.003310,-0.020493,0.011173,-100.133141,360.768372,-32.966446,,,,,,
1466451592.72,2.898586,-0.050138,-0.754928,0.012362,-0.057804,-0.001629,0.240320,0.050117,0.969399,-0.010538,-0.017143,0.003578,-100.133141,360.768372,-32.966446,,,,,,
1466451592.73,2.898520,-0.050037,-0.754919,0.013430,-0.054617,-0.001648,0.240385,0.050016,0.969388,-0.014494,-0.006452,-0.002439,-100.133141,360.768372,-32.966446,,,,,,
1466451592.75,2.898795,-0.050931,-0.754904,0.004932,-0.035503,0.001416,0.240108,0.050909,0.969410,-0.021358,0.020975,-0.011433,-100.195259,360.768799,-32.772980,,,,,,
1466451592.74,2.898521,-0.050061,-0.754902,0.010246,-0.046118,-0.001705,0.240384,0.050041,0.969387,-0.012066,-0.002525,0.005894,-100.195259,360.768799,-32.772980,,,,,,
1466451592.76,2.899186,-0.051426,-0.754878,0.003942,0.017598,-0.002111,0.239723,0.051403,0.969480,-0.008216,0.012730,0.007937,-100.195259,360.768799,-32.772980,,,,,,
1466451592.77,2.900126,-0.051834,-0.754846,-0.001329,0.060072,-0.001318,0.238806,0.051811,0.969684,-0.012228,0.011925,-0.000415,-100.269241,360.717224,-33.112232,,,,,,
1466451592.78,2.901125,-0.051758,-0.754798,0.000843,0.088750,-0.004689,0.237838,0.051735,0.969926,-0.002044,-0.002311,0.007674,-100.269241,360.717224,-33.112232,,,,,,
1466451592.79,2.901922,-0.051828,-0.754747,0.005114,0.093003,-0.007905,0.237064,0.051805,0.970112,0.003063,0.000929,-0.007191,-100.323357,360.661133,-33.556496,,,,,,
1466451592.81,2.907299,-0.051336,-0.754384,-0.001845,0.474223,-0.019883,0.231850,0.051313,0.971397,-0.130150,0.002642,0.040276,-100.323357,360.661133,-33.556496,,,,,,
1466451592.80,2.903693,-0.051288,-0.754576,0.008380,0.135506,-0.018813,0.235352,0.051266,0.970557,-0.008134,-0.020336,0.039193,-100.323357,360.661133,-33.556496,,,,,,
1466451592.82,2.917800,-0.051153,-0.754040,-0.038101,1.265308,-0.033396,0.221639,0.051131,0.973787,-0.184011,0.006364,0.128187,-100.200928,360.648010,-34.059517,,,,,,
1466451592.83,2.935078,-0.050547,-0.753383,-0.082107,1.799475,-0.058079,0.204788,0.050526,0.977501,-0.024246,0.020596,0.118919,-100.200928,360.648010,-34.059517,,,,,,
1466451592.84,2.948752,-0.050103,-0.752776,-0.028675,1.127292,-0.041037,0.191407,0.050082,0.980232,0.240447,0.020856,-0.055641,-100.200928,360.648010,-34.059517,,,,,,
1466451592.85,2.952495,-0.050747,-0.752905,0.079682,0.148141,0.006726,0.187731,0.050725,0.980910,0.313520,-0.064061,-0.178710,-99.512894,360.602570,-36.472130,,,,,,
1466451592.87,2.944366,-0.050976,-0.753308,0.018179,-0.486810,0.019162,0.195696,0.050954,0.979340,-0.031709,0.030116,-0.023194,-99.512894,360.602570,-36.472130,,,,,,
1466451592.86,2.949352,-0.050889,-0.753111,-0.000907,-0.422033,0.019801,0.190812,0.050867,0.980308,0.144027,0.035803,-0.167640,-99.512894,360.602570,-36.472130,,,,,,
1466451592.88,2.943247,-0.050959,-0.753395,-0.007721,0.070676,0.006060,0.196791,0.050937,0.979121,-0.162902,0.037305,-0.009730,-99.226540,360.571869,-37.540810,,,,,,
1466451592.89,2.949660,-0.050769,-0.753252,-0.025927,0.809744,-0.014560,0.190511,0.050747,0.980373,-0.163915,-0.033841,0.208211,-99.226540,360.571869,-37.540810,,,,,,
1466451592.90,2.960842,-0.050625,-0.752981,-0.015869,1.173964,-0.026414,0.179538,0.050604,0.982449,-0.127200,-0.020269,0.107319,-99.226540,360.571869,-37.540810,,,,,,
1466451592.91,2.972875,-0.050410,-0.752678,-0.027539,1.205827,-0.027690,0.167705,0.050388,0.984549,-0.088420,-0.011036,0.005655,-99.226540,360.571869,-37.540810,,,,,,
1466451592.92,2.984952,-0.050231,-0.752362,-0.022214,1.204765,-0.028743,0.155804,0.050210,0.986511,-0.019787,-0.010598,0.022217,-98.306923,360.546906,-40.111603,,,,,,
1466451592.93,2.996795,-0.049934,-0.751946,-0.039275,1.167640,-0.039172,0.144113,0.049914,0.988302,0.055884,0.011900,0.001963,-98.306923,360.546906,-40.111603,,,,,,
1466451592.94,3.006717,-0.049586,-0.751394,-0.041695,0.908608,-0.054581,0.134302,0.049566,0.989700,0.155997,-0.015417,-0.013443,-98.306923,360.546906,-40.111603,,,,,,
1466451592.95,3.013336,-0.049597,-0.750951,0.011096,0.582559,-0.034387,0.127748,0.049576,0.990567,0.309401,0.000091,-0.045804,-97.556877,360.507507,-42.240181,,,,,,
1466451592.96,3.018109,-0.049920,-0.750883,0.031130,0.472042,-0.004934,0.123017,0.049899,0.991149,0.328582,0.010938,-0.030822,-97.556877,360.507507,-42.240181,,,,,,
1466451592.97,3.024675,-0.049966,-0.750849,-0.008993,0.738578,-0.007710,0.116506,0.049945,0.991933,0.132548,0.018139,0.018534,-97.556877,360.507507,-42.240181,,,,,,
1466451592.98,3.034617,-0.049652,-0.750623,-0.035167,1.076273,-0.020499,0.106640,0.049632,0.993058,-0.041928,0.031957,0.043624,-96.737732,360.406403,-44.903194,,,,,,
1466451592.99,3.046288,-0.049371,-0.750345,-0.031857,1.158048,-0.027395,0.095045,0.049351,0.994249,-0.092435,0.014675,0.033263,-96.737732,360.406403,-44.903194,,,,,,
1466451593.00,3.055729,-0.049096,-0.750053,-0.026917,0.850126,-0.026523,0.085655,0.049076,0.995115,-0.100212,0.003826,-0.056456,-95.906029,360.393860,-46.750229,,,,,,
1466451593.02,3.068114,-0.049024,-0.749533,-0.002673,0.651562,-0.027383,0.073324,0.049005,0.996103,-0.176611,-0.017526,-0.027064,-95.906029,360.393860,-46.750229,,,,,,
1466451593.01,3.061998,-0.049031,-0.749800,-0.003839,0.574045,-0.024769,0.079415,0.049011,0.995636,-0.135521,-0.010651,-0.074707,-95.906029,360.393860,-46.750229,,,,,,
1466451593.03,3.078179,-0.048934,-0.749197,-0.016925,1.161255,-0.038045,0.063296,0.048915,0.996795,-0.176867,-0.008616,0.037491,-95.346687,360.363159,-48.110863,,,,,,
1466451593.04,3.092770,-0.048460,-0.748808,-0.054884,1.476598,-0.028351,0.048746,0.048441,0.997636,0.023795,0.017187,0.113784,-95.346687,360.363159,-48.110863,,,,,,
1466451593.05,3.103375,-0.048272,-0.748819,-0.005661,0.872322,0.006356,0.038164,0.048253,0.998106,0.076658,-0.004964,-0.067716,-95.346687,360.363159,-48.110863,,,,,,
1466451593.06,3.107094,-0.048221,-0.749206,-0.007548,0.263828,0.039975,0.034452,0.048202,0.998243,0.022601,-0.025284,-0.146269,-95.346687,360.363159,-48.110863,,,,,,
1466451593.07,3.116089,-0.047494,-0.748488,-0.082495,1.331493,-0.154138,0.025472,0.047476,0.998548,0.083293,0.083292,-0.121808,-93.619919,360.315704,-51.722366,,,,,,
1466451593.08,3.124412,-0.047257,-0.748890,-0.055224,0.374414,-0.009730,0.017161,0.047239,0.998736,0.173986,-0.214689,0.562696,-93.619919,360.315704,-51.722366,,,,,,
1466451593.09,3.119885,-0.047751,-0.749272,0.110641,-0.571888,0.051721,0.021681,0.047733,0.998625,0.045793,0.197324,-0.776152,-93.619919,360.315704,-51.722366,,,,,,
1466451593.11,3.103956,-0.047892,-0.749595,0.070611,-1.058209,0.067505,0.037584,0.047874,0.998146,0.165877,-0.027244,0.093773,-92.585068,360.385803,-53.078766,,,,,,
1466451593.10,3.112844,-0.047380,-0.749296,-0.073729,-0.644109,0.092439,0.028712,0.047362,0.998465,0.313329,0.072923,0.113962,-92.585068,360.385803,-53.078766,,,,,,
1466451593.12,3.091171,-0.048262,-0.749687,0.022309,-1.407450,0.045165,0.050341,0.048243,0.997566,0.254026,0.076406,-0.049431,-92.585068,360.385803,-53.078766,,,,,,
1466451593.13,3.073491,-0.048632,-0.750187,0.080230,-1.883226,0.069495,0.067969,0.048612,0.996502,0.077417,-0.053770,-0.251294,-93.303673,360.407501,-51.653984,,,,,,
1466451593.14,3.053108,-0.049308,-0.750454,0.050363,-2.008363,0.019157,0.088261,0.049288,0.994877,0.106685,0.016798,-0.043873,-93.303673,360.407501,-51.653984,,,,,,
1466451593.15,3.032514,-0.049660,-0.750926,0.038497,-2.127285,0.022020,0.108729,0.049640,0.992831,0.062689,-0.062702,0.124646,-94.638054,360.420502,-49.071053,,,,,,
1466451593.17,2.984237,-0.050887,-0.752018,0.040162,-2.469236,0.042261,0.156504,0.050865,0.986367,0.072469,0.022102,0.017036,-94.638054,360.420502,-49.071053,,,,,,
1466451593.16,3.009235,-0.050499,-0.751532,0.103100,-2.389606,0.032245,0.131803,0.050477,0.989990,0.040392,0.014724,-0.149429,-94.638054,360.420502,-49.071053,,,,,,
1466451593.18,2.958650,-0.051642,-0.752697,0.085741,-2.625355,0.047544,0.181682,0.051619,0.982002,0.028859,-0.051055,0.114846,-98.107803,360.460632,-41.355400,,,,,,
1466451593.19,2.931338,-0.052351,-0.753335,0.078127,-2.759130,0.045182,0.208423,0.052327,0.976638,0.037640,0.004070,-0.040694,-98.107803,360.460632,-41.355400,,,,,,
1466451593.20,2.903726,-0.053009,-0.754032,0.094089,-2.739011,0.062103,0.235299,0.052984,0.970478,-0.020990,-0.062826,0.149243,-98.107803,360.460632,-41.355400,,,,,,
1466451593.21,2.876449,-0.053800,-0.754717,0.087741,-2.718812,0.054519,0.261669,0.053774,0.963658,-0.011929,-0.080232,0.053584,-98.107803,360.460632,-41.355400,,,,,,
1466451593.22,2.851082,-0.054718,-0.755308,0.109345,-2.510643,0.028752,0.286013,0.054691,0.956664,-0.046267,-0.001789,-0.001876,-101.320564,360.537689,-31.843098,,,,,,
1466451593.23,2.826755,-0.055667,-0.755908,0.119104,-2.378969,0.022614,0.309182,0.055639,0.949374,-0.069375,-0.041280,0.150297,-101.320564,360.537689,-31.843098,,,,,,
1466451593.24,2.803778,-0.056590,-0.756487,0.094765,-2.257914,0.022895,0.330896,0.056560,0.941971,-0.085855,0.016347,0.033157,-102.576309,360.536163,-27.550697,,,,,,
