timestamp,attitude_roll,attitude_pitch,attitude_yaw,rotation_rate_x,rotation_rate_y,rotation_rate_z,gravity_x,gravity_y,gravity_z,user_acc_x,user_acc_y,user_acc_z,magnetic_field_x,magnetic_field_y,magnetic_field_z,latitude(degree),longitude(degree),altitude(meter),speed(m/s),course(degree),timestamp
1467747076.52,2.485900,-0.265560,0.134917,-0.001375,-0.057859,0.002242,0.588335,0.262450,0.764841,-0.833437,-0.238738,-1.730783,19.691013,18.793217,-11.084455,,,,,,
,,,,,,,,,,,,,,,,29.719868,-95.399243,9.631352,-1.000000,-1.000000,1467747246.80
,,,,,,,,,,,,,,,,29.719972,-95.399112,9.658513,-1.000000,-1.000000,1467746963.08
,,,,,,,,,,,,,,,,29.719868,-95.399243,9.631352,-1.000000,-1.000000,1467747246.80
1467747076.54,2.471233,-0.275519,0.131315,-0.002375,-0.057949,0.002218,0.597836,0.272047,0.754044,-0.855923,-0.247678,-1.718796,19.295200,18.680803,-11.937714,,,,,,
1467747076.53,2.478539,-0.270448,0.133118,-0.001345,-0.060028,0.002244,0.593153,0.267163,0.759469,-0.843916,-0.244123,-1.724420,19.295200,18.680803,-11.937714,,,,,,
1467747076.55,2.463924,-0.280682,0.129422,0.000878,-0.039944,0.001032,0.602443,0.277011,0.748550,-0.858211,-0.251620,-1.709488,19.295200,18.680803,-11.937714,,,,,,
1467747076.56,2.456321,-0.285659,0.127392,0.000914,-0.038930,0.001014,0.607237,0.281790,0.742871,-0.855955,-0.259741,-1.707914,18.830339,18.561245,-12.832951,,,,,,
1467747076.57,2.448383,-0.290639,0.125286,-0.000273,-0.057914,0.000094,0.612210,0.286564,0.736940,-0.860821,-0.265232,-1.707673,18.830339,18.561245,-12.832951,,,,,,
1467747076.58,2.440174,-0.295537,0.123125,-0.003489,-0.089832,0.007731,0.617326,0.291253,0.730808,-0.876038,-0.275659,-1.709598,18.830339,18.561245,-12.832951,,,,,,
1467747076.59,2.431966,-0.300826,0.120892,0.003001,-0.047388,0.000009,0.622291,0.296309,0.724538,-0.868674,-0.269575,-1.677571,18.582724,18.488169,-13.291203,,,,,,
1467747076.60,2.423985,-0.306018,0.118569,0.001991,-0.029387,0.000948,0.627033,0.301264,0.718380,-0.880192,-0.280084,-1.687633,18.582724,18.488169,-13.291203,,,,,,
1467747076.61,2.415534,-0.311276,0.116157,0.000929,-0.058097,-0.001013,0.632022,0.306273,0.711860,-0.879931,-0.281920,-1.681419,18.582724,18.488169,-13.291203,,,,,,
1467747076.62,2.407224,-0.316788,0.113753,0.003104,-0.049651,-0.001076,0.636774,0.311516,0.705320,-0.894953,-0.287468,-1.667493,18.042065,18.319595,-14.235958,,,,,,
1467747076.63,2.399106,-0.322312,0.111300,0.001049,-0.019964,-0.002341,0.641305,0.316761,0.698849,-0.905786,-0.296482,-1.661755,18.042065,18.319595,-14.235958,,,,,,
,,,,,,,,,,,,,,,,29.721037,-95.400800,9.631352,-1.000000,-1.000000,1467747356.20
1467747076.64,2.391197,-0.327995,0.108741,0.005381,0.011836,-0.001484,0.645575,0.322145,0.692428,-0.907064,-0.298464,-1.651198,18.042065,18.319595,-14.235958,,,,,,
1467747076.65,2.383216,-0.333526,0.106041,0.003329,0.042582,-0.002756,0.649845,0.327377,0.685949,-0.905430,-0.306167,-1.649343,17.753681,18.227299,-14.709126,,,,,,
1467747076.66,2.375255,-0.339060,0.103197,0.005513,0.057393,-0.001794,0.654019,0.332601,0.679438,-0.905362,-0.311193,-1.644633,17.753681,18.227299,-14.709126,,,,,,
1467747076.67,2.366462,-0.344377,0.100186,0.001234,0.008504,-0.002569,0.658721,0.337610,0.672389,-0.901213,-0.317102,-1.652873,17.753681,18.227299,-14.709126,,,,,,
1467747076.68,2.357017,-0.349611,0.096981,0.003376,-0.010669,-0.000330,0.663784,0.342532,0.664878,-0.894787,-0.321414,-1.637885,17.176523,18.006737,-15.636833,,,,,,
1467747076.69,2.347132,-0.354962,0.093738,-0.000903,-0.060622,-0.001097,0.669007,0.347555,0.656990,-0.905533,-0.326208,-1.634758,17.176523,18.006737,-15.636833,,,,,,
1467747076.70,2.336647,-0.360088,0.090339,-0.001939,-0.069173,0.000007,0.674566,0.352357,0.648696,-0.905507,-0.334763,-1.626876,17.176523,18.006737,-15.636833,,,,,,
,,,,,,,,,,,,,,,,29.721393,-95.401273,9.631352,-1.000000,-1.000000,1467747356.21
1467747076.71,2.325043,-0.364912,0.086620,-0.003045,-0.137185,0.000421,0.680801,0.356867,0.639653,-0.887176,-0.335215,-1.629369,16.847179,17.874073,-16.139275,,,,,,
1467747076.72,2.311813,-0.369680,0.082807,-0.007437,-0.280580,0.000239,0.687940,0.361317,0.629435,-0.892820,-0.339252,-1.623423,16.847179,17.874073,-16.139275,,,,,,
1467747076.73,2.298921,-0.375229,0.079292,-0.008506,-0.313558,0.002561,0.694490,0.366485,0.619170,-0.943697,-0.346008,-1.593246,16.847179,17.874073,-16.139275,,,,,,
1467747076.74,2.286702,-0.381447,0.075908,-0.008435,-0.287073,0.003445,0.700271,0.372264,0.609131,-0.974868,-0.347163,-1.565704,16.029083,17.569792,-17.267223,,,,,,
1467747076.75,2.275293,-0.388104,0.072544,-0.004054,-0.221300,0.003022,0.705271,0.378434,0.599484,-0.993662,-0.349122,-1.544872,16.029083,17.569792,-17.267223,,,,,,
1467747076.76,2.273763,-0.388059,0.072566,-0.003940,-0.132106,0.001398,0.706201,0.378393,0.598414,-1.002206,-0.357427,-1.545970,16.029083,17.569792,-17.267223,,,,,,
1467747076.77,2.272936,-0.388068,0.072554,0.003591,-0.071584,-0.000039,0.706692,0.378401,0.597828,-0.993085,-0.349409,-1.542774,15.560545,17.426960,-17.831337,,,,,,
1467747076.78,2.272189,-0.388060,0.072556,-0.001738,-0.075829,-0.000017,0.707141,0.378393,0.597302,-0.980991,-0.363257,-1.565686,15.560545,17.426960,-17.831337,,,,,,
1467747076.79,2.271513,-0.388062,0.072537,0.002527,-0.069463,0.001011,0.707544,0.378395,0.596824,-0.961588,-0.350792,-1.556434,15.560545,17.426960,-17.831337,,,,,,
1467747076.80,2.270499,-0.388038,0.072548,-0.001786,-0.110874,0.002331,0.708156,0.378373,0.596111,-0.954647,-0.359498,-1.571865,15.493710,17.426804,-17.889593,,,,,,
1467747076.81,2.269024,-0.388013,0.072536,-0.001849,-0.160779,0.002644,0.709041,0.378350,0.595073,-0.955822,-0.351540,-1.569942,15.493710,17.426804,-17.889593,,,,,,
1467747076.82,2.267281,-0.387976,0.072529,-0.001867,-0.173523,0.003789,0.710089,0.378316,0.593845,-0.952230,-0.355473,-1.560092,15.449799,17.426771,-17.927561,,,,,,
1467747076.83,2.264969,-0.387903,0.072536,-0.006226,-0.252097,0.005341,0.711481,0.378248,0.592219,-0.967981,-0.355314,-1.574290,15.449799,17.426771,-17.927561,,,,,,
1467747076.84,2.262335,-0.387818,0.072547,-0.006242,-0.264839,0.005421,0.713063,0.378169,0.590363,-0.968480,-0.357402,-1.555756,15.449799,17.426771,-17.927561,,,,,,
1467747076.85,2.259390,-0.387731,0.072565,-0.008427,-0.309434,0.005699,0.714824,0.378089,0.588282,-0.974391,-0.357566,-1.560160,15.449799,17.426771,-17.927561,,,,,,
,,,,,,,,,,,,,,,,29.719949,-95.399103,9.603395,-1.000000,-1.000000,1467747356.42
1467747076.86,2.256145,-0.387623,0.072617,-0.010580,-0.327483,0.005810,0.716761,0.377989,0.585985,-0.977411,-0.357741,-1.552705,15.279673,17.427305,-18.072264,,,,,,
1467747076.87,2.252602,-0.387522,0.072639,-0.009569,-0.371018,0.006084,0.718862,0.377896,0.583466,-0.984090,-0.354367,-1.548828,15.279673,17.427305,-18.072264,,,,,,
1467747076.88,2.248430,-0.387370,0.072714,-0.014973,-0.431543,0.008587,0.721334,0.377755,0.580498,-0.995108,-0.356591,-1.554680,15.279673,17.427305,-18.072264,,,,,,
1467747076.89,2.243940,-0.387252,0.072760,-0.011805,-0.455961,0.006614,0.723969,0.377645,0.577281,-0.998871,-0.349951,-1.534724,15.158197,17.428871,-18.172771,,,,,,
1467747076.91,2.234541,-0.386985,0.072910,-0.013948,-0.468698,0.005628,0.729442,0.377398,0.570513,-1.033534,-0.351535,-1.518054,15.158197,17.428871,-18.172771,,,,,,
1467747076.90,2.239253,-0.387120,0.072832,-0.012895,-0.476134,0.006740,0.726705,0.377523,0.573912,-1.015310,-0.351156,-1.530791,15.158197,17.428871,-18.172771,,,,,,
1467747076.92,2.218436,-0.394565,0.068469,-0.009580,-0.420994,0.006378,0.736232,0.384407,0.556950,-1.054561,-0.358970,-1.499516,14.830343,17.434620,-18.435862,,,,,,
1467747076.93,2.214689,-0.394473,0.068501,-0.007371,-0.359408,0.004930,0.738342,0.384322,0.554209,-1.066681,-0.359938,-1.491236,14.830343,17.434620,-18.435862,,,,,,
1467747076.94,2.211632,-0.394388,0.068532,-0.007286,-0.290393,0.005562,0.740060,0.384243,0.551968,-1.077950,-0.359372,-1.483548,14.431406,17.340136,-18.837208,,,,,,
1467747076.95,2.209314,-0.394321,0.068554,-0.005057,-0.213939,0.002955,0.741357,0.384182,0.550267,-1.085077,-0.360607,-1.481572,14.431406,17.340136,-18.837208,,,,,,
1467747076.96,2.207760,-0.394287,0.068557,-0.000702,-0.137491,0.002480,0.742222,0.384150,0.549122,-1.085972,-0.360087,-1.479405,14.431406,17.340136,-18.837208,,,,,,
1467747076.97,2.206951,-0.394278,0.068551,-0.000604,-0.061038,0.000936,0.742669,0.384141,0.548523,-1.088769,-0.359666,-1.478119,14.331186,17.341242,-18.912550,,,,,,
1467747076.98,2.206875,-0.394273,0.068547,0.000549,0.009040,0.000498,0.742712,0.384137,0.548468,-1.086767,-0.359814,-1.479575,14.331186,17.341242,-18.912550,,,,,,
1467747076.99,2.207401,-0.394312,0.068506,0.005949,0.068501,-0.000934,0.742412,0.384173,0.548850,-1.084102,-0.357699,-1.479697,14.331186,17.341242,-18.912550,,,,,,
1467747077.00,2.208461,-0.394364,0.068460,0.007080,0.119470,-0.002317,0.741813,0.384221,0.549625,-1.076408,-0.359533,-1.484470,14.295910,17.340189,-18.940191,,,,,,
1467747077.01,2.209844,-0.394430,0.068409,0.007113,0.146015,-0.002483,0.741032,0.384282,0.550635,-1.065770,-0.355366,-1.489691,14.295910,17.340189,-18.940191,,,,,,
1467747077.02,2.211338,-0.394495,0.068359,0.007120,0.151324,-0.002517,0.740188,0.384342,0.551726,-1.057632,-0.358784,-1.495788,14.295910,17.340189,-18.940191,,,,,,
1467747077.03,2.212779,-0.394571,0.068295,0.009242,0.144952,-0.002475,0.739369,0.384412,0.552775,-1.046880,-0.357114,-1.501353,14.295910,17.340189,-18.940191,,,,,,
1467747077.04,2.214020,-0.394649,0.068234,0.009210,0.118410,-0.003373,0.738659,0.384484,0.553674,-1.035748,-0.359735,-1.506478,14.397527,17.335630,-18.867254,,,,,,
1467747077.05,2.214859,-0.394707,0.068178,0.007021,0.073810,-0.000966,0.738176,0.384538,0.554280,-1.028505,-0.360810,-1.514180,14.397527,17.335630,-18.867254,,,,,,
1467747077.06,2.215153,-0.394742,0.068141,0.002689,0.015413,-0.000604,0.738003,0.384570,0.554489,-1.022335,-0.361148,-1.519455,14.397527,17.335630,-18.867254,,,,,,
1467747077.07,2.214837,-0.394750,0.068134,0.000479,-0.048294,-0.000207,0.738175,0.384578,0.554254,-1.018296,-0.364528,-1.523004,14.436802,17.333107,-18.839539,,,,,,
1467747077.08,2.213853,-0.394716,0.068144,-0.002806,-0.117316,0.002352,0.738731,0.384546,0.553535,-1.016624,-0.365244,-1.523018,14.436802,17.333107,-18.839539,,,,,,
1467747077.09,2.212196,-0.394674,0.068156,-0.005017,-0.181026,0.003813,0.739660,0.384507,0.552320,-1.021886,-0.361940,-1.522229,14.436802,17.333107,-18.839539,,,,,,
1467747077.10,2.210054,-0.394606,0.068191,-0.006139,-0.226683,0.004099,0.740862,0.384445,0.550750,-1.030810,-0.361679,-1.513304,14.387416,17.332609,-18.877741,,,,,,
1467747077.11,2.207541,-0.394533,0.068230,-0.008310,-0.259598,0.004303,0.742266,0.384377,0.548903,-1.039950,-0.360238,-1.503691,14.387416,17.332609,-18.877741,,,,,,
1467747077.12,2.204812,-0.394446,0.068258,-0.008333,-0.276589,0.005474,0.743789,0.384297,0.546895,-1.049544,-0.360570,-1.498082,14.300108,17.334200,-18.942507,,,,,,
1467747077.13,2.202009,-0.394371,0.068289,-0.007275,-0.281899,0.005508,0.745342,0.384227,0.544826,-1.057643,-0.358470,-1.491924,14.300108,17.334200,-18.942507,,,,,,
1467747077.14,2.199181,-0.394285,0.068333,-0.008345,-0.286146,0.005534,0.746907,0.384149,0.542734,-1.063359,-0.360070,-1.488718,14.300108,17.334200,-18.942507,,,,,,
1467747077.15,2.196268,-0.394187,0.068368,-0.007294,-0.295705,0.006659,0.748515,0.384058,0.540579,-1.066447,-0.359933,-1.488180,14.300108,17.334200,-18.942507,,,,,,
1467747077.16,2.193174,-0.394084,0.068427,-0.010513,-0.316937,0.005725,0.750216,0.383962,0.538283,-1.068377,-0.358556,-1.487304,14.088229,17.337135,-19.097948,,,,,,
1467747077.17,2.172929,-0.403630,0.061909,-0.010465,-0.339332,0.004775,0.757903,0.392760,0.520886,-1.076263,-0.367567,-1.468487,14.088229,17.337135,-19.097948,,,,,,
1467747077.18,2.152275,-0.413119,0.055174,-0.010420,-0.361734,0.005953,0.765351,0.401468,0.503052,-1.085480,-0.375253,-1.449479,14.088229,17.337135,-19.097948,,,,,,
1467747077.19,2.130969,-0.422488,0.048167,-0.011461,-0.401124,0.007237,0.772674,0.410031,0.484613,-1.092422,-0.382687,-1.431009,13.611429,17.197372,-19.564392,,,,,,
1467747077.20,2.108827,-0.431650,0.040882,-0.013577,-0.452189,0.006465,0.779955,0.418370,0.465442,-1.097887,-0.390782,-1.412616,13.611429,17.197372,-19.564392,,,,,,
1467747077.21,2.085451,-0.440463,0.033237,-0.014659,-0.527680,0.006911,0.787381,0.426359,0.445252,-1.098599,-0.398344,-1.395524,13.611429,17.197372,-19.564392,,,,,,
1467747077.22,2.061666,-0.448440,0.025666,-0.017901,-0.621221,0.009599,0.794723,0.433560,0.424784,-1.105437,-0.407590,-1.379694,11.772354,16.566816,-21.230602,,,,,,
1467747077.23,2.039132,-0.455222,0.018942,-0.022199,-0.704126,0.010094,0.801450,0.439662,0.405432,-1.121763,-0.414760,-1.358527,11.772354,16.566816,-21.230602,,,,,,
1467747077.24,2.013575,-0.463032,0.011076,-0.021142,-0.767938,0.011535,0.808421,0.446663,0.383337,-1.133784,-0.422112,-1.329168,11.772354,16.566816,-21.230602,,,,,,
1467747077.25,1.994598,-0.467148,0.006419,-0.025464,-0.847637,0.015210,0.813868,0.450341,0.367168,-1.146021,-0.426248,-1.313991,10.791420,16.248974,-21.984138,,,,,,
1467747077.26,1.970757,-0.473390,-0.000145,-0.026550,-0.912489,0.015595,0.819784,0.455906,0.346561,-1.168401,-0.430912,-1.284168,10.791420,16.248974,-21.984138,,,,,,
1467747077.27,1.957266,-0.474817,-0.001852,-0.030827,-0.940116,0.015759,0.823781,0.457175,0.335224,-1.185720,-0.434119,-1.262364,9.826780,15.969483,-22.631748,,,,,,
1467747077.28,1.943175,-0.476370,-0.003687,-0.029790,-0.975183,0.017038,0.827760,0.458557,0.323325,-1.199632,-0.433853,-1.247611,9.826780,15.969483,-22.631748,,,,,,
1467747077.29,1.930036,-0.477222,-0.004802,-0.033059,-1.044215,0.017464,0.831571,0.459313,0.312284,-1.200467,-0.433907,-1.235944,9.826780,15.969483,-22.631748,,,,,,
1467747077.30,1.898526,-0.484956,-0.013922,-0.037381,-1.158997,0.018153,0.837608,0.466169,0.284778,-1.199654,-0.441007,-1.216587,8.371334,15.718448,-23.380274,,,,,,
1467747077.31,1.883828,-0.485263,-0.014553,-0.039710,-1.321468,0.021296,0.841567,0.466441,0.272393,-1.192657,-0.436594,-1.201669,8.371334,15.718448,-23.380274,,,,,,
1467747077.32,1.866774,-0.485657,-0.015398,-0.047375,-1.495619,0.024506,0.845914,0.466790,0.257948,-1.207257,-0.442361,-1.194822,8.371334,15.718448,-23.380274,,,,,,
1467747077.33,1.848806,-0.485787,-0.015802,-0.052914,-1.672947,0.025611,0.850354,0.466904,0.242692,-1.212338,-0.438004,-1.167130,7.312025,15.500109,-23.876078,,,,,,
1467747077.34,1.831015,-0.485372,-0.015271,-0.059519,-1.842838,0.028799,0.854724,0.466538,0.227575,-1.238619,-0.436188,-1.143286,7.312025,15.500109,-23.876078,,,,,,
1467747077.35,1.812045,-0.484919,-0.014681,-0.060723,-1.950085,0.031599,0.859092,0.466137,0.211372,-1.264655,-0.436840,-1.108634,7.312025,15.500109,-23.876078,,,,,,
1467747077.36,1.791530,-0.484435,-0.014035,-0.069481,-2.138026,0.034898,0.863467,0.465709,0.193753,-1.254809,-0.439571,-1.085462,5.587819,15.497410,-24.339119,,,,,,
1467747077.37,1.767953,-0.483900,-0.013258,-0.081634,-2.486297,0.039199,0.868039,0.465235,0.173392,-1.241421,-0.435664,-1.082679,5.587819,15.497410,-24.339119,,,,,,
1467747077.38,1.741117,-0.483292,-0.012340,-0.092679,-2.795291,0.046448,0.872658,0.464697,0.150086,-1.270927,-0.438726,-1.050354,5.587819,15.497410,-24.339119,,,,,,
1467747077.39,1.711847,-0.482647,-0.011356,-0.097239,-3.029956,0.051108,0.876973,0.464125,0.124525,-1.289540,-0.429976,-0.983579,4.504972,15.529239,-24.542496,,,,,,
1467747077.40,1.679965,-0.481985,-0.010256,-0.108259,-3.327255,0.052962,0.880802,0.463539,0.096540,-1.300220,-0.433083,-0.935468,4.504972,15.529239,-24.542496,,,,,,
1467747077.41,1.643922,-0.481381,-0.009100,-0.124713,-3.708445,0.058529,0.883988,0.463003,0.064757,-1.335160,-0.433645,-0.905639,4.504972,15.529239,-24.542496,,,,,,
1467747077.42,1.606496,-0.480730,-0.007829,-0.124844,-3.808264,0.062348,0.886093,0.462427,0.031647,-1.407745,-0.423837,-0.791596,4.504972,15.529239,-24.542496,,,,,,
1467747077.44,1.525898,-0.479384,-0.004770,-0.144742,-4.382707,0.072318,0.886385,0.461232,-0.039824,-1.391253,-0.413167,-0.677293,1.421059,15.622006,-24.853964,,,,,,
1467747077.43,1.567891,-0.480067,-0.006347,-0.131450,-3.977096,0.066594,0.886960,0.461838,-0.002577,-1.400586,-0.432267,-0.730196,1.421059,15.622006,-24.853964,,,,,,
1467747077.45,1.481154,-0.478738,-0.003017,-0.164228,-4.633291,0.077063,0.884013,0.460660,-0.079458,-1.413051,-0.428586,-0.621897,1.421059,15.622006,-24.853964,,,,,,
1467747077.46,1.431444,-0.478112,-0.001026,-0.172380,-5.187554,0.082660,0.879258,0.460104,-0.123326,-1.425111,-0.419332,-0.535014,-2.645847,15.757166,-24.667738,,,,,,
1467747077.48,1.323585,-0.477073,0.003380,-0.193259,-5.700403,0.089049,0.861336,0.459181,-0.217378,-1.437615,-0.406736,-0.276365,-2.645847,15.757166,-24.667738,,,,,,
1467747077.47,1.378652,-0.477543,0.001126,-0.173739,-5.410553,0.091509,0.871783,0.459598,-0.169601,-1.444445,-0.419910,-0.451890,-2.645847,15.757166,-24.667738,,,,,,
1467747077.49,1.264919,-0.476691,0.005811,-0.193725,-6.058254,0.099809,0.847276,0.458842,-0.267559,-1.483521,-0.420954,-0.238651,-5.172605,15.848840,-24.204226,,,,,,
1467747077.50,1.204090,-0.476458,0.008437,-0.218442,-6.248290,0.095653,0.829543,0.458634,-0.318610,-1.517791,-0.406770,-0.049279,-5.172605,15.848840,-24.204226,,,,,,
1467747077.51,1.142107,-0.476356,0.011003,-0.205734,-6.298210,0.099173,0.808257,0.458544,-0.369402,-1.594634,-0.395922,0.048434,-5.172605,15.848840,-24.204226,,,,,,
1467747077.52,1.084338,-0.476402,0.013539,-0.201764,-5.683422,0.093192,0.785562,0.458584,-0.415443,-1.820794,-0.388180,0.302528,-10.726093,16.065948,-22.149998,,,,,,
1467747077.53,1.037835,-0.476473,0.015551,-0.141606,-4.424128,0.075774,0.765372,0.458648,-0.451495,-1.998496,-0.399779,0.478381,-10.726093,16.065948,-22.149998,,,,,,
1467747077.54,1.002291,-0.476555,0.017063,-0.113663,-3.383548,0.059696,0.748813,0.458721,-0.478388,-2.028217,-0.368557,0.591684,-10.726093,16.065948,-22.149998,,,,,,
1467747077.55,0.973955,-0.476626,0.018236,-0.084359,-2.765261,0.047406,0.734931,0.458784,-0.499393,-1.954856,-0.391767,0.505390,-12.985337,16.165203,-20.829147,,,,,,
1467747077.56,0.948607,-0.476761,0.019278,-0.085126,-2.534838,0.041702,0.721988,0.458903,-0.517824,-1.838779,-0.375621,0.460557,-12.985337,16.165203,-20.829147,,,,,,
1467747077.57,0.925587,-0.476901,0.020244,-0.072016,-2.269393,0.040050,0.709826,0.459028,-0.534266,-1.811373,-0.397551,0.435893,-12.985337,16.165203,-20.829147,,,,,,
1467747077.58,0.905460,-0.477045,0.021031,-0.062068,-1.991183,0.029800,0.698877,0.459156,-0.548403,-1.755442,-0.378315,0.508563,-15.242961,16.267086,-19.152550,,,,,,
1467747077.59,0.886729,-0.477192,0.021785,-0.059810,-1.886071,0.031272,0.688431,0.459287,-0.561354,-1.727432,-0.396817,0.473586,-15.242961,16.267086,-19.152550,,,,,,
1467747077.60,0.868920,-0.477329,0.022476,-0.057550,-1.782016,0.030621,0.678277,0.459409,-0.573484,-1.709420,-0.380322,0.530256,-15.242961,16.267086,-19.152550,,,,,,
1467747077.61,0.852015,-0.477450,0.023158,-0.050024,-1.723620,0.030263,0.668444,0.459516,-0.584831,-1.660586,-0.407301,0.514320,-15.978197,16.300385,-18.514339,,,,,,
1467747077.62,0.833421,-0.477600,0.023885,-0.063104,-1.963584,0.032819,0.657404,0.459649,-0.597112,-1.578882,-0.388925,0.525533,-15.978197,16.300385,-18.514339,,,,,,
1467747077.63,0.812962,-0.477811,0.024760,-0.070737,-2.103744,0.035819,0.644980,0.459836,-0.610370,-1.591117,-0.412214,0.513705,-15.978197,16.300385,-18.514339,,,,,,
1467747077.64,0.791904,-0.478022,0.025555,-0.067611,-2.157898,0.036162,0.631916,0.460024,-0.623747,-1.553745,-0.380968,0.601042,-17.300529,16.364471,-17.224455,,,,,,
1467747077.65,0.770536,-0.478255,0.026450,-0.070838,-2.179141,0.039485,0.618370,0.460230,-0.637030,-1.576988,-0.404856,0.620077,-17.300529,16.364471,-17.224455,,,,,,
1467747077.66,0.748277,-0.478507,0.027267,-0.068863,-2.309732,0.036049,0.603960,0.460455,-0.650549,-1.499299,-0.404119,0.642325,-17.300529,16.364471,-17.224455,,,,,,
1467747077.68,0.695906,-0.479197,0.029302,-0.092019,-2.930898,0.048437,0.568873,0.461067,-0.681029,-1.376368,-0.409217,0.690047,-18.015726,16.400749,-16.438831,,,,,,
1467747077.67,0.723763,-0.478829,0.028259,-0.086231,-2.565632,0.042958,0.587733,0.460740,-0.665047,-1.424251,-0.391923,0.680169,-18.015726,16.400749,-16.438831,,,,,,
1467747077.69,0.663912,-0.479686,0.030564,-0.111741,-3.363063,0.058579,0.546658,0.461501,-0.698700,-1.354657,-0.401717,0.761994,-18.015726,16.400749,-16.438831,,,,,,
1467747077.70,0.628275,-0.480260,0.031924,-0.119628,-3.706027,0.062851,0.521261,0.462009,-0.717520,-1.291341,-0.405750,0.830389,-19.657345,16.488504,-14.335413,,,,,,
1467747077.72,0.544754,-0.481766,0.035029,-0.148545,-4.674404,0.078475,0.459224,0.463345,-0.757908,-1.160762,-0.404690,0.922734,-19.657345,16.488504,-14.335413,,,,,,
1467747077.71,0.589110,-0.480940,0.033442,-0.138222,-4.086167,0.073732,0.492592,0.462613,-0.737118,-1.198159,-0.394360,0.878094,-19.657345,16.488504,-14.335413,,,,,,
1467747077.73,0.494435,-0.482815,0.036880,-0.179083,-5.238232,0.091561,0.420291,0.464275,-0.779618,-1.098514,-0.399059,1.054414,-20.667160,16.549459,-12.758137,,,,,,
1467747077.75,0.380741,-0.485504,0.040752,-0.211100,-6.133339,0.105658,0.328666,0.466654,-0.821105,-0.970084,-0.403223,1.241500,-20.667160,16.549459,-12.758137,,,,,,
1467747077.74,0.439955,-0.484025,0.038751,-0.183846,-5.638532,0.095131,0.376975,0.465346,-0.800839,-1.023063,-0.408583,1.130520,-20.667160,16.549459,-12.758137,,,,,,
1467747077.76,0.317255,-0.487180,0.042749,-0.221202,-6.542137,0.111405,0.275665,0.468136,-0.839558,-0.866028,-0.407803,1.344517,-22.815170,16.701847,-8.018880,,,,,,
1467747077.77,0.249511,-0.489108,0.044811,-0.239855,-6.971117,0.121528,0.217978,0.469838,-0.855417,-0.728613,-0.404943,1.436349,-22.815170,16.701847,-8.018880,,,,,,
1467747077.78,0.176813,-0.491289,0.046753,-0.252242,-7.509445,0.124892,0.155089,0.471762,-0.867979,-0.591964,-0.413489,1.519789,-22.815170,16.701847,-8.018880,,,,,,
1467747077.79,0.097693,-0.493813,0.048749,-0.279699,-8.156107,0.142758,0.085885,0.473987,-0.876333,-0.428155,-0.409671,1.617407,-23.634333,16.784473,-4.846215,,,,,,
1467747077.80,0.012332,-0.496612,0.050576,-0.294319,-8.769834,0.150850,0.010842,0.476450,-0.879135,-0.265801,-0.431772,1.715637,-23.634333,16.784473,-4.846215,,,,,,
1467747077.81,-0.079627,-0.499814,0.052219,-0.318585,-9.436643,0.158202,-0.069813,0.479262,-0.874891,-0.147625,-0.415954,1.854642,-23.634333,16.784473,-4.846215,,,,,,
1467747077.82,-0.176736,-0.503379,0.053678,-0.343644,-9.862463,0.178943,-0.154009,0.482388,-0.862313,0.070925,-0.448910,1.917611,-23.796991,16.927635,3.308241,,,,,,
1467747077.83,-0.278954,-0.507132,0.054764,-0.343285,-10.425219,0.182473,-0.240695,0.485672,-0.840350,0.240024,-0.426910,2.051410,-23.796991,16.927635,3.308241,,,,,,
1467747077.84,-0.386920,-0.511281,0.055457,-0.382311,-10.970980,0.191179,-0.329084,0.489295,-0.807648,0.556867,-0.441596,1.996063,-23.796991,16.927635,3.308241,,,,,,
1467747077.85,-0.503099,-0.515644,0.055585,-0.395109,-11.820445,0.207138,-0.419453,0.493095,-0.762179,0.716587,-0.454444,2.146273,-22.590418,16.970221,8.091394,,,,,,
1467747077.86,-0.626025,-0.520410,0.055063,-0.432069,-12.411875,0.219326,-0.508361,0.497236,-0.703083,0.962889,-0.450452,2.121876,-22.590418,16.970221,8.091394,,,,,,
1467747077.87,-0.755368,-0.525165,0.053765,-0.444528,-13.018141,0.216729,-0.593172,0.501356,-0.629912,1.148760,-0.462232,2.226226,-22.590418,16.970221,8.091394,,,,,,
1467747077.89,-1.024883,-0.534578,0.048752,-0.465171,-13.335629,0.226151,-0.735415,0.509478,-0.446762,1.370761,-0.476595,2.225128,-16.174150,16.918642,17.774771,,,,,,
1467747077.88,-0.889676,-0.530044,0.051654,-0.465254,-13.381323,0.239211,-0.670270,0.505571,-0.543264,1.244687,-0.467653,2.189672,-16.174150,16.918642,17.774771,,,,,,
1467747077.90,-1.158173,-0.538651,0.045309,-0.446776,-13.098860,0.225749,-0.786358,0.512978,-0.344231,1.471996,-0.462563,2.042320,-16.174150,16.918642,17.774771,,,,,,
1467747077.91,-1.289838,-0.542226,0.041228,-0.448613,-12.877983,0.216910,-0.822977,0.516044,-0.237504,1.510721,-0.498969,1.940691,-10.814199,16.796940,21.556946,,,,,,
1467747077.92,-1.416912,-0.545259,0.036847,-0.427682,-12.315245,0.215531,-0.844890,0.518640,-0.131051,1.515208,-0.466897,1.745706,-10.814199,16.796940,21.556946,,,,,,
1467747077.93,-1.536291,-0.547605,0.032271,-0.399971,-11.473198,0.192182,-0.853266,0.520644,-0.029454,1.504297,-0.503051,1.580113,-10.814199,16.796940,21.556946,,,,,,
1467747077.94,-1.646297,-0.549368,0.027845,-0.366837,-10.529261,0.182037,-0.850425,0.522148,0.064330,1.425636,-0.473061,1.345659,1.122130,16.430098,24.342941,,,,,,
1467747077.95,-1.745092,-0.550549,0.023696,-0.321657,-9.349555,0.151266,-0.839325,0.523155,0.147790,1.385559,-0.496284,1.162269,1.122130,16.430098,24.342941,,,,,,
1467747077.96,-1.830716,-0.551315,0.020043,-0.280605,-8.035052,0.138805,-0.823224,0.523808,0.218924,1.299481,-0.472966,0.917947,6.105973,16.246267,23.718388,,,,,,
1467747077.97,-1.902536,-0.551725,0.016927,-0.226692,-6.684401,0.106970,-0.805189,0.524157,0.277363,1.262388,-0.494371,0.737941,6.105973,16.246267,23.718388,,,,,,
1467747077.98,-1.960469,-0.551924,0.014309,-0.190868,-5.293445,0.094024,-0.787682,0.524326,0.323479,1.163491,-0.477558,0.567726,6.105973,16.246267,23.718388,,,,,,
1467747077.99,-2.002799,-0.552017,0.012476,-0.123942,-3.749562,0.064184,-0.773243,0.524406,0.356502,1.145985,-0.491233,0.464711,9.717871,16.102966,22.584145,,,,,,
1467747078.01,-2.040793,-0.552061,0.010877,-0.019947,-0.681977,0.013115,-0.759123,0.524443,0.385606,1.089109,-0.497451,0.336730,9.717871,16.102966,22.584145,,,,,,
1467747078.00,-2.029776,-0.552040,0.011305,-0.076266,-2.261961,0.041064,-0.763335,0.524425,0.377224,1.080092,-0.482662,0.353321,9.717871,16.102966,22.584145,,,,,,
1467747078.02,-2.036121,-0.552088,0.011073,0.027764,0.831110,-0.011229,-0.760904,0.524466,0.382049,1.099633,-0.492255,0.286775,9.717871,16.102966,22.584145,,,,,,
1467747078.03,-2.016449,-0.552108,0.011986,0.082848,2.275184,-0.038326,-0.768262,0.524483,0.367002,1.124692,-0.495354,0.330111,12.712987,15.975832,21.140928,,,,,,
1467747078.04,-1.982315,-0.552118,0.013522,0.132561,3.688457,-0.060978,-0.780335,0.524491,0.340568,1.179871,-0.494371,0.389565,12.712987,15.975832,21.140928,,,,,,
1467747078.05,-1.934335,-0.552034,0.015699,0.178936,4.990236,-0.080805,-0.795812,0.524420,0.302765,1.247991,-0.489538,0.466461,12.201246,15.998981,21.423077,,,,,,
1467747078.06,-1.874225,-0.551815,0.018397,0.220882,6.157169,-0.099791,-0.812672,0.524234,0.254446,1.289327,-0.496997,0.609110,12.201246,15.998981,21.423077,,,,,,
1467747078.07,-1.802190,-0.551337,0.021590,0.257517,7.323061,-0.125162,-0.829122,0.523826,0.195353,1.373037,-0.489784,0.761526,12.201246,15.998981,21.423077,,,,,,
1467747078.08,-1.719204,-0.550560,0.025134,0.288648,8.364691,-0.138050,-0.842864,0.523165,0.126014,1.417510,-0.496691,0.940926,7.442948,16.200937,23.364893,,,,,,
1467747078.09,-1.626570,-0.549375,0.028997,0.324967,9.285294,-0.157626,-0.851525,0.522155,0.047542,1.479775,-0.484618,1.131703,7.442948,16.200937,23.364893,,,,,,
1467747078.10,-1.525691,-0.547735,0.033142,0.357885,10.055100,-0.167743,-0.852838,0.520755,-0.038494,1.503915,-0.498507,1.306606,7.442948,16.200937,23.364893,,,,,,
1467747078.11,-1.418235,-0.545596,0.037255,0.376753,10.655029,-0.178938,-0.844890,0.518928,-0.129907,1.549983,-0.489951,1.462228,3.302516,16.358704,24.192400,,,,,,
1467747078.12,-1.306924,-0.542950,0.041258,0.396360,10.995879,-0.188507,-0.826553,0.516664,-0.223312,1.557632,-0.492601,1.623260,3.302516,16.358704,24.192400,,,,,,
1467747078.13,-1.193787,-0.539935,0.044847,0.386965,11.148778,-0.187347,-0.797503,0.514080,-0.315770,1.535189,-0.479397,1.725240,3.302516,16.358704,24.192400,,,,,,
1467747078.14,-1.081111,-0.536601,0.048021,0.387931,11.070204,-0.186853,-0.758449,0.511218,-0.404241,1.482387,-0.483249,1.825399,-7.019959,16.705635,23.139317,,,,,,
1467747078.15,-0.971135,-0.533064,0.050638,0.368377,10.758047,-0.185979,-0.710988,0.508174,-0.486060,1.443929,-0.471050,1.838935,-7.019959,16.705635,23.139317,,,,,,
1467747078.16,-0.866858,-0.529462,0.052722,0.356974,10.170849,-0.172728,-0.657924,0.505069,-0.558606,1.297939,-0.478564,1.863630,-7.019959,16.705635,23.139317,,,,,,
1467747078.17,-0.769057,-0.525944,0.054212,0.328484,9.530590,-0.166612,-0.601467,0.502029,-0.621453,1.216717,-0.460510,1.849252,-7.019959,16.705635,23.139317,,,,,,
1467747078.18,-0.679449,-0.522590,0.055277,0.305038,8.684310,-0.148554,-0.544496,0.499127,-0.674090,1.084856,-0.472195,1.809191,-15.911425,16.926462,18.002989,,,,,,
1467747078.19,-0.600111,-0.519527,0.055856,0.265364,7.615090,-0.140824,-0.490220,0.496469,-0.716382,1.010773,-0.448298,1.709057,-15.911425,16.926462,18.002989,,,,,,
1467747078.20,-0.533169,-0.516935,0.056145,0.220105,6.367439,-0.112819,-0.441854,0.494218,-0.748675,0.857824,-0.471833,1.634188,-18.741125,16.972282,14.983255,,,,,,
1467747078.21,-0.478339,-0.514821,0.056221,0.181327,5.181389,-0.092646,-0.400641,0.492379,-0.772690,0.757040,-0.454003,1.581879,-18.741125,16.972282,14.983255,,,,,,
1467747078.22,-0.436080,-0.513175,0.056164,0.131776,3.897656,-0.070807,-0.367981,0.490945,-0.789660,0.643204,-0.458261,1.514727,-18.741125,16.972282,14.983255,,,,,,
1467747078.23,-0.406517,-0.512054,0.056063,0.090796,2.655329,-0.049218,-0.344697,0.489969,-0.800696,0.559113,-0.449716,1.469779,-20.452122,16.988073,12.526060,,,,,,
1467747078.24,-0.389205,-0.511375,0.055996,0.049822,1.420432,-0.026612,-0.330910,0.489377,-0.806851,0.517983,-0.450467,1.460721,-20.452122,16.988073,12.526060,,,,,,
1467747078.25,-0.384157,-0.511187,0.055943,0.004627,0.213146,-0.005248,-0.326868,0.489213,-0.808596,0.462106,-0.449006,1.429583,-20.452122,16.988073,12.526060,,,,,,
1467747078.26,-0.390410,-0.511434,0.055920,-0.032988,-0.897510,0.012325,-0.331872,0.489428,-0.806425,0.449075,-0.447314,1.465757,-21.567852,16.988361,10.488539,,,,,,
1467747078.27,-0.407425,-0.512072,0.055913,-0.069487,-1.965698,0.030697,-0.345420,0.489985,-0.800375,0.446723,-0.448786,1.464834,-21.567852,16.988361,10.488539,,,,,,
1467747078.28,-0.434846,-0.513134,0.055907,-0.106995,-2.992469,0.046679,-0.367016,0.490910,-0.790131,0.476559,-0.442296,1.501190,-21.567852,16.988361,10.488539,,,,,,
1467747078.29,-0.471896,-0.514583,0.055879,-0.140137,-3.928998,0.065293,-0.395708,0.492172,-0.775360,0.509431,-0.449753,1.533172,-21.312601,16.986277,11.001160,,,,,,
1467747078.30,-0.517578,-0.516387,0.055769,-0.172094,-4.776324,0.079091,-0.430262,0.493741,-0.755708,0.611140,-0.455396,1.577241,-21.312601,16.986277,11.001160,,,,,,
1467747078.31,-0.572795,-0.518523,0.055533,-0.199970,-5.757454,0.099054,-0.470741,0.495598,-0.729922,0.687507,-0.463372,1.583529,-21.312601,16.986277,11.001160,,,,,,
1467747078.32,-0.637339,-0.521025,0.055082,-0.237287,-6.632388,0.114084,-0.516100,0.497769,-0.697041,0.772158,-0.461576,1.628514,-19.158905,16.967348,14.451005,,,,,,
1467747078.33,-0.708895,-0.523748,0.054393,-0.253006,-7.268420,0.125508,-0.563730,0.500129,-0.657328,0.861078,-0.467948,1.690485,-19.158905,16.967348,14.451005,,,,,,
1467747078.34,-0.786459,-0.526614,0.053384,-0.276091,-7.838612,0.134384,-0.611952,0.502609,-0.610655,0.931074,-0.463791,1.712629,-19.158905,16.967348,14.451005,,,,,,
1467747078.35,-0.868126,-0.529565,0.052077,-0.283972,-8.169908,0.142840,-0.658593,0.505158,-0.557738,1.007836,-0.476502,1.733168,-16.985729,16.934280,16.985325,,,,,,
1467747078.36,-0.952351,-0.532459,0.050425,-0.293824,-8.386507,0.143124,-0.701984,0.507653,-0.499507,1.084354,-0.462289,1.733943,-16.985729,16.934280,16.985325,,,,,,
1467747078.37,-1.037443,-0.535265,0.048495,-0.290646,-8.399251,0.143207,-0.740667,0.510069,-0.437312,1.139608,-0.472655,1.696696,-16.985729,16.934280,16.985325,,,,,,
1467747078.38,-1.121958,-0.537877,0.046322,-0.289480,-8.321733,0.140594,-0.773736,0.512314,-0.372649,1.237481,-0.472840,1.642760,-10.537366,16.790287,21.698761,,,,,,
1467747078.39,-1.206109,-0.540349,0.043864,-0.290476,-8.260160,0.144464,-0.801134,0.514436,-0.305844,1.252443,-0.471528,1.543850,-10.537366,16.790287,21.698761,,,,,,
1467747078.40,-1.287311,-0.542555,0.041275,-0.277195,-7.865165,0.137742,-0.822210,0.516326,-0.239536,1.273657,-0.481444,1.492572,-6.744609,16.684483,23.236273,,,,,,
1467747078.41,-1.362812,-0.544438,0.038680,-0.254067,-7.264175,0.126545,-0.836984,0.517937,-0.176634,1.283318,-0.480156,1.417768,-6.744609,16.684483,23.236273,,,,,,
1467747078.42,-1.432412,-0.546003,0.036187,-0.233107,-6.697156,0.113430,-0.846437,0.519275,-0.117887,1.308458,-0.486194,1.291532,-6.744609,16.684483,23.236273,,,,,,
1467747078.43,-1.495700,-0.547294,0.033800,-0.207750,-6.016533,0.101735,-0.851529,0.520378,-0.064068,1.272656,-0.488808,1.194851,-6.744609,16.684483,23.236273,,,,,,
1467747078.44,-1.550524,-0.548329,0.031618,-0.185344,-5.139480,0.090935,-0.853222,0.521262,-0.017299,1.265743,-0.477240,1.091930,-6.744609,16.684483,23.236273,,,,,,
1467747078.45,-1.596409,-0.549124,0.029752,-0.152309,-4.279416,0.078123,-0.852702,0.521940,0.021844,1.245982,-0.477308,0.999213,0.149257,16.462406,24.346519,,,,,,
1467747078.46,-1.632939,-0.549764,0.028148,-0.124475,-3.318484,0.066802,-0.851002,0.522486,0.052952,1.213017,-0.458796,0.899548,0.149257,16.462406,24.346519,,,,,,
1467747078.47,-1.658783,-0.550272,0.026976,-0.090120,-2.250315,0.055879,-0.849085,0.522919,0.074902,1.198878,-0.466873,0.847904,2.576627,16.374866,24.269545,,,,,,
1467747078.48,-1.673877,-0.550642,0.026216,-0.050474,-1.216112,0.039852,-0.847665,0.523235,0.087689,1.213678,-0.474162,0.811634,2.576627,16.374866,24.269545,,,,,,
1467747078.49,-1.679016,-0.550871,0.025879,-0.018370,-0.258347,0.021104,-0.847084,0.523430,0.092031,1.224465,-0.492759,0.779200,4.071594,16.314993,24.104548,,,,,,
1467747078.50,-1.674439,-0.550948,0.025946,0.013731,0.695174,0.001318,-0.847456,0.523495,0.088149,1.238081,-0.499570,0.768434,4.071594,16.314993,24.104548,,,,,,
1467747078.51,-1.659944,-0.550856,0.026456,0.050106,1.662494,-0.017486,-0.848693,0.523417,0.075860,1.245681,-0.502100,0.805182,4.071594,16.314993,24.104548,,,,,,
1467747078.52,-1.636048,-0.550622,0.027347,0.082133,2.563975,-0.032687,-0.850386,0.523217,0.055568,1.252424,-0.488061,0.824788,4.071594,16.314993,24.104548,,,,,,
1467747078.53,-1.603172,-0.550263,0.028592,0.110926,3.441024,-0.043482,-0.851940,0.522911,0.027592,1.257397,-0.482933,0.871197,4.071594,16.314993,24.104548,,,,,,
1467747078.54,-1.561509,-0.549746,0.030157,0.139493,4.294990,-0.057259,-0.852621,0.522470,-0.007919,1.279394,-0.481470,0.940155,2.745154,16.348564,24.268801,,,,,,
1467747078.55,-1.511778,-0.549002,0.032022,0.171348,5.054198,-0.074762,-0.851561,0.521836,-0.050316,1.305372,-0.505326,1.045464,2.745154,16.348564,24.268801,,,,,,
1467747078.56,-1.455915,-0.548013,0.034081,0.185904,5.610600,-0.086752,-0.847935,0.520992,-0.097843,1.335438,-0.494518,1.099781,2.745154,16.348564,24.268801,,,,,,
1467747078.57,-1.394933,-0.546759,0.036305,0.213157,6.097986,-0.101491,-0.841039,0.519922,-0.149451,1.336736,-0.525750,1.228919,2.745154,16.348564,24.268801,,,,,,
1467747078.58,-1.329200,-0.545243,0.038554,0.223336,6.559888,-0.112893,-0.830170,0.518626,-0.204562,1.347092,-0.490229,1.290881,-2.271614,16.515339,24.204739,,,,,,
1467747078.59,-1.260827,-0.543496,0.040860,0.237429,6.758441,-0.115189,-0.815116,0.517131,-0.261076,1.342750,-0.518947,1.392119,-2.271614,16.515339,24.204739,,,,,,
1467747078.60,-1.191441,-0.541593,0.042996,0.239672,6.850814,-0.114701,-0.795967,0.515502,-0.317324,1.315956,-0.481231,1.400912,-2.271614,16.515339,24.204739,,,,,,
1467747078.61,-1.121285,-0.539503,0.045067,0.245086,6.917714,-0.118309,-0.772734,0.513710,-0.372807,1.290342,-0.497886,1.516850,-2.271614,16.515339,24.204739,,,,,,
1467747078.62,-1.051647,-0.537306,0.046953,0.246031,6.825331,-0.115600,-0.745898,0.511823,-0.426231,1.271045,-0.479734,1.551002,-8.680267,16.711050,22.565016,,,,,,
1467747078.63,-0.986077,-0.535133,0.048577,0.228363,6.326283,-0.109294,-0.717293,0.509955,-0.474801,1.258354,-0.486579,1.533410,-8.680267,16.711050,22.565016,,,,,,
1467747078.64,-0.926041,-0.533034,0.049931,0.214925,5.811295,-0.098627,-0.688367,0.508149,-0.517625,1.176312,-0.488999,1.544175,-8.680267,16.711050,22.565016,,,,,,
1467747078.65,-0.870285,-0.531015,0.051050,0.195284,5.428000,-0.098371,-0.659234,0.506409,-0.555842,1.099191,-0.463318,1.579813,-11.637894,16.792244,21.127378,,,,,,
1467747078.66,-0.819751,-0.529135,0.052002,0.182797,4.826997,-0.083970,-0.631011,0.504786,-0.589081,1.071181,-0.482753,1.556305,-11.637894,16.792244,21.127378,,,,,,
1467747078.67,-0.777428,-0.527570,0.052595,0.133842,4.006230,-0.072484,-0.606074,0.503436,-0.615814,0.999934,-0.440646,1.495056,-11.637894,16.792244,21.127378,,,,,,
1467747078.68,-0.742450,-0.526272,0.053080,0.118027,3.300106,-0.056363,-0.584610,0.502313,-0.637113,0.931534,-0.471399,1.505430,-15.772471,16.889904,18.158916,,,,,,
1467747078.69,-0.713904,-0.525216,0.053364,0.088498,2.684263,-0.048272,-0.566534,0.501400,-0.653940,0.879934,-0.447277,1.540338,-15.772471,16.889904,18.158916,,,,,,
1467747078.70,-0.692926,-0.524430,0.053613,0.066153,1.861351,-0.033553,-0.552944,0.500720,-0.665983,0.859584,-0.483645,1.486264,-15.772471,16.889904,18.158916,,,,,,
1467747078.71,-0.682063,-0.523997,0.053706,0.028607,0.808029,-0.015276,-0.545813,0.500345,-0.672118,0.893775,-0.467417,1.457701,-16.904352,16.910238,17.090137,,,,,,
1467747078.72,-0.682222,-0.523979,0.053707,-0.007919,-0.285636,0.001127,-0.545926,0.500329,-0.672038,0.874249,-0.482004,1.397258,-16.904352,16.910238,17.090137,,,,,,
1467747078.73,-0.691292,-0.524295,0.053633,-0.033418,-1.067151,0.020905,-0.551898,0.500603,-0.666938,0.801348,-0.463402,1.461585,-16.904352,16.910238,17.090137,,,,,,
1467747078.74,-0.706232,-0.524808,0.053490,-0.052232,-1.633089,0.026565,-0.561633,0.501047,-0.658423,0.789554,-0.467249,1.494620,-17.291090,16.917524,16.691364,,,,,,
1467747078.75,-0.727758,-0.525549,0.053281,-0.075459,-2.312651,0.038255,-0.575428,0.501688,-0.645904,0.800617,-0.468149,1.508071,-17.291090,16.917524,16.691364,,,,,,
1467747078.76,-0.755176,-0.526543,0.052961,-0.095303,-2.842502,0.049009,-0.592577,0.502548,-0.629523,0.792528,-0.464279,1.493704,-17.291090,16.917524,16.691364,,,,,,
1467747078.77,-0.786593,-0.527674,0.052525,-0.111737,-3.204580,0.055521,-0.611656,0.503525,-0.610196,0.818840,-0.444657,1.536237,-16.663853,16.907896,17.327007,,,,,,
1467747078.78,-0.822253,-0.528978,0.051962,-0.131481,-3.664334,0.059449,-0.632540,0.504652,-0.587554,0.869158,-0.458418,1.516616,-16.663853,16.907896,17.327007,,,,,,
1467747078.79,-0.862586,-0.530476,0.051263,-0.149077,-4.089084,0.075934,-0.655143,0.505944,-0.561078,0.891410,-0.458779,1.502240,-16.663853,16.907896,17.327007,,,,,,
1467747078.80,-0.906280,-0.532034,0.050367,-0.161159,-4.392739,0.072504,-0.678404,0.507287,-0.531439,0.958113,-0.461740,1.501364,-14.159254,16.856815,19.471760,,,,,,
1467747078.81,-0.951713,-0.533625,0.049417,-0.160256,-4.511679,0.079637,-0.701182,0.508658,-0.499610,0.960490,-0.481268,1.533561,-14.159254,16.856815,19.471760,,,,,,
1467747078.82,-0.997661,-0.535171,0.048356,-0.161367,-4.557321,0.074600,-0.722729,0.509988,-0.466449,1.018337,-0.477731,1.516330,-14.159254,16.856815,19.471760,,,,,,
1467747078.83,-1.045344,-0.536708,0.047239,-0.162709,-4.766517,0.083362,-0.743461,0.511309,-0.431077,1.081718,-0.493167,1.470048,-12.361606,16.812559,20.695765,,,,,,
1467747078.84,-1.094443,-0.538239,0.045990,-0.169206,-4.857820,0.080735,-0.763026,0.512624,-0.393709,1.119060,-0.491796,1.424944,-12.361606,16.812559,20.695765,,,,,,
1467747078.85,-1.143828,-0.539644,0.044717,-0.156435,-4.867373,0.077614,-0.780875,0.513831,-0.355264,1.173026,-0.504431,1.414697,-12.361606,16.812559,20.695765,,,,,,
1467747078.86,-1.191934,-0.540908,0.043465,-0.144502,-4.687941,0.078629,-0.796451,0.514915,-0.317062,1.165347,-0.507804,1.413528,-8.173456,16.703529,22.759016,,,,,,
1467747078.87,-1.236965,-0.542053,0.042186,-0.140888,-4.355595,0.075484,-0.809359,0.515896,-0.280695,1.168535,-0.450451,1.348123,-8.173456,16.703529,22.759016,,,,,,
1467747078.88,-1.278732,-0.543068,0.040987,-0.126617,-4.024299,0.065970,-0.819872,0.516765,-0.246504,1.181780,-0.486904,1.286436,-8.173456,16.703529,22.759016,,,,,,
1467747078.89,-1.316410,-0.543942,0.039813,-0.118633,-3.611244,0.057000,-0.828138,0.517513,-0.215332,1.212568,-0.483532,1.278046,-6.025831,16.646393,23.460030,,,,,,
1467747078.90,-1.350410,-0.544738,0.038717,-0.108594,-3.242812,0.057893,-0.834577,0.518194,-0.186966,1.197904,-0.458487,1.181778,-6.025831,16.646393,23.460030,,,,,,
1467747078.91,-1.379085,-0.545358,0.037775,-0.076967,-2.670472,0.038368,-0.839279,0.518724,-0.162900,1.188705,-0.485277,1.130643,-6.025831,16.646393,23.460030,,,,,,
1467747078.92,-1.402348,-0.545758,0.036957,-0.078425,-2.155462,0.022363,-0.842636,0.519066,-0.143299,1.256256,-0.492790,1.144977,-2.655272,16.548557,24.142927,,,,,,
1467747078.93,-1.419738,-0.545888,0.036640,-0.016933,-1.556566,-0.006878,-0.844934,0.519177,-0.128614,1.178964,-0.541623,1.090742,-2.655272,16.548557,24.142927,,,,,,
1467747078.94,-1.429669,-0.545749,0.036525,-0.002140,-0.807984,-0.017945,-0.846241,0.519058,-0.120227,1.226810,-0.562256,1.183444,-1.679867,16.524015,24.247084,,,,,,
1467747078.95,-1.434558,-0.545813,0.036508,-0.005941,-0.400323,0.006106,-0.846786,0.519113,-0.116084,1.151779,-0.429635,1.088359,-1.679867,16.524015,24.247084,,,,,,
1467747078.96,-1.434044,-0.545784,0.036579,0.018310,0.242085,-0.008543,-0.846741,0.519088,-0.116521,1.179718,-0.411804,0.952108,-1.679867,16.524015,24.247084,,,,,,
1467747078.97,-1.424663,-0.545498,0.037034,0.051400,1.130844,-0.031116,-0.845757,0.518844,-0.124481,1.204095,-0.485152,1.069885,-1.323514,16.521437,24.270901,,,,,,
1467747078.98,-1.408190,-0.544893,0.037937,0.091576,1.724422,-0.052894,-0.843902,0.518327,-0.138446,1.220092,-0.524995,1.145893,-1.323514,16.521437,24.270901,,,,,,
1467747078.99,-1.387605,-0.544182,0.038946,0.097376,2.099244,-0.058432,-0.841235,0.517719,-0.155854,1.225802,-0.530597,1.142213,-1.323514,16.521437,24.270901,,,,,,
1467747079.00,-1.362242,-0.543398,0.039975,0.105475,2.617394,-0.059545,-0.837409,0.517048,-0.177222,1.239188,-0.445744,1.067786,-2.450924,16.575142,24.146297,,,,,,
1467747079.01,-1.332935,-0.542607,0.041046,0.107982,2.928483,-0.055107,-0.832254,0.516370,-0.201781,1.269143,-0.426450,1.092696,-2.450924,16.575142,24.146297,,,,,,
1467747079.02,-1.301946,-0.541850,0.042134,0.106042,3.093040,-0.047625,-0.825979,0.515722,-0.227574,1.241110,-0.449651,1.194066,-2.450924,16.575142,24.146297,,,,,,
1467747079.03,-1.267934,-0.540957,0.043290,0.126713,3.426469,-0.061405,-0.818202,0.514957,-0.255668,1.229472,-0.501376,1.237021,-3.759070,16.621712,23.945232,,,,,,
1467747079.04,-1.231298,-0.539903,0.044500,0.132322,3.648391,-0.065984,-0.808799,0.514052,-0.285646,1.263145,-0.474410,1.248155,-3.759070,16.621712,23.945232,,,,,,
1467747079.05,-1.192828,-0.538763,0.045737,0.138934,3.820412,-0.071314,-0.797759,0.513074,-0.316757,1.209075,-0.490613,1.313675,-3.759070,16.621712,23.945232,,,,,,
1467747079.06,-1.153741,-0.537600,0.046938,0.143203,3.836322,-0.066087,-0.785316,0.512076,-0.347931,1.205193,-0.455161,1.325180,-7.045077,16.726374,23.116690,,,,,,
1467747079.07,-1.114941,-0.536448,0.047995,0.128292,3.834203,-0.065025,-0.771758,0.511086,-0.378391,1.165053,-0.467721,1.358433,-7.045077,16.726374,23.116690,,,,,,
1467747079.08,-1.076252,-0.535238,0.049095,0.138879,3.789596,-0.062605,-0.757089,0.510046,-0.408252,1.179544,-0.485388,1.420154,-8.816919,16.777615,22.462404,,,,,,
1467747079.09,-1.039986,-0.534066,0.050049,0.125708,3.475309,-0.060647,-0.742304,0.509038,-0.435736,1.195169,-0.492039,1.358878,-8.816919,16.777615,22.462404,,,,,,
1467747079.10,-1.008477,-0.532987,0.050852,0.111256,2.993249,-0.054445,-0.728672,0.508108,-0.459199,1.135547,-0.489096,1.374604,-8.816919,16.777615,22.462404,,,,,,
1467747079.11,-0.980476,-0.531987,0.051553,0.105560,2.701247,-0.049426,-0.715952,0.507247,-0.479701,1.120325,-0.473937,1.413341,-10.470963,16.824764,21.704201,,,,,,
1467747079.12,-0.955572,-0.531052,0.052161,0.091286,2.360410,-0.045174,-0.704171,0.506440,-0.497655,1.092080,-0.471940,1.391729,-10.470963,16.824764,21.704201,,,,,,
1467747079.13,-0.935555,-0.530273,0.052671,0.075715,1.840117,-0.035540,-0.694387,0.505768,-0.511884,1.042028,-0.475159,1.397885,-10.470963,16.824764,21.704201,,,,,,
1467747079.14,-0.920232,-0.529665,0.053056,0.060271,1.421756,-0.026545,-0.686707,0.505244,-0.522650,1.019440,-0.481242,1.435507,-10.470963,16.824764,21.704201,,,,,,
1467747079.15,-0.908282,-0.529142,0.053397,0.053463,1.090471,-0.022345,-0.680620,0.504793,-0.530980,1.012133,-0.477403,1.438482,-12.678056,16.886337,20.442715,,,,,,
1467747079.16,-0.900464,-0.528736,0.053683,0.039061,0.649818,-0.015338,-0.676609,0.504443,-0.536412,1.001240,-0.469607,1.414311,-12.678056,16.886337,20.442715,,,,,,
1467747079.17,-0.897402,-0.528503,0.053858,0.024623,0.182618,-0.007100,-0.675056,0.504241,-0.538555,0.992286,-0.469878,1.421840,-12.678056,16.886337,20.442715,,,,,,
1467747079.18,-0.898720,-0.528415,0.053900,0.003861,-0.239972,-0.003406,-0.675799,0.504165,-0.537692,0.919421,-0.458770,1.438404,-13.449205,16.914299,19.920124,,,,,,
1467747079.19,-0.902858,-0.528476,0.053907,-0.004930,-0.447037,0.004271,-0.677994,0.504218,-0.534872,0.897187,-0.446753,1.472479,-13.449205,16.914299,19.920124,,,,,,
1467747079.20,-0.908037,-0.528579,0.053872,-0.009315,-0.544727,0.007008,-0.680714,0.504307,-0.531321,0.906849,-0.448399,1.479671,-13.449205,16.914299,19.920124,,,,,,
1467747079.21,-0.915079,-0.528785,0.053776,-0.025556,-0.754964,0.011504,-0.684357,0.504484,-0.526452,0.901840,-0.435408,1.441750,-13.339752,16.915358,19.992693,,,,,,
1467747079.22,-0.924225,-0.529102,0.053573,-0.035383,-0.945031,0.015879,-0.689015,0.504758,-0.520074,0.915196,-0.447782,1.460336,-13.339752,16.915358,19.992693,,,,,,
1467747079.23,-0.934737,-0.529486,0.053315,-0.045125,-1.068201,0.018771,-0.694288,0.505090,-0.512688,0.925031,-0.447015,1.449898,-13.092781,16.912067,20.158054,,,,,,
1467747079.24,-0.946719,-0.529962,0.053006,-0.049588,-1.224295,0.024003,-0.700186,0.505500,-0.504192,0.938864,-0.459709,1.454616,-13.092781,16.912067,20.158054,,,,,,
1467747079.25,-0.960234,-0.530503,0.052638,-0.058290,-1.367640,0.027022,-0.706712,0.505967,-0.494526,0.972398,-0.467698,1.441853,-13.092781,16.912067,20.158054,,,,,,
1467747079.26,-0.975426,-0.531065,0.052271,-0.058528,-1.552403,0.031374,-0.713907,0.506452,-0.483573,1.006586,-0.478177,1.426246,-12.167177,16.885223,20.751751,,,,,,
1467747079.27,-0.992878,-0.531703,0.051804,-0.068400,-1.784930,0.031758,-0.721967,0.507002,-0.470864,1.026486,-0.489882,1.419290,-12.167177,16.885223,20.751751,,,,,,
1467747079.28,-1.012548,-0.532351,0.051332,-0.069722,-1.988798,0.034100,-0.730809,0.507561,-0.456399,1.032140,-0.489555,1.420740,-12.167177,16.885223,20.751751,,,,,,
1467747079.29,-1.033267,-0.533008,0.050863,-0.066618,-2.058882,0.035607,-0.739821,0.508127,-0.440989,1.046309,-0.484308,1.420100,-12.167177,16.885223,20.751751,,,,,,
1467747079.30,-1.054482,-0.533631,0.050424,-0.062438,-2.121530,0.036004,-0.748734,0.508663,-0.425040,1.091584,-0.493801,1.406272,-10.616866,16.843655,21.618498,,,,,,
1467747079.31,-1.077213,-0.534236,0.049946,-0.067966,-2.291404,0.032806,-0.757931,0.509184,-0.407766,1.118267,-0.487150,1.355291,-10.616866,16.843655,21.618498,,,,,,
1467747079.32,-1.101458,-0.534882,0.049417,-0.071333,-2.424137,0.036829,-0.767300,0.509739,-0.389123,1.116421,-0.478688,1.342187,-10.616866,16.843655,21.618498,,,,,,
1467747079.33,-1.125939,-0.535505,0.048842,-0.070234,-2.401830,0.033497,-0.776308,0.510276,-0.370088,1.111223,-0.474555,1.358109,-9.655260,16.822300,22.081039,,,,,,
1467747079.34,-1.149195,-0.536071,0.048316,-0.064731,-2.262731,0.030501,-0.784441,0.510762,-0.351817,1.112367,-0.464787,1.327693,-9.655260,16.822300,22.081039,,,,,,
1467747079.35,-1.170857,-0.536602,0.047793,-0.061322,-2.089662,0.030483,-0.791627,0.511219,-0.334638,1.099076,-0.469288,1.323026,-9.655260,16.822300,22.081039,,,,,,
1467747079.36,-1.190003,-0.537067,0.047341,-0.051395,-1.819960,0.025608,-0.797668,0.511618,-0.319332,1.124740,-0.460089,1.303188,-7.548882,16.773146,22.922958,,,,,,
1467747079.37,-1.206704,-0.537446,0.046947,-0.045789,-1.598040,0.022093,-0.802708,0.511944,-0.305898,1.139607,-0.456752,1.265050,-7.548882,16.773146,22.922958,,,,,,
1467747079.38,-1.221411,-0.537829,0.046526,-0.045541,-1.397365,0.022964,-0.806936,0.512273,-0.293993,1.133458,-0.462056,1.249727,-6.723669,16.753983,23.192293,,,,,,
1467747079.39,-1.233531,-0.538137,0.046200,-0.034540,-1.122352,0.016992,-0.810291,0.512537,-0.284139,1.157031,-0.469538,1.256154,-6.723669,16.753983,23.192293,,,,,,
1467747079.40,-1.242841,-0.538404,0.045898,-0.033134,-0.848411,0.016340,-0.812771,0.512766,-0.276539,1.145916,-0.473460,1.230244,-6.723669,16.753983,23.192293,,,,,,
1467747079.41,-1.249297,-0.538573,0.045704,-0.016781,-0.554282,0.008125,-0.814457,0.512912,-0.271259,1.144749,-0.473666,1.242694,-6.100708,16.737173,23.375937,,,,,,
1467747079.42,-1.251971,-0.538631,0.045656,-0.000326,-0.169914,0.004666,-0.815151,0.512962,-0.269070,1.138012,-0.484733,1.241284,-6.100708,16.737173,23.375937,,,,,,
1467747079.43,-1.251013,-0.538583,0.045722,0.007574,0.176247,-0.003884,-0.814917,0.512920,-0.269858,1.145529,-0.472209,1.235206,-6.100708,16.737173,23.375937,,,,,,
1467747079.44,-1.246757,-0.538455,0.045894,0.021820,0.496907,-0.006945,-0.813823,0.512810,-0.273345,1.142070,-0.470635,1.228317,-6.100708,16.737173,23.375937,,,,,,
1467747079.45,-1.239348,-0.538253,0.046125,0.025412,0.805905,-0.014202,-0.811873,0.512637,-0.279401,1.166243,-0.464755,1.239683,-5.691959,16.726419,23.486477,,,,,,
1467747079.46,-1.229330,-0.538013,0.046423,0.034214,1.034185,-0.014560,-0.809150,0.512431,-0.287562,1.179740,-0.473261,1.232295,-5.691959,16.726419,23.486477,,,,,,
1467747079.47,-1.217939,-0.537736,0.046724,0.032238,1.153114,-0.017437,-0.805955,0.512193,-0.296809,1.188142,-0.473695,1.232448,-5.691959,16.726419,23.486477,,,,,,
1467747079.48,-1.205329,-0.537431,0.047073,0.037722,1.280527,-0.018230,-0.802294,0.511931,-0.307004,1.173983,-0.475691,1.246319,-6.461884,16.748812,23.270311,,,,,,
1467747079.49,-1.191261,-0.537082,0.047441,0.047482,1.418563,-0.021215,-0.798062,0.511631,-0.318326,1.180798,-0.482486,1.266584,-6.461884,16.748812,23.270311,,,,,,
1467747079.50,-1.176246,-0.536661,0.047893,0.053965,1.487589,-0.025899,-0.793391,0.511270,-0.330355,1.171305,-0.488580,1.282595,-6.461884,16.748812,23.270311,,,,,,
1467747079.51,-1.160692,-0.536188,0.048362,0.058304,1.545994,-0.029455,-0.788379,0.510863,-0.342751,1.150332,-0.492934,1.306435,-7.078210,16.764912,23.078623,,,,,,
1467747079.52,-1.144088,-0.535661,0.048880,0.062721,1.670226,-0.031294,-0.782824,0.510410,-0.355905,1.137789,-0.481357,1.323572,-7.078210,16.764912,23.078623,,,,,,
1467747079.53,-1.126427,-0.535061,0.049463,0.072399,1.741371,-0.034924,-0.776693,0.509893,-0.369806,1.158178,-0.483572,1.329233,-7.777970,16.785709,22.837015,,,,,,
1467747079.54,-1.109366,-0.534450,0.050005,0.066961,1.650059,-0.034357,-0.770550,0.509368,-0.383142,1.144878,-0.482085,1.317575,-7.777970,16.785709,22.837015,,,,,,
1467747079.55,-1.093497,-0.533846,0.050561,0.067877,1.533257,-0.032559,-0.764646,0.508848,-0.395462,1.150877,-0.479963,1.330307,-7.777970,16.785709,22.837015,,,,,,
1467747079.56,-1.078891,-0.533299,0.051065,0.062188,1.393321,-0.026305,-0.759034,0.508377,-0.406719,1.162140,-0.476029,1.323727,-9.289211,16.835783,22.227303,,,,,,
1467747079.57,-1.066678,-0.532816,0.051487,0.052272,1.126814,-0.024643,-0.754225,0.507961,-0.416077,1.176619,-0.467937,1.299363,-9.289211,16.835783,22.227303,,,,,,
1467747079.58,-1.057740,-0.532445,0.051810,0.041192,0.792334,-0.016170,-0.750640,0.507641,-0.422895,1.166183,-0.479092,1.311704,-9.289211,16.835783,22.227303,,,,,,
1467747079.59,-1.051883,-0.532180,0.052004,0.023801,0.510962,-0.013358,-0.748267,0.507413,-0.427350,1.153678,-0.470105,1.303571,-9.289211,16.835783,22.227303,,,,,,
1467747079.60,-1.048521,-0.531964,0.052169,0.022426,0.264621,-0.010750,-0.746921,0.507227,-0.429918,1.152301,-0.467523,1.311159,-10.203882,16.868868,21.796976,,,,,,
1467747079.61,-1.047837,-0.531854,0.052257,0.008225,-0.013579,-0.003697,-0.746675,0.507132,-0.430457,1.139284,-0.465353,1.325873,-10.203882,16.868868,21.796976,,,,,,
1467747079.62,-1.050210,-0.531881,0.052210,-0.007042,-0.292840,0.003361,-0.747683,0.507155,-0.428677,1.100466,-0.467009,1.323238,-10.203882,16.868868,21.796976,,,,,,
1467747079.63,-1.054088,-0.531976,0.052120,-0.013581,-0.409641,0.006216,-0.749297,0.507237,-0.425751,1.109390,-0.458028,1.342133,-10.292145,16.874718,21.750904,,,,,,
1467747079.64,-1.059301,-0.532130,0.052003,-0.015906,-0.558304,0.011404,-0.751439,0.507370,-0.421800,1.112950,-0.468872,1.343126,-10.292145,16.874718,21.750904,,,,,,
1467747079.65,-1.066441,-0.532350,0.051826,-0.026796,-0.750488,0.013663,-0.754333,0.507560,-0.416370,1.111969,-0.463752,1.325397,-10.292145,16.874718,21.750904,,,,,,
1467747079.66,-1.075288,-0.532631,0.051591,-0.033385,-0.908696,0.015713,-0.757862,0.507802,-0.409613,1.121662,-0.462453,1.321615,-9.886219,16.864838,21.945976,,,,,,
1467747079.67,-1.085398,-0.532966,0.051316,-0.036730,-1.025499,0.018571,-0.761814,0.508091,-0.401851,1.121906,-0.467502,1.328029,-9.886219,16.864838,21.945976,,,,,,
1467747079.68,-1.096284,-0.533328,0.050997,-0.043188,-1.079650,0.019969,-0.765980,0.508402,-0.393450,1.110798,-0.475870,1.337709,-9.468440,16.853094,22.138382,,,,,,
1467747079.69,-1.107411,-0.533695,0.050643,-0.041077,-1.097696,0.017955,-0.770143,0.508718,-0.384819,1.102998,-0.471212,1.333000,-9.468440,16.853094,22.138382,,,,,,
1467747079.70,-1.118401,-0.534047,0.050340,-0.039986,-1.073281,0.019932,-0.774165,0.509021,-0.376254,1.100398,-0.470080,1.330233,-9.468440,16.853094,22.138382,,,,,,
1467747079.71,-1.128760,-0.534394,0.050026,-0.038826,-0.998952,0.018402,-0.777861,0.509320,-0.368139,1.106123,-0.468868,1.324270,-8.979858,16.837770,22.352575,,,,,,
1467747079.73,-1.146751,-0.535008,0.049433,-0.036467,-0.817382,0.016202,-0.784073,0.509848,-0.353957,1.107895,-0.464590,1.307829,-8.979858,16.837770,22.352575,,,,,,
1467747079.72,-1.138212,-0.534700,0.049729,-0.034451,-0.909757,0.015718,-0.781164,0.509583,-0.360704,1.109350,-0.469742,1.318758,-8.979858,16.837770,22.352575,,,,,,
1467747079.74,-1.154193,-0.535302,0.049143,-0.034181,-0.691032,0.016476,-0.786548,0.510101,-0.348051,1.098193,-0.463928,1.304426,-8.979858,16.837770,22.352575,,,,,,
1467747079.75,-1.159596,-0.535541,0.048895,-0.027508,-0.468051,0.012955,-0.788305,0.510307,-0.343748,1.093893,-0.458167,1.307844,-8.094865,16.810181,22.708525,,,,,,
1467747079.76,-1.162740,-0.535734,0.048713,-0.020850,-0.254629,0.010559,-0.789292,0.510472,-0.341229,1.093415,-0.450993,1.303936,-8.094865,16.810181,22.708525,,,,,,
1467747079.77,-1.164060,-0.535942,0.048515,-0.023831,-0.079438,0.012650,-0.789644,0.510651,-0.340144,1.090517,-0.446030,1.288707,-8.094865,16.810181,22.708525,,,,,,
1467747079.78,-1.163482,-0.536154,0.048302,-0.025710,0.122302,0.012448,-0.789347,0.510834,-0.340557,1.093455,-0.442993,1.283184,-7.702138,16.789371,22.860012,,,,,,
1467747079.79,-1.160734,-0.536361,0.048096,-0.025441,0.337845,0.012161,-0.788312,0.511012,-0.342683,1.096295,-0.439921,1.289049,-7.702138,16.789371,22.860012,,,,,,
1467747079.80,-1.156202,-0.536592,0.047859,-0.028435,0.501358,0.013261,-0.786642,0.511210,-0.346205,1.100714,-0.433985,1.284300,-7.702138,16.789371,22.860012,,,,,,
1467747079.81,-1.150353,-0.536868,0.047559,-0.035726,0.631961,0.013499,-0.784475,0.511447,-0.350743,1.107855,-0.432239,1.280720,-7.778980,16.779884,22.840952,,,,,,
1467747079.82,-1.143298,-0.537151,0.047240,-0.036652,0.744510,0.013857,-0.781850,0.511690,-0.356208,1.122883,-0.454180,1.297218,-7.778980,16.779884,22.840952,,,,,,
1467747079.83,-1.136027,-0.537426,0.046917,-0.037729,0.729654,0.010756,-0.779112,0.511926,-0.361824,1.139799,-0.479013,1.317406,-7.778980,16.779884,22.840952,,,,,,
1467747079.84,-1.129643,-0.537681,0.046604,-0.033594,0.628783,0.010328,-0.776668,0.512146,-0.366734,1.142970,-0.518463,1.327824,-8.345511,16.753399,22.659704,,,,,,
1467747079.85,-1.123791,-0.537869,0.046343,-0.026172,0.595878,0.005219,-0.774421,0.512307,-0.371232,1.144126,-0.520593,1.330125,-8.345511,16.753399,22.659704,,,,,,
1467747079.86,-1.117926,-0.537955,0.046218,-0.009139,0.588446,0.002090,-0.772191,0.512381,-0.375748,1.145207,-0.535758,1.351196,-8.345511,16.753399,22.659704,,,,,,
1467747079.87,-1.112392,-0.537955,0.046154,-0.000674,0.539611,-0.001853,-0.770100,0.512381,-0.380016,1.140919,-0.527029,1.345760,-8.625654,16.740660,22.564009,,,,,,
1467747079.88,-1.107590,-0.537867,0.046225,0.010941,0.456793,-0.004516,-0.768307,0.512305,-0.383729,1.137753,-0.536277,1.344957,-8.625654,16.740660,22.564009,,,,,,
1467747079.89,-1.103590,-0.537740,0.046328,0.016165,0.373975,-0.006120,-0.766823,0.512197,-0.386829,1.138268,-0.513478,1.329273,-8.625654,16.740660,22.564009,,,,,,
1467747079.90,-1.100562,-0.537587,0.046481,0.018163,0.265676,-0.007568,-0.765719,0.512065,-0.389185,1.134264,-0.504481,1.325906,-9.081863,16.740597,22.384331,,,,,,
1467747079.91,-1.098740,-0.537492,0.046571,0.009489,0.147809,-0.002579,-0.765051,0.511984,-0.390601,1.129828,-0.468130,1.297949,-9.081863,16.740597,22.384331,,,,,,
1467747079.92,-1.098024,-0.537477,0.046608,0.000832,0.043745,0.002322,-0.764779,0.511970,-0.391153,1.135353,-0.463554,1.310495,-9.189637,16.746120,22.336163,,,,,,
1467747079.93,-1.098435,-0.537535,0.046548,-0.006768,-0.068811,0.006214,-0.764913,0.512020,-0.390825,1.127233,-0.460537,1.292344,-9.189637,16.746120,22.336163,,,,,,
1467747079.94,-1.100183,-0.537642,0.046479,-0.013321,-0.199410,0.007027,-0.765546,0.512112,-0.389462,1.129834,-0.483517,1.303860,-9.189637,16.746120,22.336163,,,,,,
1467747079.95,-1.102590,-0.537738,0.046390,-0.009110,-0.242937,0.004110,-0.766437,0.512195,-0.387596,1.134906,-0.486881,1.334160,-9.189637,16.746120,22.336163,,,,,,
1467747079.96,-1.105440,-0.537809,0.046367,-0.005988,-0.299217,0.005531,-0.767506,0.512256,-0.385394,1.122487,-0.513125,1.332354,-9.103175,16.741882,22.374710,,,,,,
1467747079.97,-1.109005,-0.537896,0.046318,-0.006074,-0.366113,0.007015,-0.768835,0.512330,-0.382636,1.107153,-0.483125,1.289526,-9.103175,16.741882,22.374710,,,,,,
1467747079.98,-1.112609,-0.537940,0.046285,-0.010296,-0.344861,0.001555,-0.770189,0.512368,-0.379852,1.119005,-0.487237,1.337402,-8.958374,16.740089,22.434418,,,,,,
1467747079.99,-1.115669,-0.538028,0.046237,-0.006000,-0.298173,0.011911,-0.771307,0.512444,-0.377474,1.099951,-0.471214,1.319155,-8.958374,16.740089,22.434418,,,,,,
1467747080.00,-1.118980,-0.538159,0.046103,-0.020944,-0.330016,0.011031,-0.772493,0.512556,-0.374888,1.101289,-0.444563,1.296962,-8.958374,16.740089,22.434418,,,,,,
1467747080.01,-1.122059,-0.538323,0.045986,-0.013438,-0.286489,0.011830,-0.773568,0.512696,-0.372472,1.103844,-0.471833,1.320210,-8.808125,16.738159,22.495268,,,,,,
1467747080.02,-1.124192,-0.538427,0.045851,-0.014357,-0.180291,0.004777,-0.774312,0.512786,-0.370798,1.115224,-0.473189,1.333902,-8.808125,16.738159,22.495268,,,,,,
1467747080.03,-1.125765,-0.538505,0.045772,-0.011119,-0.150553,0.001400,-0.774859,0.512853,-0.369562,1.098619,-0.480703,1.314524,-8.808125,16.738159,22.495268,,,,,,
1467747080.04,-1.127091,-0.538558,0.045720,-0.007877,-0.117630,-0.001997,-0.775323,0.512898,-0.368523,1.113565,-0.498204,1.342003,-8.581631,16.727594,22.590471,,,,,,
1467747080.05,-1.127772,-0.538614,0.045691,-0.000347,-0.049690,0.001843,-0.775548,0.512947,-0.367982,1.095433,-0.489159,1.293962,-8.581631,16.727594,22.590471,,,,,,
1467747080.06,-1.127734,-0.538621,0.045657,-0.006633,0.026772,-0.001837,-0.775531,0.512953,-0.368010,1.113177,-0.477873,1.332198,-8.581631,16.727594,22.590471,,,,,,
1467747080.07,-1.127198,-0.538630,0.045653,0.000852,0.055431,0.000120,-0.775329,0.512961,-0.368424,1.097534,-0.478827,1.313736,-8.536041,16.725718,22.609125,,,,,,
1467747080.08,-1.126470,-0.538610,0.045660,0.000892,0.081985,-0.003240,-0.775070,0.512943,-0.368992,1.114731,-0.499088,1.337422,-8.536041,16.725718,22.609125,,,,,,
1467747080.09,-1.125359,-0.538593,0.045710,0.008382,0.114891,-0.001310,-0.774667,0.512929,-0.369857,1.098673,-0.493031,1.303817,-8.536041,16.725718,22.609125,,,,,,
1467747080.10,-1.123927,-0.538519,0.045764,0.007369,0.151001,-0.004731,-0.774171,0.512865,-0.370982,1.119905,-0.482363,1.322810,-8.536041,16.725718,22.609125,,,,,,
