timestamp,attitude_roll,attitude_pitch,attitude_yaw,rotation_rate_x,rotation_rate_y,rotation_rate_z,gravity_x,gravity_y,gravity_z,user_acc_x,user_acc_y,user_acc_z,magnetic_field_x,magnetic_field_y,magnetic_field_z,latitude(degree),longitude(degree),altitude(meter),speed(m/s),course(degree),timestamp
1465825923.22,-0.155520,0.038234,-0.574478,0.001735,-0.043783,0.001443,-0.154781,-0.038225,-0.987209,0.018779,0.000963,0.000347,42.706589,43.043289,-18.205276,,,,,,
1465825923.23,-0.156083,0.038250,-0.574452,0.008015,-0.126610,0.004098,-0.155336,-0.038241,-0.987121,0.030138,0.003207,0.006195,42.706589,43.043289,-18.205276,,,,,,
1465825923.24,-0.157499,0.038326,-0.574408,0.014270,-0.234911,0.003719,-0.156734,-0.038316,-0.986897,0.040050,0.002153,-0.000545,42.713520,43.043907,-18.187538,,,,,,
1465825923.25,-0.160330,0.038466,-0.574317,0.021550,-0.364467,0.009861,-0.159526,-0.038457,-0.986444,0.031413,0.002645,0.002359,42.713520,43.043907,-18.187538,,,,,,
1465825923.26,-0.164255,0.038655,-0.574193,0.025689,-0.460028,0.010464,-0.163395,-0.038646,-0.985804,0.031910,0.002788,-0.001761,42.713520,43.043907,-18.187538,,,,,,
1465825923.27,-0.169076,0.038940,-0.574041,0.031999,-0.522677,0.010863,-0.168144,-0.038930,-0.984993,0.019767,0.000295,0.005639,42.562389,43.026276,-18.579357,,,,,,
1465825923.28,-0.174575,0.039212,-0.573869,0.032979,-0.586390,0.013393,-0.173557,-0.039202,-0.984043,0.016895,0.001528,-0.000332,42.562389,43.026276,-18.579357,,,,,,
1465825923.29,-0.180393,0.039523,-0.573670,0.035094,-0.594890,0.015577,-0.179276,-0.039512,-0.983005,0.017838,0.001320,0.008014,42.562389,43.026276,-18.579357,,,,,,
,,,,,,,,,,,,,,,,29.720793,-95.400292,10.633324,-1.000000,-1.000000,1465825923.22
,,,,,,,,,,,,,,,,29.719976,-95.399019,10.633324,-1.000000,-1.000000,1465825743.55
1465825923.30,-0.186006,0.039821,-0.573464,0.032988,-0.575776,0.015455,-0.184789,-0.039811,-0.981972,0.027471,0.001465,0.020363,42.378166,43.005360,-19.043095,,,,,,
1465825923.31,-0.191721,0.040124,-0.573243,0.037178,-0.627810,0.017914,-0.190395,-0.040113,-0.980888,0.044887,0.002561,0.015647,42.378166,43.005360,-19.043095,,,,,,
,,,,,,,,,,,,,,,,29.720793,-95.400292,10.633324,-1.000000,-1.000000,1465825923.23
1465825923.32,-0.199081,0.040579,-0.572925,0.057139,-0.834882,0.023491,-0.197606,-0.040568,-0.979442,0.087636,0.007456,0.031322,42.378166,43.005360,-19.043095,,,,,,
1465825923.33,-0.210777,0.041206,-0.572528,0.074663,-1.289351,0.029552,-0.209042,-0.041195,-0.977039,0.132108,0.010173,-0.027417,41.927685,42.947266,-20.139801,,,,,,
1465825923.34,-0.226915,0.042086,-0.571959,0.103942,-1.703490,0.039629,-0.224774,-0.042074,-0.973502,0.076229,0.005178,0.013038,41.927685,42.947266,-20.139801,,,,,,
1465825923.35,-0.245407,0.043033,-0.571253,0.110107,-1.869154,0.048126,-0.242726,-0.043020,-0.969141,0.062367,0.004781,0.004983,41.927685,42.947266,-20.139801,,,,,,
1465825923.36,-0.263991,0.044014,-0.570545,0.111204,-1.848972,0.044807,-0.260682,-0.044000,-0.964422,0.038758,0.004815,0.038594,41.377621,42.886398,-21.369568,,,,,,
1465825923.37,-0.282749,0.044935,-0.569830,0.106903,-1.886127,0.042907,-0.278715,-0.044920,-0.959323,-0.007814,-0.002580,-0.000669,41.377621,42.886398,-21.369568,,,,,,
1465825923.38,-0.301425,0.045859,-0.569093,0.110158,-1.834106,0.044713,-0.296569,-0.045843,-0.953911,-0.061356,-0.000590,-0.029122,41.377621,42.886398,-21.369568,,,,,,
1465825923.39,-0.317486,0.046652,-0.568402,0.089274,-1.513420,0.038423,-0.311840,-0.046635,-0.948990,-0.056370,-0.005596,0.031387,39.744190,42.713329,-24.576012,,,,,,
1465825923.40,-0.330306,0.047261,-0.567869,0.070503,-1.210776,0.029055,-0.323971,-0.047244,-0.944887,-0.062565,-0.002180,0.009096,39.744190,42.713329,-24.576012,,,,,,
1465825923.41,-0.341057,0.047784,-0.567415,0.061151,-1.032379,0.024733,-0.334102,-0.047766,-0.941326,-0.078648,-0.003595,-0.011357,39.744190,42.713329,-24.576012,,,,,,
,,,,,,,,,,,,,,,,29.721399,-95.401235,10.633324,-1.000000,-1.000000,1465825923.36
,,,,,,,,,,,,,,,,29.721500,-95.401392,10.633324,-1.000000,-1.000000,1465825923.37
1465825923.42,-0.350095,0.048199,-0.567040,0.048609,-0.851855,0.019331,-0.342589,-0.048181,-0.938249,-0.091066,-0.005515,-0.018690,39.049358,42.641525,-25.784821,,,,,,
1465825923.43,-0.356621,0.048505,-0.566763,0.034059,-0.574705,0.013320,-0.348700,-0.048486,-0.935980,-0.099482,-0.006034,-0.010462,39.049358,42.641525,-25.784821,,,,,,
1465825923.44,-0.359869,0.048658,-0.566631,0.013195,-0.241271,0.004822,-0.351735,-0.048639,-0.934835,-0.099650,-0.004752,0.001089,39.049358,42.641525,-25.784821,,,,,,
1465825923.46,-0.357873,0.048575,-0.566725,-0.015968,0.263123,-0.006886,-0.349869,-0.048556,-0.935539,-0.081649,-0.005415,-0.003670,38.300091,42.569073,-26.999756,,,,,,
1465825923.45,-0.360026,0.048674,-0.566623,-0.002396,0.052871,-0.002361,-0.351881,-0.048654,-0.934779,-0.090791,-0.006582,0.000789,38.300091,42.569073,-26.999756,,,,,,
1465825923.47,-0.354028,0.048397,-0.566884,-0.024283,0.422401,-0.008958,-0.346272,-0.048378,-0.936886,-0.078441,-0.003303,-0.010212,38.300091,42.569073,-26.999756,,,,,,
1465825923.48,-0.348432,0.048133,-0.567114,-0.036823,0.605049,-0.014374,-0.341029,-0.048115,-0.938821,-0.070149,-0.004223,-0.000343,38.300091,42.569073,-26.999756,,,,,,
1465825923.49,-0.341048,0.047789,-0.567444,-0.046175,0.778145,-0.021856,-0.334093,-0.047771,-0.941329,-0.070189,-0.006672,0.004027,38.594082,42.597107,-26.532862,,,,,,
1465825923.50,-0.331978,0.047359,-0.567802,-0.052357,0.948028,-0.019734,-0.325549,-0.047341,-0.944339,-0.063001,0.001030,0.004139,38.594082,42.597107,-26.532862,,,,,,
1465825923.51,-0.321387,0.046854,-0.568239,-0.066016,1.085022,-0.025929,-0.315536,-0.046837,-0.947757,-0.026169,-0.004875,0.022632,39.007622,42.637356,-25.854801,,,,,,
1465825923.52,-0.310455,0.046339,-0.568687,-0.060697,1.079713,-0.026955,-0.305164,-0.046323,-0.951172,0.001957,-0.002063,0.011628,39.007622,42.637356,-25.854801,,,,,,
,,,,,,,,,,,,,,,,29.719976,-95.399043,10.520350,-1.000000,-1.000000,1465825923.52
1465825923.53,-0.300551,0.045859,-0.569082,-0.056610,0.949098,-0.021874,-0.295736,-0.045843,-0.954169,0.019048,0.002264,0.006125,39.007622,42.637356,-25.854801,,,,,,
1465825923.54,-0.292258,0.045456,-0.569432,-0.046163,0.789822,-0.020864,-0.287818,-0.045440,-0.956606,0.028586,-0.000656,-0.003049,39.531345,42.689335,-24.958017,,,,,,
1465825923.55,-0.285222,0.045102,-0.569716,-0.039920,0.678321,-0.016965,-0.281084,-0.045087,-0.958623,0.028567,0.002286,0.012502,39.531345,42.689335,-24.958017,,,,,,
1465825923.56,-0.279106,0.044803,-0.569969,-0.035775,0.589124,-0.015337,-0.275220,-0.044788,-0.960338,0.038602,0.002384,0.016642,39.531345,42.689335,-24.958017,,,,,,
1465825923.57,-0.274091,0.044577,-0.570176,-0.024218,0.467008,-0.013496,-0.270403,-0.044562,-0.961715,0.040621,0.002936,0.013366,40.258301,42.765202,-23.630842,,,,,,
1465825923.58,-0.270508,0.044417,-0.570310,-0.016960,0.320461,-0.007247,-0.266958,-0.044402,-0.962685,0.041768,0.004744,0.011086,40.258301,42.765202,-23.630842,,,,,,
1465825923.59,-0.268388,0.044323,-0.570393,-0.009692,0.176046,-0.004205,-0.264917,-0.044308,-0.963253,0.043619,0.003842,0.005809,40.258301,42.765202,-23.630842,,,,,,
1465825923.60,-0.267645,0.044300,-0.570420,-0.001345,0.041190,-0.002287,-0.264202,-0.044286,-0.963450,0.044826,0.003209,0.012049,40.450020,42.785072,-23.264641,,,,,,
1465825923.61,-0.268260,0.044327,-0.570391,0.005926,-0.096859,0.002844,-0.264793,-0.044312,-0.963287,0.050850,0.003220,0.006515,40.450020,42.785072,-23.264641,,,,,,
1465825923.62,-0.270337,0.044449,-0.570298,0.016385,-0.242340,0.006960,-0.266793,-0.044435,-0.962729,0.049370,0.003678,0.007743,40.450020,42.785072,-23.264641,,,,,,
1465825923.63,-0.273797,0.044618,-0.570160,0.021533,-0.379321,0.009953,-0.270120,-0.044604,-0.961793,0.048608,0.004046,0.006288,40.454132,42.784138,-23.259190,,,,,,
1465825923.64,-0.278561,0.044865,-0.569970,0.032019,-0.504625,0.012879,-0.274696,-0.044849,-0.960485,0.045112,0.002262,0.008306,40.454132,42.784138,-23.259190,,,,,,
1465825923.65,-0.284432,0.045179,-0.569717,0.036139,-0.609755,0.016735,-0.280326,-0.045164,-0.958842,0.040748,0.003935,0.007578,40.454132,42.784138,-23.259190,,,,,,
1465825923.66,-0.291273,0.045519,-0.569409,0.043464,-0.707453,0.020549,-0.286874,-0.045504,-0.956887,0.049905,0.004397,0.012337,40.270435,42.764492,-23.611433,,,,,,
1465825923.67,-0.299305,0.045917,-0.569044,0.051810,-0.839130,0.024576,-0.294546,-0.045901,-0.954534,0.070012,0.004336,0.022161,40.270435,42.764492,-23.611433,,,,,,
1465825923.68,-0.309286,0.046395,-0.568592,0.063235,-1.061064,0.030237,-0.304051,-0.046378,-0.951526,0.097447,0.006324,0.023822,40.270435,42.764492,-23.611433,,,,,,
1465825923.69,-0.322400,0.047036,-0.568013,0.085161,-1.399802,0.036641,-0.316493,-0.047019,-0.947429,0.114330,0.007087,0.014552,39.563766,42.684387,-24.915075,,,,,,
1465825923.70,-0.339218,0.047836,-0.567287,0.103856,-1.768268,0.043229,-0.332369,-0.047818,-0.941936,0.108965,0.007092,0.004269,39.563766,42.684387,-24.915075,,,,,,
1465825923.71,-0.359075,0.048779,-0.566428,0.121608,-2.037990,0.050260,-0.350991,-0.048760,-0.935109,0.077950,0.003640,0.000096,39.563766,42.684387,-24.915075,,,,,,
1465825923.72,-0.380131,0.049775,-0.565487,0.127903,-2.110199,0.051784,-0.370582,-0.049754,-0.927466,0.057411,0.004054,0.017401,39.563766,42.684387,-24.915075,,,,,,
1465825923.73,-0.401396,0.050758,-0.564543,0.126821,-2.129302,0.048709,-0.390200,-0.050736,-0.919331,0.039889,0.002686,0.028325,37.774281,42.504040,-27.830196,,,,,,
1465825923.74,-0.422769,0.051726,-0.563575,0.127892,-2.120814,0.050786,-0.409739,-0.051703,-0.910737,-0.022222,0.000647,-0.010711,37.774281,42.504040,-27.830196,,,,,,
1465825923.75,-0.442597,0.052600,-0.562626,0.115373,-1.916938,0.048430,-0.427695,-0.052575,-0.902393,-0.042306,-0.001807,0.003650,36.596474,42.394108,-29.520294,,,,,,
1465825923.76,-0.459739,0.053322,-0.561781,0.097624,-1.641914,0.043495,-0.443083,-0.053297,-0.894895,-0.053438,-0.002276,0.024320,36.596474,42.394108,-29.520294,,,,,,
1465825923.77,-0.474585,0.053940,-0.561070,0.084062,-1.432708,0.033653,-0.456305,-0.053914,-0.888189,-0.064875,-0.005290,0.000646,36.596474,42.394108,-29.520294,,,,,,
1465825923.78,-0.487383,0.054459,-0.560436,0.072620,-1.219277,0.031239,-0.467621,-0.054432,-0.882252,-0.087738,-0.003201,-0.016460,36.596474,42.394108,-29.520294,,,,,,
1465825923.79,-0.497438,0.054873,-0.559947,0.053838,-0.927248,0.020873,-0.476457,-0.054845,-0.877485,-0.083403,-0.006052,0.004042,34.682358,42.218636,-31.980160,,,,,,
1465825923.80,-0.504671,0.055156,-0.559592,0.039283,-0.654346,0.014889,-0.482784,-0.055128,-0.874002,-0.099766,-0.003801,-0.002340,34.682358,42.218636,-31.980160,,,,,,
1465825923.81,-0.508960,0.055329,-0.559384,0.020511,-0.347464,0.008688,-0.486524,-0.055301,-0.871916,-0.107928,-0.007824,-0.013872,34.142712,42.171776,-32.616344,,,,,,
1465825923.82,-0.509964,0.055381,-0.559322,0.002835,-0.019340,0.000226,-0.487397,-0.055353,-0.871424,-0.098616,-0.006293,0.005701,34.142712,42.171776,-32.616344,,,,,,
1465825923.83,-0.508273,0.055316,-0.559394,-0.011759,0.222770,-0.005565,-0.485925,-0.055288,-0.872250,-0.084570,-0.004115,0.006207,34.142712,42.171776,-32.616344,,,,,,
1465825923.84,-0.504761,0.055189,-0.559569,-0.022192,0.390546,-0.008756,-0.482862,-0.055161,-0.873957,-0.082918,-0.004135,-0.006093,33.975368,42.156780,-32.809902,,,,,,
1465825923.85,-0.499562,0.054987,-0.559813,-0.032614,0.564695,-0.013052,-0.478317,-0.054959,-0.876466,-0.073197,-0.003284,-0.002807,33.975368,42.156780,-32.809902,,,,,,
1465825923.86,-0.492685,0.054730,-0.560134,-0.040928,0.723976,-0.016189,-0.472285,-0.054703,-0.879747,-0.053029,-0.002594,0.013505,33.975368,42.156780,-32.809902,,,,,,
1465825923.87,-0.484696,0.054415,-0.560515,-0.046136,0.813176,-0.018882,-0.465249,-0.054389,-0.883507,-0.032218,-0.001138,0.012688,34.518620,42.201607,-32.179169,,,,,,
1465825923.88,-0.476637,0.054096,-0.560900,-0.046161,0.793001,-0.018756,-0.458122,-0.054069,-0.887243,-0.002281,-0.000099,0.015570,34.518620,42.201607,-32.179169,,,,,,
1465825923.89,-0.469467,0.053793,-0.561255,-0.042039,0.685754,-0.017014,-0.451756,-0.053767,-0.890520,0.013371,0.001902,0.011064,34.518620,42.201607,-32.179169,,,,,,
1465825923.90,-0.463555,0.053547,-0.561527,-0.030495,0.556200,-0.012997,-0.446490,-0.053522,-0.893187,0.028811,0.002023,0.006163,40.885399,42.517811,-25.767210,,,,,,
1465825923.91,-0.458967,0.053368,-0.561760,-0.025338,0.423472,-0.012160,-0.442391,-0.053343,-0.895234,0.040154,0.004225,0.018037,40.885399,42.517811,-25.767210,,,,,,
1465825923.92,-0.455853,0.053243,-0.561938,-0.015949,0.270565,-0.010127,-0.439604,-0.053218,-0.896614,0.043913,0.002665,0.010276,41.204754,42.550205,-25.198757,,,,,,
1465825923.93,-0.454162,0.053181,-0.562021,-0.007607,0.141003,-0.002919,-0.438089,-0.053156,-0.897359,0.031870,0.003886,0.002415,41.204754,42.550205,-25.198757,,,,,,
1465825923.94,-0.453270,0.053160,-0.562054,-0.002366,0.076227,-0.001443,-0.437289,-0.053135,-0.897750,0.023990,0.002369,0.007277,41.387077,42.571201,-24.862259,,,,,,
1465825923.95,-0.452140,0.053085,-0.562100,-0.003464,0.051806,-0.000227,-0.436276,-0.053060,-0.898247,0.021527,0.002248,0.010796,41.387077,42.571201,-24.862259,,,,,,
1465825923.96,-0.451940,0.053061,-0.562107,-0.002459,0.006145,0.001125,-0.436097,-0.053036,-0.898335,0.025529,0.003674,0.014912,41.387077,42.571201,-24.862259,,,,,,
1465825923.97,-0.452641,0.053077,-0.562051,0.005922,-0.097924,0.004979,-0.436727,-0.053052,-0.898029,0.035329,0.002072,0.009219,41.387077,42.571201,-24.862259,,,,,,
1465825923.98,-0.454646,0.053147,-0.561942,0.014265,-0.235966,0.006918,-0.438524,-0.053122,-0.897148,0.042757,0.004538,0.009514,41.480751,42.580044,-24.690416,,,,,,
1465825923.99,-0.458148,0.053305,-0.561750,0.024718,-0.385694,0.011061,-0.441659,-0.053280,-0.895599,0.049570,0.002758,0.009125,41.480751,42.580044,-24.690416,,,,,,
1465825924.00,-0.463118,0.053518,-0.561494,0.031986,-0.532229,0.013051,-0.446100,-0.053493,-0.893383,0.056162,0.005122,0.011638,41.418671,42.571796,-24.808571,,,,,,
1465825924.01,-0.469585,0.053786,-0.561163,0.040305,-0.684083,0.018270,-0.451862,-0.053760,-0.890466,0.060505,0.005481,0.012338,41.418671,42.571796,-24.808571,,,,,,
1465825924.02,-0.477756,0.054139,-0.560761,0.051794,-0.858230,0.021502,-0.459114,-0.054113,-0.886728,0.059867,0.002248,0.008585,41.418671,42.571796,-24.808571,,,,,,
1465825924.03,-0.487353,0.054522,-0.560286,0.058020,-0.984594,0.024430,-0.467593,-0.054495,-0.882263,0.047229,0.003744,0.004333,40.861134,42.510956,-25.816967,,,,,,
1465825924.04,-0.497739,0.054935,-0.559765,0.061125,-1.052557,0.026988,-0.476720,-0.054908,-0.877339,0.041203,0.002585,0.007344,40.861134,42.510956,-25.816967,,,,,,
1465825924.05,-0.508632,0.055369,-0.559209,0.065324,-1.098219,0.028343,-0.486236,-0.055341,-0.872073,0.040023,0.003019,0.016391,40.861134,42.510956,-25.816967,,,,,,
1465825924.06,-0.520263,0.055842,-0.558641,0.070547,-1.188457,0.022528,-0.496334,-0.055813,-0.866336,0.056515,0.000789,0.017810,40.359528,42.459736,-26.675997,,,,,,
1465825924.07,-0.533400,0.056308,-0.557958,0.079904,-1.348830,0.036316,-0.507658,-0.056278,-0.859719,0.051817,0.016209,0.005181,40.359528,42.459736,-26.675997,,,,,,
1465825924.08,-0.548089,0.056896,-0.557240,0.087167,-1.503850,0.035167,-0.520214,-0.056865,-0.852141,0.053264,-0.006779,-0.000505,40.359528,42.459736,-26.675997,,,,,,
1465825924.09,-0.563489,0.057482,-0.556439,0.091401,-1.525086,0.034240,-0.533257,-0.057450,-0.844000,-0.000144,0.007569,-0.005655,40.359528,42.459736,-26.675997,,,,,,
1465825924.10,-0.577650,0.058004,-0.555685,0.083084,-1.361570,0.035335,-0.545139,-0.057972,-0.836339,-0.008084,-0.000195,-0.003199,39.017803,42.329807,-28.794571,,,,,,
1465825924.11,-0.589774,0.058446,-0.555006,0.070557,-1.166186,0.031968,-0.555223,-0.058413,-0.829648,-0.012312,0.001635,0.032208,39.017803,42.329807,-28.794571,,,,,,
1465825924.12,-0.601342,0.058808,-0.554367,0.068423,-1.169370,0.031986,-0.564771,-0.058775,-0.823152,0.023542,0.002882,0.027955,39.017803,42.329807,-28.794571,,,,,,
1465825924.14,-0.630422,0.059753,-0.552752,0.095472,-1.665263,0.041510,-0.588433,-0.059717,-0.806337,0.087381,0.004221,0.010332,37.489140,42.182903,-30.959585,,,,,,
1465825924.13,-0.614490,0.059240,-0.553613,0.082002,-1.369013,0.039638,-0.575530,-0.059205,-0.815634,0.055450,0.003892,0.008475,37.489140,42.182903,-30.959585,,,,,,
1465825924.15,-0.649166,0.060362,-0.551670,0.118550,-1.927564,0.051693,-0.603421,-0.060325,-0.795137,0.092694,0.010093,-0.000807,36.607628,42.100651,-32.105232,,,,,,
1465825924.16,-0.670207,0.061012,-0.550462,0.127836,-2.156929,0.057399,-0.619993,-0.060974,-0.782235,0.120847,0.002640,0.029885,36.607628,42.100651,-32.105232,,,,,,
1465825924.17,-0.694226,0.061734,-0.549038,0.150842,-2.480808,0.065840,-0.638572,-0.061695,-0.767085,0.142646,0.014240,0.039622,36.607628,42.100651,-32.105232,,,,,,
1465825924.18,-0.722429,0.062492,-0.547386,0.171551,-2.928932,0.080380,-0.659918,-0.062452,-0.748737,0.183127,0.009610,0.034229,36.607628,42.100651,-32.105232,,,,,,
1465825924.19,-0.756052,0.063378,-0.545364,0.211284,-3.496039,0.095686,-0.684677,-0.063335,-0.726089,0.218567,0.012585,0.043777,33.607235,41.828274,-35.556694,,,,,,
1465825924.20,-0.796189,0.064316,-0.542912,0.247668,-4.185191,0.108560,-0.713218,-0.064271,-0.697989,0.271904,0.024583,0.072943,33.607235,41.828274,-35.556694,,,,,,
1465825924.21,-0.844532,0.065329,-0.539988,0.299809,-5.028341,0.133060,-0.746065,-0.065283,-0.662665,0.312167,0.010870,0.058661,33.607235,41.828274,-35.556694,,,,,,
1465825924.22,-0.901503,0.066376,-0.536407,0.351938,-5.883169,0.156568,-0.782533,-0.066327,-0.619066,0.325914,0.027570,0.094804,30.982273,41.602108,-38.114208,,,,,,
1465825924.23,-0.967369,0.067314,-0.532234,0.406127,-6.808050,0.170939,-0.821531,-0.067263,-0.566182,0.393659,0.032076,0.140157,30.982273,41.602108,-38.114208,,,,,,
1465825924.24,-1.043952,0.068013,-0.527254,0.477082,-7.889127,0.223561,-0.862400,-0.067960,-0.501645,0.400608,0.025892,0.168836,30.982273,41.602108,-38.114208,,,,,,
1465825924.25,-1.132414,0.068431,-0.521551,0.534075,-9.144197,0.228296,-0.903320,-0.068378,-0.423482,0.488968,0.035175,0.242391,20.927671,40.816010,-45.159885,,,,,,
1465825924.27,-1.353087,0.067261,-0.507278,0.713472,-12.024070,0.309339,-0.974187,-0.067210,-0.215505,0.445180,0.032283,0.308614,20.927671,40.816010,-45.159885,,,,,,
1465825924.26,-1.235553,0.068250,-0.514862,0.642835,-10.652124,0.278310,-0.942132,-0.068197,-0.328233,0.491082,0.045110,0.298311,20.927671,40.816010,-45.159885,,,,,,
1465825924.28,-1.482669,0.065142,-0.499219,0.783310,-13.183656,0.339034,-0.994007,-0.065096,-0.087827,0.428104,0.039065,0.449231,12.141571,40.199051,-48.784710,,,,,,
1465825924.29,-1.622950,0.061659,-0.490756,0.852227,-14.225387,0.370119,-0.996743,-0.061620,0.052031,0.262535,0.031515,0.736772,12.141571,40.199051,-48.784710,,,,,,
1465825924.30,-1.772105,0.056657,-0.482494,0.894806,-15.055784,0.392400,-0.978234,-0.056626,0.199631,0.224602,0.041718,0.875656,12.141571,40.199051,-48.784710,,,,,,
1465825924.31,-1.928590,0.050162,-0.474732,0.933244,-15.791680,0.414085,-0.935494,-0.050141,0.349768,0.125450,0.039567,0.928003,-14.210500,38.610828,-49.503483,,,,,,
1465825924.32,-2.092166,0.042166,-0.467776,0.984533,-16.478720,0.429089,-0.866367,-0.042153,0.497625,0.021686,0.040216,0.954554,-14.210500,38.610828,-49.503483,,,,,,
1465825924.33,-2.260119,0.032871,-0.462022,0.998967,-16.838709,0.442006,-0.771260,-0.032866,0.635671,-0.079906,0.020979,0.993815,-14.210500,38.610828,-49.503483,,,,,,
1465825924.34,-2.428684,0.022750,-0.458057,0.995797,-16.800514,0.453472,-0.653868,-0.022748,0.756267,-0.168871,0.036801,1.039113,-30.512691,36.627289,-41.248611,,,,,,
1465825924.35,-2.594618,0.012119,-0.455797,0.986600,-16.497887,0.448372,-0.520067,-0.012118,0.854039,-0.238966,0.011035,0.998225,-30.512691,36.627289,-41.248611,,,,,,
1465825924.36,-2.756926,0.001689,-0.455275,0.950911,-16.132536,0.419434,-0.375250,-0.001689,0.926922,-0.398966,0.000301,0.887104,-42.217457,36.238277,-29.639561,,,,,,
1465825924.37,-2.913675,-0.008545,-0.456409,0.932574,-15.475266,0.413164,-0.225942,0.008545,0.974103,-0.495921,0.011795,0.820971,-42.217457,36.238277,-29.639561,,,,,,
1465825924.38,-3.060128,-0.017849,-0.458869,0.864862,-14.325225,0.379273,-0.081362,0.017848,0.996525,-0.535764,-0.032726,0.696774,-42.217457,36.238277,-29.639561,,,,,,
1465825924.39,3.090529,-0.025758,-0.462328,0.762395,-12.869372,0.344493,0.051025,0.025755,0.998365,-0.600158,-0.001982,0.610018,-42.217457,36.238277,-29.639561,,,,,,
1465825924.40,2.972952,-0.032425,-0.466282,0.684464,-11.371067,0.312665,0.167754,0.032419,0.985296,-0.650024,-0.037974,0.422496,-51.423943,36.460751,-0.471477,,,,,,
1465825924.41,2.871043,-0.037681,-0.470271,0.574757,-9.773940,0.258897,0.267071,0.037672,0.962940,-0.634198,-0.017561,0.304577,-51.423943,36.460751,-0.471477,,,,,,
1465825924.42,2.785105,-0.041867,-0.474129,0.496956,-8.170521,0.227474,0.348679,0.041855,0.936307,-0.668335,-0.032791,0.183825,-51.423943,36.460751,-0.471477,,,,,,
1465825924.43,2.715932,-0.044940,-0.477455,0.383109,-6.470411,0.178378,0.412506,0.044925,0.909846,-0.664352,-0.034305,0.080815,-46.561974,37.317188,20.333225,,,,,,
1465825924.44,2.664576,-0.047017,-0.480116,0.274704,-4.665204,0.135015,0.458624,0.047000,0.887387,-0.630835,-0.027698,0.017597,-46.561974,37.317188,20.333225,,,,,,
1465825924.45,2.631127,-0.048319,-0.481894,0.173713,-2.903514,0.084481,0.488013,0.048300,0.871499,-0.646201,-0.043417,-0.048257,-46.561974,37.317188,20.333225,,,,,,
1465825924.46,2.615043,-0.048889,-0.482792,0.068426,-1.168373,0.036238,0.501953,0.048869,0.863513,-0.612427,-0.028026,-0.092517,-43.675648,37.633877,25.498219,,,,,,
1465825924.47,2.616395,-0.048820,-0.482780,-0.032615,0.565690,-0.006672,0.500787,0.048800,0.864194,-0.582467,-0.035449,-0.075955,-43.675648,37.633877,25.498219,,,,,,
1465825924.48,2.634333,-0.048132,-0.481862,-0.126330,2.186157,-0.056313,0.485221,0.048114,0.873067,-0.551429,-0.036441,-0.087575,-43.675648,37.633877,25.498219,,,,,,
1465825924.49,2.667766,-0.046787,-0.480167,-0.221248,3.706797,-0.098942,0.455795,0.046770,0.888855,-0.512970,-0.021853,-0.052688,-42.849869,37.724758,26.735037,,,,,,
1465825924.50,2.715698,-0.044783,-0.477791,-0.303527,5.128663,-0.133489,0.412721,0.044768,0.909757,-0.483323,-0.028258,-0.004727,-42.849869,37.724758,26.735037,,,,,,
1465825924.51,2.777022,-0.042071,-0.474849,-0.381663,6.445431,-0.175887,0.356233,0.042058,0.933450,-0.466187,-0.028371,0.031241,-42.849869,37.724758,26.735037,,,,,,
1465825924.52,2.851324,-0.038522,-0.471561,-0.461977,7.736694,-0.209612,0.285997,0.038512,0.957456,-0.434755,-0.012404,0.129336,-44.963840,37.510578,23.350361,,,,,,
1465825924.53,2.938271,-0.034086,-0.468043,-0.535958,8.991838,-0.237783,0.201806,0.034079,0.978832,-0.386239,-0.020072,0.213764,-44.963840,37.510578,23.350361,,,,,,
1465825924.54,3.036506,-0.028718,-0.464565,-0.598448,10.061177,-0.271163,0.104850,0.028714,0.994073,-0.338752,-0.005048,0.290549,-44.963840,37.510578,23.350361,,,,,,
1465825924.55,-3.139448,-0.022513,-0.461345,-0.650570,10.922373,-0.293647,-0.002144,0.022511,0.999744,-0.312462,-0.005284,0.356304,-50.454674,36.790424,8.649923,,,,,,
1465825924.56,-3.024018,-0.015440,-0.458661,-0.699571,11.726229,-0.315768,-0.117290,0.015439,0.992978,-0.249073,0.002566,0.462589,-50.454674,36.790424,8.649923,,,,,,
1465825924.57,-2.901617,-0.007669,-0.456809,-0.743454,12.380342,-0.327366,-0.237672,0.007669,0.971315,-0.167937,0.018225,0.550413,-50.454674,36.790424,8.649923,,,,,,
1465825924.58,-2.774657,0.000581,-0.455888,-0.765308,12.767938,-0.339398,-0.358756,-0.000581,0.933431,-0.077843,0.016069,0.595225,-51.391254,36.441006,-2.241164,,,,,,
1465825924.59,-2.646086,0.008941,-0.456016,-0.760934,12.864551,-0.336807,-0.475459,-0.008941,0.879693,-0.006841,0.023009,0.638587,-51.391254,36.441006,-2.241164,,,,,,
1465825924.60,-2.518285,0.017141,-0.457224,-0.762175,12.729693,-0.332769,-0.583638,-0.017140,0.811833,0.091939,0.030903,0.660869,-51.391254,36.441006,-2.241164,,,,,,
1465825924.61,-2.393688,0.024988,-0.459410,-0.736077,12.319816,-0.326979,-0.679892,-0.024986,0.732886,0.193304,0.037498,0.634667,-44.605732,36.224068,-25.926361,,,,,,
1465825924.62,-2.275597,0.032007,-0.462316,-0.685898,11.625293,-0.293833,-0.761351,-0.032002,0.647550,0.221449,0.025425,0.592379,-44.605732,36.224068,-25.926361,,,,,,
1465825924.63,-2.165058,0.038284,-0.465856,-0.648569,10.841638,-0.279301,-0.827955,-0.038274,0.559487,0.310865,0.038274,0.555183,-37.364105,36.406780,-35.390682,,,,,,
1465825924.64,-2.063120,0.043600,-0.469610,-0.582667,9.941131,-0.250169,-0.880399,-0.043586,0.472226,0.358717,0.037467,0.514682,-37.364105,36.406780,-35.390682,,,,,,
1465825924.65,-1.971842,0.048083,-0.473514,-0.528736,8.817680,-0.230296,-0.919589,-0.048064,0.389930,0.397251,0.033904,0.403771,-37.364105,36.406780,-35.390682,,,,,,
1465825924.66,-1.892179,0.051662,-0.477175,-0.449337,7.648520,-0.195209,-0.947534,-0.051639,0.315457,0.427896,0.043933,0.363772,-37.364105,36.406780,-35.390682,,,,,,
1465825924.67,-1.824609,0.054453,-0.480520,-0.382753,6.435855,-0.168377,-0.966527,-0.054427,0.250724,0.479375,0.031050,0.299981,-21.953308,37.046249,-46.039742,,,,,,
1465825924.68,-1.769755,0.056523,-0.483371,-0.300343,5.128646,-0.128163,-0.978707,-0.056493,0.197333,0.515206,0.047369,0.248330,-21.953308,37.046249,-46.039742,,,,,,
1465825924.69,-1.729355,0.057961,-0.485506,-0.217054,3.656884,-0.096496,-0.985798,-0.057929,0.157630,0.530780,0.035514,0.169274,-21.953308,37.046249,-46.039742,,,,,,
1465825924.70,-1.703786,0.058803,-0.486910,-0.126343,2.174477,-0.056240,-0.989457,-0.058769,0.132369,0.544846,0.035866,0.138841,-16.314594,37.327652,-48.109360,,,,,,
1465825924.71,-1.693075,0.059176,-0.487497,-0.041991,0.709073,-0.020354,-0.990796,-0.059141,0.121760,0.525342,0.041838,0.100393,-16.314594,37.327652,-48.109360,,,,,,
1465825924.72,-1.696281,0.059059,-0.487287,0.043556,-0.653336,0.014887,-0.990407,-0.059024,0.124938,0.525426,0.031498,0.095140,-16.314594,37.327652,-48.109360,,,,,,
1465825924.73,-1.712806,0.058534,-0.486371,0.118509,-1.974327,0.048793,-0.988238,-0.058501,0.141290,0.496753,0.041563,0.090231,-12.825893,37.507786,-49.017273,,,,,,
1465825924.74,-1.742214,0.057528,-0.484709,0.196727,-3.242223,0.080241,-0.983714,-0.057496,0.170297,0.473033,0.027909,0.085807,-12.825893,37.507786,-49.017273,,,,,,
1465825924.75,-1.783859,0.056040,-0.482509,0.261183,-4.443225,0.113384,-0.975854,-0.056011,0.211122,0.420586,0.035518,0.103133,-12.825893,37.507786,-49.017273,,,,,,
1465825924.76,-1.836362,0.053980,-0.479798,0.325841,-5.490253,0.141304,-0.963539,-0.053954,0.262073,0.406135,0.030608,0.141858,-15.015732,37.388386,-48.483673,,,,,,
1465825924.77,-1.899062,0.051375,-0.476748,0.384152,-6.510722,0.164794,-0.945354,-0.051352,0.321976,0.349178,0.036322,0.173980,-15.015732,37.388386,-48.483673,,,,,,
1465825924.78,-1.971440,0.048077,-0.473371,0.445761,-7.435654,0.196203,-0.919746,-0.048058,0.389560,0.281731,0.020119,0.170056,-15.015732,37.388386,-48.483673,,,,,,
1465825924.79,-2.051502,0.044225,-0.469968,0.481046,-8.158772,0.205031,-0.885802,-0.044211,0.461953,0.244155,0.033255,0.238029,-25.454065,36.875931,-44.342834,,,,,,
1465825924.80,-2.137457,0.039717,-0.466641,0.520778,-8.703557,0.230841,-0.843033,-0.039706,0.536394,0.178772,0.015719,0.260099,-25.454065,36.875931,-44.342834,,,,,,
1465825924.81,-2.228360,0.034772,-0.463663,0.533996,-9.197309,0.236079,-0.791005,-0.034765,0.610821,0.129552,0.024313,0.284764,-25.454065,36.875931,-44.342834,,,,,,
1465825924.82,-2.323471,0.029210,-0.460922,0.578200,-9.585988,0.252399,-0.729551,-0.029206,0.683302,0.029036,0.015198,0.284731,-32.293758,36.583839,-39.909473,,,,,,
1465825924.83,-2.420778,0.023338,-0.458743,0.571611,-9.763277,0.242860,-0.659817,-0.023336,0.751064,0.006680,0.020040,0.317311,-32.293758,36.583839,-39.909473,,,,,,
1465825924.84,-2.518304,0.017194,-0.457140,0.582280,-9.721913,0.257513,-0.583622,-0.017193,0.811843,-0.078564,0.005627,0.316239,-32.293758,36.583839,-39.909473,,,,,,
1465825924.85,-2.614319,0.011029,-0.456176,0.566536,-9.559418,0.244770,-0.503148,-0.011028,0.864130,-0.101679,0.024105,0.329413,-44.609787,36.219501,-25.925758,,,,,,
1465825924.86,-2.708582,0.004990,-0.455725,0.547620,-9.366151,0.240345,-0.419600,-0.004990,0.907695,-0.213655,-0.015503,0.246418,-44.609787,36.219501,-25.925758,,,,,,
1465825924.87,-2.798704,-0.000871,-0.455944,0.532289,-8.860716,0.233967,-0.336208,0.000871,0.941787,-0.268314,0.003875,0.267716,-44.609787,36.219501,-25.925758,,,,,,
1465825924.88,-2.881809,-0.006254,-0.456527,0.478961,-8.109951,0.213238,-0.256867,0.006254,0.966427,-0.303314,-0.012876,0.204380,-48.568848,36.204960,-17.444139,,,,,,
1465825924.89,-2.956268,-0.011014,-0.457511,0.432191,-7.219039,0.194831,-0.184254,0.011013,0.982817,-0.360363,-0.012219,0.200792,-48.568848,36.204960,-17.444139,,,,,,
1465825924.90,-3.021652,-0.015118,-0.458576,0.373771,-6.300477,0.162400,-0.119639,0.015117,0.992702,-0.385762,-0.013896,0.085880,-48.568848,36.204960,-17.444139,,,,,,
1465825924.91,-3.076788,-0.018522,-0.459777,0.309114,-5.236489,0.145018,-0.064748,0.018521,0.997730,-0.418803,-0.023282,0.093991,-51.390297,36.435413,-2.351370,,,,,,
1465825924.92,-3.120894,-0.021208,-0.460822,0.250940,-4.124673,0.109247,-0.020692,0.021207,0.999561,-0.422515,-0.022717,-0.007312,-51.390297,36.435413,-2.351370,,,,,,
1465825924.93,3.130156,-0.023116,-0.461704,0.169470,-2.901374,0.079141,0.011434,0.023114,0.999667,-0.432500,-0.010205,0.019711,-51.283932,36.573093,2.529222,,,,,,
1465825924.94,3.110293,-0.024320,-0.462320,0.101828,-1.685520,0.051223,0.031286,0.024318,0.999215,-0.389501,-0.037380,-0.041619,-51.283932,36.573093,2.529222,,,,,,
1465825924.95,3.101760,-0.024766,-0.462583,0.032984,-0.588570,0.017664,0.039810,0.024763,0.998900,-0.367935,-0.005461,-0.031112,-51.283932,36.573093,2.529222,,,,,,
1465825924.96,3.103085,-0.024684,-0.462588,-0.024334,0.371382,-0.007574,0.038487,0.024681,0.998954,-0.350804,-0.020867,-0.073158,-51.032093,36.660755,5.073917,,,,,,
1465825924.97,3.114066,-0.024060,-0.462302,-0.075258,1.337698,-0.031781,0.027516,0.024057,0.999332,-0.322376,-0.019571,-0.060642,-51.032093,36.660755,5.073917,,,,,,
1465825924.98,3.134607,-0.022831,-0.461731,-0.136836,2.288110,-0.062285,0.006984,0.022829,0.999715,-0.299800,-0.005251,-0.029699,-51.032093,36.660755,5.073917,,,,,,
1465825924.99,-3.118974,-0.021092,-0.460962,-0.186793,3.180093,-0.083896,-0.022612,0.021090,0.999522,-0.288439,-0.021396,-0.038066,-51.161518,36.625393,3.887187,,,,,,
1465825925.00,-3.080574,-0.018776,-0.460022,-0.237832,4.047673,-0.111742,-0.060970,0.018774,0.997963,-0.269230,-0.010168,0.006096,-51.161518,36.625393,3.887187,,,,,,
1465825925.01,-3.033535,-0.015919,-0.459043,-0.291015,4.925835,-0.125818,-0.107834,0.015918,0.994041,-0.256988,-0.014423,0.028343,-51.161518,36.625393,3.887187,,,,,,
1465825925.02,-2.978124,-0.012414,-0.458056,-0.345343,5.721208,-0.151085,-0.162729,0.012413,0.986593,-0.190481,0.001030,0.098795,-51.378788,36.523285,0.547704,,,,,,
1465825925.03,-2.916266,-0.008469,-0.457187,-0.378636,6.328599,-0.163443,-0.223417,0.008469,0.974686,-0.176897,-0.010849,0.092361,-51.378788,36.523285,0.547704,,,,,,
1465825925.04,-2.848980,-0.004149,-0.456521,-0.406703,6.852114,-0.178463,-0.288452,0.004149,0.957485,-0.125229,0.006578,0.159885,-51.378788,36.523285,0.547704,,,,,,
1465825925.05,-2.777491,0.000512,-0.456097,-0.433881,7.239712,-0.190501,-0.356110,-0.000512,0.934444,-0.079758,0.003274,0.171254,-50.408863,36.285896,-10.784740,,,,,,
1465825925.06,-2.703073,0.005309,-0.456043,-0.439938,7.504105,-0.192165,-0.424594,-0.005309,0.905368,-0.046323,0.009520,0.218121,-50.408863,36.285896,-10.784740,,,,,,
1465825925.07,-2.626920,0.010246,-0.456344,-0.454670,7.634728,-0.198321,-0.492224,-0.010246,0.870408,0.028494,0.014610,0.243682,-50.408863,36.285896,-10.784740,,,,,,
1465825925.08,-2.550617,0.015117,-0.457058,-0.452574,7.612421,-0.194986,-0.557108,-0.015116,0.830303,0.068231,0.008372,0.262028,-48.466511,36.219856,-17.696037,,,,,,
1465825925.09,-2.475792,0.019896,-0.458137,-0.444305,7.418100,-0.191630,-0.617567,-0.019895,0.786267,0.154631,0.024945,0.274494,-48.466511,36.219856,-17.696037,,,,,,
1465825925.10,-2.405126,0.024280,-0.459409,-0.408739,6.926442,-0.178931,-0.671477,-0.024278,0.740628,0.184569,0.023622,0.245410,-48.466511,36.219856,-17.696037,,,,,,
1465825925.11,-2.340058,0.028196,-0.460850,-0.374323,6.368948,-0.164756,-0.718139,-0.028192,0.695328,0.181854,0.022119,0.210784,-41.509506,36.299603,-30.550455,,,,,,
1465825925.12,-2.279366,0.031745,-0.462479,-0.354630,5.954812,-0.153624,-0.758911,-0.031740,0.650420,0.253357,0.027132,0.256486,-41.509506,36.299603,-30.550455,,,,,,
1465825925.13,-2.224266,0.034939,-0.464067,-0.311764,5.328324,-0.148587,-0.793494,-0.034931,0.607574,0.284476,0.026738,0.215866,-41.509506,36.299603,-30.550455,,,,,,
1465825925.14,-2.176182,0.037560,-0.465689,-0.277568,4.630611,-0.111179,-0.821703,-0.037551,0.568678,0.275743,0.024307,0.172380,-37.486301,36.416573,-35.251106,,,,,,
1465825925.15,-2.135906,0.039761,-0.467029,-0.217909,3.810866,-0.104914,-0.843862,-0.039750,0.535085,0.332418,0.028611,0.155985,-37.486301,36.416573,-35.251106,,,,,,
1465825925.16,-2.103739,0.041402,-0.468296,-0.185975,3.011216,-0.064741,-0.860577,-0.041390,0.507635,0.321454,0.022302,0.127207,-37.486301,36.416573,-35.251106,,,,,,
1465825925.17,-2.080350,0.042642,-0.469156,-0.117903,2.096984,-0.064261,-0.872169,-0.042630,0.487345,0.394095,0.033596,0.126379,-30.955151,36.658276,-40.889847,,,,,,
1465825925.18,-2.067017,0.043310,-0.469679,-0.066023,1.076460,-0.019489,-0.878564,-0.043296,0.475659,0.328454,0.024818,0.056857,-30.955151,36.658276,-40.889847,,,,,,
1465825925.19,-2.062686,0.043570,-0.469814,-0.011702,0.239738,-0.016316,-0.880606,-0.043556,0.471844,0.335562,0.023628,0.053714,-30.955151,36.658276,-40.889847,,,,,,
1465825925.20,-2.065648,0.043384,-0.469668,0.028884,-0.467587,0.019031,-0.879211,-0.043371,0.474454,0.303726,0.025976,0.066241,-29.472923,36.717327,-41.919147,,,,,,
1465825925.21,-2.075551,0.042923,-0.469289,0.067407,-1.163088,0.023431,-0.874487,-0.042910,0.483147,0.313345,0.023180,0.065284,-29.472923,36.717327,-41.919147,,,,,,
1465825925.22,-2.092827,0.042003,-0.468595,0.115388,-1.916003,0.054812,-0.866044,-0.041990,0.498201,0.278443,0.021299,0.045271,-29.472923,36.717327,-41.919147,,,,,,
1465825925.24,-2.149114,0.039066,-0.466496,0.197671,-3.345284,0.083018,-0.836744,-0.039056,0.546199,0.266325,0.021172,0.062657,-30.521233,36.669968,-41.204350,,,,,,
1465825925.23,-2.117472,0.040741,-0.467680,0.154938,-2.632755,0.064669,-0.853549,-0.040730,0.519419,0.278460,0.022145,0.047506,-30.521233,36.669968,-41.204350,,,,,,
1465825925.25,-2.187728,0.037001,-0.465156,0.239416,-3.998349,0.099929,-0.815099,-0.036993,0.578139,0.188832,0.019765,0.023759,-30.521233,36.669968,-41.204350,,,,,,
1465825925.26,-2.230605,0.034566,-0.463786,0.257026,-4.365782,0.117153,-0.789638,-0.034559,0.612599,0.169536,0.010161,0.070308,-32.739517,36.580242,-39.547943,,,,,,
1465825925.27,-2.276915,0.031946,-0.462381,0.286409,-4.709818,0.118276,-0.760498,-0.031941,0.648554,0.147217,0.026142,0.083624,-32.739517,36.580242,-39.547943,,,,,,
1465825925.28,-2.326181,0.028988,-0.461103,0.289218,-4.991241,0.136010,-0.727702,-0.028984,0.685280,0.094203,-0.001976,0.089012,-32.739517,36.580242,-39.547943,,,,,,
1465825925.30,-2.433532,0.022506,-0.458720,0.322545,-5.556188,0.157682,-0.650197,-0.022504,0.759432,-0.008342,0.001859,0.046522,-39.054775,36.361286,-33.565041,,,,,,
1465825925.29,-2.378363,0.025879,-0.459808,0.322937,-5.295955,0.123053,-0.691027,-0.025876,0.722365,0.118884,0.024854,0.089768,-39.054775,36.361286,-33.565041,,,,,,
1465825925.31,-2.488992,0.019008,-0.457759,0.332213,-5.524276,0.135138,-0.607145,-0.019007,0.794364,0.016782,0.005915,0.096612,-39.054775,36.361286,-33.565041,,,,,,
1465825925.32,-2.543552,0.015556,-0.457066,0.317377,-5.440434,0.151629,-0.562956,-0.015555,0.826340,-0.006075,0.009879,0.109954,-39.054775,36.361286,-33.565041,,,,,,
1465825925.33,-2.598368,0.012043,-0.456484,0.332244,-5.500914,0.133927,-0.516862,-0.012043,0.855984,-0.045089,0.008488,0.107807,-45.218876,36.223789,-24.841923,,,,,,
1465825925.34,-2.652973,0.008564,-0.456076,0.313164,-5.429769,0.135591,-0.469390,-0.008564,0.882949,-0.089692,-0.012585,0.024476,-45.218876,36.223789,-24.841923,,,,,,
1465825925.36,-2.751305,0.002231,-0.455935,0.263219,-4.519750,0.119189,-0.380454,-0.002231,0.924797,-0.147638,-0.005002,0.046303,-47.573776,36.206543,-19.996307,,,,,,
1465825925.35,-2.704712,0.005213,-0.455950,0.302985,-5.054951,0.134295,-0.423109,-0.005213,0.906064,-0.169542,0.008310,0.074069,-47.573776,36.206543,-19.996307,,,,,,
1465825925.37,-2.792529,-0.000445,-0.456070,0.238348,-3.994113,0.104159,-0.342018,0.000445,0.939693,-0.208320,-0.008898,0.079319,-47.573776,36.206543,-19.996307,,,,,,
1465825925.38,-2.828490,-0.002792,-0.456270,0.204970,-3.453618,0.093285,-0.308011,0.002792,0.951379,-0.211841,-0.008682,-0.009576,-47.573776,36.206543,-19.996307,,,,,,
1465825925.39,-2.858594,-0.004616,-0.456512,0.159967,-2.859998,0.071421,-0.279233,0.004616,0.960212,-0.217135,0.001289,0.000863,-50.201149,36.267246,-11.771215,,,,,,
1465825925.40,-2.882029,-0.006145,-0.456728,0.129985,-2.158110,0.059538,-0.256654,0.006145,0.966484,-0.244109,-0.021922,-0.028358,-50.201149,36.267246,-11.771215,,,,,,
1465825925.41,-2.898040,-0.007185,-0.456956,0.088345,-1.421163,0.042101,-0.241146,0.007185,0.970462,-0.244251,0.002825,0.041470,-50.711845,36.304852,-9.181339,,,,,,
1465825925.42,-2.907207,-0.007734,-0.457029,0.043370,-0.810543,0.016938,-0.232239,0.007734,0.972628,-0.199677,-0.024930,-0.047839,-50.711845,36.304852,-9.181339,,,,,,
1465825925.43,-2.910631,-0.007969,-0.457107,0.013292,-0.179806,0.008694,-0.228906,0.007968,0.973416,-0.241934,-0.005313,-0.034420,-50.711845,36.304852,-9.181339,,,,,,
1465825925.44,-2.907113,-0.007729,-0.457059,-0.033687,0.533802,-0.014988,-0.232330,0.007729,0.972606,-0.211106,-0.005410,-0.039379,-50.902840,36.326885,-7.955418,,,,,,
1465825925.45,-2.896378,-0.007019,-0.456978,-0.078556,1.249503,-0.028037,-0.242759,0.007018,0.970061,-0.204614,-0.014495,-0.021255,-50.902840,36.326885,-7.955418,,,,,,
1465825925.46,-2.879031,-0.005912,-0.456834,-0.111804,1.882396,-0.046942,-0.259551,0.005912,0.965711,-0.167207,-0.001990,0.006685,-50.902840,36.326885,-7.955418,,,,,,
1465825925.47,-2.856851,-0.004466,-0.456630,-0.137860,2.313530,-0.060316,-0.280907,0.004466,0.959725,-0.117287,0.001348,-0.009896,-50.682568,36.309326,-9.324183,,,,,,
1465825925.48,-2.831140,-0.002799,-0.456432,-0.159769,2.662892,-0.068916,-0.305488,0.002799,0.952192,-0.129036,-0.001990,-0.016050,-50.682568,36.309326,-9.324183,,,,,,
1465825925.49,-2.800810,-0.000807,-0.456280,-0.194258,3.161986,-0.082725,-0.334225,0.000807,0.942493,-0.111774,-0.004012,0.000592,-50.682568,36.309326,-9.324183,,,,,,
1465825925.51,-2.727441,0.003949,-0.456115,-0.232669,3.926538,-0.100332,-0.402410,-0.003949,0.915451,-0.071543,-0.006992,0.058670,-50.226490,36.275612,-11.636589,,,,,,
1465825925.50,-2.765917,0.001483,-0.456146,-0.211809,3.586739,-0.093922,-0.366900,-0.001483,0.930259,-0.073941,0.005511,0.060998,-50.226490,36.275612,-11.636589,,,,,,
1465825925.52,-2.686495,0.006574,-0.456145,-0.238776,4.138922,-0.109121,-0.439541,-0.006574,0.898198,-0.020252,0.012449,0.081034,-50.226490,36.275612,-11.636589,,,,,,
1465825925.53,-2.644102,0.009317,-0.456337,-0.256721,4.264221,-0.108860,-0.477201,-0.009317,0.878745,0.001355,-0.002280,0.071069,-50.226490,36.275612,-11.636589,,,,,,
1465825925.54,-2.600891,0.012038,-0.456609,-0.249163,4.345979,-0.110430,-0.514700,-0.012037,0.857286,0.020010,0.018827,0.085311,-48.183331,36.219322,-18.454220,,,,,,
1465825925.55,-2.557103,0.014919,-0.457100,-0.271488,4.370418,-0.112734,-0.551713,-0.014919,0.833901,0.075135,0.003246,0.121025,-48.183331,36.219322,-18.454220,,,,,,
1465825925.56,-2.514390,0.017599,-0.457619,-0.250378,4.225996,-0.109678,-0.586791,-0.017598,0.809547,0.103927,0.013478,0.109444,-46.516621,36.217472,-22.327766,,,,,,
1465825925.57,-2.474388,0.020149,-0.458262,-0.230563,3.910604,-0.098101,-0.618667,-0.020148,0.785395,0.152572,0.028403,0.127477,-46.516621,36.217472,-22.327766,,,,,,
1465825925.58,-2.438714,0.022375,-0.458835,-0.206661,3.447638,-0.091980,-0.646255,-0.022373,0.762793,0.184555,0.004779,0.092737,-46.516621,36.217472,-22.327766,,,,,,
1465825925.59,-2.406887,0.024286,-0.459464,-0.177305,3.105684,-0.075968,-0.670171,-0.024284,0.741809,0.142675,0.026557,0.080990,-42.482803,36.280144,-29.206036,,,,,,
1465825925.60,-2.377891,0.026081,-0.460048,-0.170197,2.825373,-0.077396,-0.691365,-0.026078,0.722035,0.183247,0.009339,0.096797,-42.482803,36.280144,-29.206036,,,,,,
1465825925.61,-2.351723,0.027623,-0.460654,-0.150337,2.552442,-0.061827,-0.709990,-0.027619,0.703670,0.150435,0.017975,0.078954,-42.482803,36.280144,-29.206036,,,,,,
1465825925.62,-2.328343,0.029019,-0.461265,-0.133684,2.251935,-0.056732,-0.726218,-0.029015,0.686852,0.187186,0.018837,0.102409,-40.691143,36.322857,-31.605560,,,,,,
1465825925.63,-2.309772,0.030135,-0.461749,-0.104583,1.698697,-0.044718,-0.738823,-0.030130,0.673225,0.245064,0.017038,0.086815,-40.691143,36.322857,-31.605560,,,,,,
1465825925.64,-2.297797,0.030812,-0.462039,-0.052206,1.032885,-0.027717,-0.746817,-0.030808,0.664316,0.230551,0.012085,0.024084,-40.691143,36.322857,-31.605560,,,,,,
1465825925.66,-2.290883,0.031216,-0.462233,0.004974,-0.033252,0.000316,-0.751382,-0.031211,0.659129,0.231683,0.014381,0.040640,-38.114391,36.399239,-34.589294,,,,,,
1465825925.65,-2.291794,0.031168,-0.462202,-0.032714,0.464776,-0.011361,-0.750783,-0.031163,0.659814,0.226887,0.024846,0.056251,-38.114391,36.399239,-34.589294,,,,,,
1465825925.67,-2.295144,0.030996,-0.462105,0.029855,-0.556757,0.012139,-0.748572,-0.030991,0.662329,0.193442,0.018738,0.045099,-38.114391,36.399239,-34.589294,,,,,,
1465825925.68,-2.303564,0.030361,-0.461956,0.062402,-0.863737,0.051353,-0.742983,-0.030357,0.668621,0.753435,0.041984,0.269565,-37.880962,36.406921,-34.836750,,,,,,
1465825925.69,-2.309862,0.029856,-0.461910,0.025091,-0.987797,-0.003258,-0.738769,-0.029852,0.673298,1.300094,0.073156,0.701183,-37.880962,36.406921,-34.836750,,,,,,
1465825925.70,-2.363650,0.027313,-0.460598,0.412318,-7.010862,0.153057,-0.701554,-0.027310,0.712093,0.105851,0.022473,-0.699642,-37.880962,36.406921,-34.836750,,,,,,
1465825925.71,-2.461568,0.021072,-0.457958,0.622216,-10.237877,0.206503,-0.628673,-0.021070,0.777385,0.452449,-0.085742,-0.069651,-40.254601,36.344440,-32.135323,,,,,,
1465825925.72,-2.560247,0.016634,-0.456913,0.427207,-9.578297,0.164916,-0.549073,-0.016634,0.835609,-0.317031,0.019411,0.320306,-40.254601,36.344440,-32.135323,,,,,,
1465825925.73,-2.646253,0.011752,-0.454888,0.495266,-8.015241,0.112603,-0.475298,-0.011752,0.879747,-2.047728,-0.046811,-0.444123,-40.254601,36.344440,-32.135323,,,,,,
1465825925.74,-2.676183,0.009431,-0.455512,0.027077,-0.873519,0.139728,-0.448769,-0.009431,0.893598,-0.994621,-0.105407,0.732501,-45.653297,36.210606,-24.054085,,,,,,
1465825925.75,-2.627526,0.013138,-0.456583,-0.468126,6.219317,-0.197973,-0.491680,-0.013138,0.870677,0.231640,0.263672,0.788686,-45.653297,36.210606,-24.054085,,,,,,
1465825925.76,-2.566110,0.017360,-0.456682,-0.291128,5.613928,-0.167388,-0.544158,-0.017359,0.838803,-0.354036,-0.096609,-0.424604,-45.653297,36.210606,-24.054085,,,,,,
1465825925.78,-2.515222,0.019796,-0.457280,0.007756,1.248492,-0.062007,-0.586093,-0.019794,0.810002,0.493564,0.006290,-0.013234,-45.814762,36.195118,-23.768694,,,,,,
1465825925.77,-2.531371,0.019079,-0.457399,-0.174560,2.853851,-0.007326,-0.572945,-0.019077,0.819372,0.256279,0.034855,-0.214819,-45.814762,36.195118,-23.768694,,,,,,
1465825925.79,-2.512202,0.019920,-0.456789,-0.007662,0.033724,-0.027793,-0.588535,-0.019919,0.808226,0.117512,-0.039225,-0.064558,-45.814762,36.195118,-23.768694,,,,,,
1465825925.80,-2.513673,0.019824,-0.457002,0.017605,-0.115079,0.023195,-0.587347,-0.019823,0.809092,0.206335,0.020708,0.133993,-44.580879,36.213573,-25.983704,,,,,,
1465825925.81,-2.513351,0.019585,-0.457084,-0.007749,0.041025,0.020062,-0.587610,-0.019583,0.808907,0.292963,-0.009546,0.116462,-44.580879,36.213573,-25.983704,,,,,,
1465825925.82,-2.517006,0.019637,-0.457461,-0.006398,-0.563171,0.034497,-0.584649,-0.019636,0.811049,0.215875,0.040602,0.001482,-44.580879,36.213573,-25.983704,,,,,,
1465825925.83,-2.529715,0.018594,-0.457335,0.114835,-1.505092,0.055427,-0.574306,-0.018593,0.818430,0.122005,0.036217,-0.039453,-44.618599,36.223644,-25.904793,,,,,,
1465825925.84,-2.549216,0.017152,-0.457218,0.127983,-2.030738,0.075768,-0.558252,-0.017151,0.829494,0.010690,-0.000503,-0.048427,-44.618599,36.223644,-25.904793,,,,,,
1465825925.85,-2.567650,0.015663,-0.457079,0.133711,-1.715374,0.069538,-0.542880,-0.015662,0.839664,-0.082745,0.007301,0.056790,-44.618599,36.223644,-25.904793,,,,,,
1465825925.86,-2.579222,0.014455,-0.456959,0.097423,-0.959311,0.049858,-0.533137,-0.014454,0.845905,-0.116704,0.020634,0.080242,-45.386612,36.223717,-24.534222,,,,,,
1465825925.87,-2.583212,0.013669,-0.456774,0.069648,-0.241418,0.009137,-0.529764,-0.013668,0.848035,-0.031058,0.021847,0.062549,-45.386612,36.223717,-24.534222,,,,,,
1465825925.88,-2.583862,0.013151,-0.456464,0.056057,-0.041793,0.007871,-0.529216,-0.013151,0.848385,-0.087239,-0.044130,-0.047680,-45.386612,36.223717,-24.534222,,,,,,
1465825925.89,-2.584333,0.013033,-0.456489,-0.008914,-0.065111,0.004759,-0.528818,-0.013033,0.848635,-0.022727,-0.054045,-0.032290,-46.155441,36.204636,-23.085260,,,,,,
1465825925.91,-2.588530,0.012599,-0.456455,0.024897,-0.260520,0.013470,-0.525254,-0.012599,0.850852,-0.017623,-0.008504,-0.020561,-46.155441,36.204636,-23.085260,,,,,,
1465825925.90,-2.586003,0.012996,-0.456549,0.022849,-0.198929,0.010952,-0.527400,-0.012996,0.849518,-0.055379,0.034938,0.017868,-46.155441,36.204636,-23.085260,,,,,,
1465825925.92,-2.589994,0.012510,-0.456487,0.016608,-0.091666,0.003887,-0.524009,-0.012510,0.851621,0.005881,-0.002993,0.004519,-46.199211,36.209747,-22.989506,,,,,,
1465825925.93,-2.589307,0.012418,-0.456458,-0.002299,0.115392,0.003634,-0.524594,-0.012418,0.851262,-0.032672,0.018369,0.048900,-46.199211,36.209747,-22.989506,,,,,,
1465825925.94,-2.587133,0.012443,-0.456509,-0.002132,0.241758,-0.001416,-0.526443,-0.012443,0.850119,0.010589,-0.015130,-0.013373,-46.283257,36.208904,-22.821171,,,,,,
1465825925.95,-2.584247,0.012502,-0.456525,-0.005255,0.302277,0.000330,-0.528894,-0.012501,0.848596,-0.014441,0.015843,0.020407,-46.283257,36.208904,-22.821171,,,,,,
1465825925.96,-2.580809,0.012538,-0.456555,-0.008380,0.355372,-0.001071,-0.531808,-0.012538,0.846772,0.013894,-0.006200,0.001296,-46.283257,36.208904,-22.821171,,,,,,
1465825925.97,-2.576824,0.012645,-0.456581,-0.007238,0.411655,-0.004616,-0.535177,-0.012645,0.844645,0.010412,0.002299,0.010534,-46.070190,36.212250,-23.243076,,,,,,
1465825925.98,-2.572383,0.012746,-0.456607,-0.014639,0.458370,-0.001723,-0.538923,-0.012745,0.842259,-0.003146,0.007283,-0.000477,-46.070190,36.212250,-23.243076,,,,,,
1465825925.99,-2.566958,0.012886,-0.456677,-0.016627,0.567742,-0.004540,-0.543483,-0.012886,0.839321,0.040492,0.004478,0.024387,-46.070190,36.212250,-23.243076,,,,,,
1465825926.00,-2.561104,0.013108,-0.456747,-0.021935,0.578366,-0.005676,-0.548386,-0.013108,0.836123,0.061417,0.015137,0.026487,-46.070190,36.212250,-23.243076,,,,,,
1465825926.01,-2.556370,0.013283,-0.456777,-0.014670,0.423348,-0.007890,-0.552336,-0.013283,0.833515,0.065688,0.010124,-0.010990,-45.608818,36.219379,-24.125145,,,,,,
1465825926.02,-2.553538,0.013383,-0.456702,0.001089,0.237554,-0.017354,-0.554694,-0.013383,0.831947,0.019888,0.005631,-0.032814,-45.608818,36.219379,-24.125145,,,,,,
1465825926.03,-2.551057,0.013440,-0.456626,-0.004182,0.303347,-0.002869,-0.556756,-0.013440,0.830568,-0.106956,-0.000049,-0.062257,-45.431870,36.215717,-24.462156,,,,,,
1465825926.04,-2.543260,0.013812,-0.456614,-0.041633,0.972357,-0.027327,-0.563212,-0.013812,0.826197,-0.126165,-0.005353,0.014364,-45.431870,36.215717,-24.462156,,,,,,
1465825926.05,-2.527080,0.014853,-0.456707,-0.104386,1.834640,-0.057280,-0.576497,-0.014853,0.816965,-0.185375,-0.007761,-0.011087,-45.431870,36.215717,-24.462156,,,,,,
1465825926.06,-2.501690,0.016627,-0.456903,-0.180846,2.788274,-0.098464,-0.597035,-0.016627,0.802043,-0.235164,-0.051626,-0.068233,-45.189381,36.209129,-24.916838,,,,,,
1465825926.07,-2.464902,0.019317,-0.457788,-0.293288,4.005098,-0.084918,-0.626100,-0.019316,0.779504,-0.096084,-0.023363,0.174766,-45.189381,36.209129,-24.916838,,,,,,
1465825926.08,-2.417888,0.022571,-0.459502,-0.365824,4.744155,-0.091755,-0.661997,-0.022569,0.749167,0.859140,0.103272,0.550943,-45.189381,36.209129,-24.916838,,,,,,
1465825926.09,-2.390261,0.024864,-0.460098,-0.126766,1.748765,-0.100406,-0.682401,-0.024861,0.730555,0.814878,0.094762,-0.008463,-45.189381,36.209129,-24.916838,,,,,,
1465825926.10,-2.407549,0.024142,-0.459245,0.166617,-2.746228,0.013234,-0.669682,-0.024140,0.742255,0.193791,0.001908,-0.584464,-41.852451,36.313278,-30.062405,,,,,,
1465825926.11,-2.445501,0.022335,-0.458277,0.202516,-3.798557,0.043287,-0.641064,-0.022333,0.767163,0.050579,0.029124,-0.104244,-41.852451,36.313278,-30.062405,,,,,,
1465825926.12,-2.471088,0.020949,-0.457311,0.143041,-2.019940,0.007591,-0.621245,-0.020947,0.783336,-0.220994,-0.009601,0.217014,-41.584347,36.291931,-30.457640,,,,,,
1465825926.13,-2.473386,0.020870,-0.457274,-0.036049,0.360703,-0.004325,-0.619444,-0.020868,0.784763,-0.305651,-0.013312,0.185177,-41.584347,36.291931,-30.457640,,,,,,
1465825926.14,-2.456823,0.022011,-0.457695,-0.131927,1.963106,-0.048533,-0.632342,-0.022009,0.774377,-0.057554,0.008200,0.198203,-41.584347,36.291931,-30.457640,,,,,,
1465825926.15,-2.436635,0.023387,-0.458171,-0.126676,1.906824,-0.047110,-0.647824,-0.023384,0.761431,0.076490,0.012337,0.030668,-43.027645,36.223545,-28.469408,,,,,,
1465825926.16,-2.425040,0.024094,-0.458425,-0.052415,0.874659,-0.020338,-0.656599,-0.024092,0.753855,0.192655,0.002653,-0.076945,-43.027645,36.223545,-28.469408,,,,,,
1465825926.17,-2.424500,0.024198,-0.458455,0.005835,-0.202073,-0.000754,-0.657003,-0.024195,0.753499,0.253897,0.014185,-0.028188,-43.027645,36.223545,-28.469408,,,,,,
1465825926.18,-2.432357,0.023877,-0.458259,0.042159,-0.944306,0.009260,-0.651068,-0.023875,0.758644,0.205878,0.001628,-0.020255,-42.131378,36.250130,-29.747358,,,,,,
1465825926.19,-2.444318,0.023329,-0.458069,0.056671,-1.238468,0.023892,-0.641956,-0.023327,0.766387,0.104373,0.003277,0.010713,-42.131378,36.250130,-29.747358,,,,,,
1465825926.20,-2.456311,0.022705,-0.457908,0.056770,-1.162097,0.027672,-0.632728,-0.022703,0.774042,0.038810,0.013533,0.039267,-42.131378,36.250130,-29.747358,,,,,,
1465825926.21,-2.466191,0.022127,-0.457776,0.050684,-0.924244,0.024046,-0.625058,-0.022126,0.780265,0.017209,0.016541,0.039178,-42.131378,36.250130,-29.747358,,,,,,
1465825926.22,-2.473897,0.021659,-0.457658,0.042422,-0.726733,0.018541,-0.619033,-0.021658,0.785067,0.004729,0.010290,0.026854,-43.023174,36.230881,-28.466820,,,,,,
1465825926.24,-2.485099,0.020976,-0.457433,0.025735,-0.464433,0.007299,-0.610209,-0.020974,0.791963,0.017939,0.004083,0.007338,-43.023174,36.230881,-28.466820,,,,,,
1465825926.23,-2.480133,0.021261,-0.457546,0.037275,-0.590810,0.014490,-0.614130,-0.021259,0.788918,0.006449,0.002994,0.001838,-43.023174,36.230881,-28.466820,,,,,,
1465825926.25,-2.489067,0.020766,-0.457326,0.022659,-0.376290,0.002486,-0.607064,-0.020765,0.794382,0.015405,0.009656,0.004187,-43.799843,36.215412,-27.277245,,,,,,
1465825926.26,-2.492238,0.020625,-0.457224,0.015314,-0.295580,-0.001221,-0.604544,-0.020623,0.796305,0.019995,0.007287,-0.001703,-43.799843,36.215412,-27.277245,,,,,,
1465825926.27,-2.494431,0.020624,-0.457155,0.000548,-0.193622,-0.008262,-0.602796,-0.020622,0.797629,0.037656,0.008812,0.002008,-43.991676,36.206470,-26.978775,,,,,,
1465825926.28,-2.495817,0.020734,-0.457077,-0.007871,-0.123524,-0.014032,-0.601689,-0.020733,0.798461,0.040394,0.013500,0.003800,-43.991676,36.206470,-26.978775,,,,,,
1465825926.29,-2.496772,0.020926,-0.457024,-0.014211,-0.088476,-0.016388,-0.600923,-0.020925,0.799033,0.046328,0.008382,-0.001227,-43.991676,36.206470,-26.978775,,,,,,
1465825926.30,-2.497546,0.021212,-0.456986,-0.021635,-0.073592,-0.021811,-0.600301,-0.021210,0.799493,0.058492,0.007691,0.000800,-44.094501,36.198380,-26.821316,,,,,,
1465825926.31,-2.498336,0.021565,-0.456938,-0.024837,-0.085261,-0.024934,-0.599665,-0.021563,0.799961,0.061411,0.010165,0.004147,-44.094501,36.198380,-26.821316,,,,,,
1465825926.32,-2.499402,0.021929,-0.456894,-0.028061,-0.110740,-0.025842,-0.598807,-0.021927,0.800593,0.053977,0.006225,-0.000468,-44.094501,36.198380,-26.821316,,,,,,
1465825926.33,-2.500399,0.022339,-0.456857,-0.030164,-0.092683,-0.028086,-0.598003,-0.022337,0.801183,0.055187,0.009337,0.004924,-44.221466,36.182835,-26.632584,,,,,,
1465825926.34,-2.500939,0.022786,-0.456824,-0.035423,-0.041713,-0.028411,-0.597564,-0.022784,0.801497,0.050354,0.007053,0.015168,-44.221466,36.182835,-26.632584,,,,,,
1465825926.35,-2.501049,0.023257,-0.456812,-0.037499,-0.000299,-0.029737,-0.597470,-0.023255,0.801554,0.041501,0.007554,0.015615,-44.221466,36.182835,-26.632584,,,,,,
1465825926.36,-2.500713,0.023731,-0.456785,-0.037438,0.046423,-0.031095,-0.597733,-0.023729,0.801344,0.043030,0.005785,0.014208,-44.282887,36.174805,-26.541286,,,,,,
1465825926.37,-2.499898,0.024231,-0.456767,-0.038444,0.093143,-0.031389,-0.598378,-0.024229,0.800847,0.042088,0.008771,0.027430,-44.282887,36.174805,-26.541286,,,,,,
1465825926.38,-2.498777,0.024678,-0.456721,-0.030964,0.116496,-0.030463,-0.599269,-0.024676,0.800167,0.041912,0.004733,0.021229,-44.282887,36.174805,-26.541286,,,,,,
1465825926.39,-2.497267,0.025112,-0.456676,-0.031975,0.158968,-0.030731,-0.600470,-0.025109,0.799253,0.056936,0.008325,0.028567,-44.269310,36.159641,-26.584558,,,,,,
1465825926.40,-2.495653,0.025465,-0.456597,-0.021336,0.158951,-0.026462,-0.601754,-0.025463,0.798276,0.057046,0.009639,0.027149,-44.269310,36.159641,-26.584558,,,,,,
1465825926.41,-2.499699,0.025434,-0.456407,-0.021352,0.153601,-0.021106,-0.598520,-0.025431,0.800704,0.054620,0.004038,0.015946,-44.269310,36.159641,-26.584558,,,,,,
1465825926.42,-2.498158,0.025763,-0.456376,-0.024548,0.150420,-0.022154,-0.599748,-0.025760,0.799774,0.074250,0.006046,0.023788,-44.206676,36.149120,-26.702829,,,,,,
1465825926.43,-2.504153,0.025635,-0.456167,-0.023552,0.095169,-0.020741,-0.594944,-0.025632,0.803358,0.080143,0.005827,0.014284,-44.206676,36.149120,-26.702829,,,,,,
1465825926.44,-2.509942,0.025295,-0.455990,-0.018342,0.008061,-0.016995,-0.590289,-0.025292,0.806796,0.075793,0.008080,0.010404,-44.206676,36.149120,-26.702829,,,,,,
1465825926.45,-2.515842,0.024922,-0.455828,-0.008911,-0.103476,-0.009899,-0.585524,-0.024919,0.810272,0.067351,0.007372,0.010559,-44.597351,36.118843,-26.087072,,,,,,
1465825926.46,-2.521267,0.025059,-0.455722,-0.010091,-0.192690,-0.007212,-0.581118,-0.025056,0.813434,0.058290,0.000779,-0.003360,-44.597351,36.118843,-26.087072,,,,,,
1465825926.47,-2.527495,0.025003,-0.455645,-0.012265,-0.227750,-0.005929,-0.576042,-0.025001,0.817038,0.065894,0.003684,-0.001334,-44.597351,36.118843,-26.087072,,,,,,
1465825926.48,-2.533692,0.024683,-0.455594,-0.012323,-0.273428,-0.004578,-0.570971,-0.024680,0.820599,0.058902,0.007697,0.004932,-44.892693,36.106293,-25.593199,,,,,,
1465825926.49,-2.538379,0.024589,-0.455586,-0.004954,-0.330794,0.002176,-0.567121,-0.024586,0.823268,0.029737,0.003087,-0.007456,-44.892693,36.106293,-25.593199,,,,,,
1465825926.50,-2.544132,0.023877,-0.455549,-0.005989,-0.318046,-0.004290,-0.562384,-0.023875,0.826531,0.040229,0.013575,0.012306,-44.892693,36.106293,-25.593199,,,,,,
1465825926.51,-2.548337,0.023821,-0.455496,-0.004835,-0.257513,-0.011055,-0.558905,-0.023819,0.828889,0.038809,0.002564,-0.016542,-45.447159,36.103603,-24.599092,,,,,,
1465825926.52,-2.551883,0.023613,-0.455476,-0.015472,-0.236301,-0.002682,-0.555964,-0.023611,0.830871,0.013026,0.007284,0.013719,-45.447159,36.103603,-24.599092,,,,,,
1465825926.53,-2.554544,0.023389,-0.455411,-0.003713,-0.209746,-0.009223,-0.553755,-0.023387,0.832351,0.018065,0.006190,-0.014144,-45.447159,36.103603,-24.599092,,,,,,
1465825926.54,-2.558698,0.023137,-0.455305,-0.023810,-0.131129,-0.026766,-0.550296,-0.023135,0.834649,0.053378,0.011447,0.015021,-45.633301,36.101250,-24.255558,,,,,,
1465825926.55,-2.561109,0.022742,-0.455110,-0.003632,-0.171495,-0.025427,-0.548287,-0.022740,0.835981,0.028359,0.013081,-0.014845,-45.633301,36.101250,-24.255558,,,,,,
1465825926.56,-2.563065,0.023156,-0.455021,-0.021760,-0.185304,-0.020037,-0.546645,-0.023154,0.837044,0.008483,-0.002542,-0.013466,-45.633301,36.101250,-24.255558,,,,,,
1465825926.57,-2.565942,0.023131,-0.454895,-0.014237,-0.135401,-0.023535,-0.544235,-0.023129,0.838614,0.033828,0.007001,0.003183,-45.906147,36.080212,-23.767084,,,,,,
1465825926.58,-2.569098,0.023366,-0.454743,-0.024906,-0.159813,-0.027650,-0.541582,-0.023364,0.840323,0.042330,0.003452,0.004694,-45.906147,36.080212,-23.767084,,,,,,
1465825926.59,-2.571669,0.023609,-0.454628,-0.011166,-0.232040,-0.021862,-0.539418,-0.023607,0.841707,0.015354,0.000947,-0.009615,-45.906147,36.080212,-23.767084,,,,,,
1465825926.60,-2.574627,0.023781,-0.454511,-0.017547,-0.226730,-0.021901,-0.536923,-0.023778,0.843296,0.016552,0.002157,-0.001408,-46.061077,36.064850,-23.489017,,,,,,
1465825926.61,-2.577810,0.023975,-0.454354,-0.015370,-0.195933,-0.026350,-0.534234,-0.023973,0.844997,0.027047,0.002763,0.009770,-46.061077,36.064850,-23.489017,,,,,,
1465825926.62,-2.580570,0.024615,-0.454221,-0.021751,-0.189563,-0.026397,-0.531891,-0.024612,0.846455,0.021210,-0.007630,0.006664,-46.061077,36.064850,-23.489017,,,,,,
1465825926.63,-2.583455,0.024993,-0.454087,-0.018582,-0.209743,-0.026267,-0.529442,-0.024991,0.847978,0.021782,-0.000934,0.005553,-46.367081,36.031460,-22.931585,,,,,,
1465825926.64,-2.586577,0.024967,-0.453925,-0.007986,-0.245862,-0.022836,-0.526792,-0.024964,0.849628,0.014081,0.006745,0.014096,-46.367081,36.031460,-22.931585,,,,,,
1465825926.65,-2.589975,0.025061,-0.453765,-0.005892,-0.271356,-0.020545,-0.523901,-0.025059,0.851411,0.016058,0.001911,0.009246,-46.367081,36.031460,-22.931585,,,,,,
1465825926.66,-2.593514,0.024750,-0.453588,0.004728,-0.288362,-0.017234,-0.520889,-0.024748,0.853266,0.014129,0.011152,0.011053,-46.519577,36.014389,-22.647799,,,,,,
1465825926.67,-2.597237,0.024707,-0.453363,-0.003775,-0.292583,-0.026796,-0.517709,-0.024704,0.855200,0.031091,0.005570,-0.008368,-46.519577,36.014389,-22.647799,,,,,,
1465825926.68,-2.600989,0.024629,-0.453176,-0.002757,-0.323390,-0.022343,-0.514498,-0.024626,0.857138,0.016680,0.007674,0.002130,-46.519577,36.014389,-22.647799,,,,,,
1465825926.69,-2.604757,0.024406,-0.452967,0.007854,-0.345706,-0.017934,-0.511267,-0.024403,0.859075,0.006964,0.007848,0.002650,-46.857578,35.977592,-22.000238,,,,,,
1465825926.70,-2.609223,0.024481,-0.452745,0.003571,-0.370121,-0.020979,-0.507424,-0.024479,0.861349,0.018380,0.000599,0.016673,-46.857578,35.977592,-22.000238,,,,,,
1465825926.71,-2.613646,0.024510,-0.452524,0.014133,-0.429603,-0.015273,-0.503609,-0.024508,0.863584,0.001244,-0.001585,0.007403,-46.857578,35.977592,-22.000238,,,,,,
1465825926.72,-2.618144,0.024584,-0.452338,0.010905,-0.455088,-0.014052,-0.499719,-0.024581,0.865839,-0.005438,-0.003357,-0.001962,-47.047562,35.956188,-21.626591,,,,,,
1465825926.73,-2.622835,0.024510,-0.452116,0.013072,-0.433839,-0.019506,-0.495653,-0.024508,0.868175,0.003343,0.001955,0.006520,-47.047562,35.956188,-21.626591,,,,,,
1465825926.74,-2.627215,0.024494,-0.451885,0.012016,-0.426407,-0.019553,-0.491845,-0.024492,0.870338,-0.006568,0.000017,0.010079,-47.047562,35.956188,-21.626591,,,,,,
1465825926.75,-2.631012,0.024274,-0.451660,0.017364,-0.404116,-0.017559,-0.488540,-0.024271,0.872204,-0.023042,0.005381,0.005314,-47.455746,35.911797,-20.792437,,,,,,
1465825926.76,-2.634565,0.024286,-0.451430,0.007850,-0.354197,-0.021074,-0.485438,-0.024283,0.873934,-0.015325,-0.001214,0.010298,-47.455746,35.911797,-20.792437,,,,,,
1465825926.77,-2.637945,0.024672,-0.451206,0.000421,-0.340381,-0.024362,-0.482477,-0.024670,0.875561,-0.007468,-0.010014,0.004703,-47.455746,35.911797,-20.792437,,,,,,
