timestamp,attitude_roll,attitude_pitch,attitude_yaw,rotation_rate_x,rotation_rate_y,rotation_rate_z,gravity_x,gravity_y,gravity_z,user_acc_x,user_acc_y,user_acc_z,magnetic_field_x,magnetic_field_y,magnetic_field_z,latitude(degree),longitude(degree),altitude(meter),speed(m/s),course(degree),timestamp
,,,,,,,,,,,,,,,,29.720029,-95.398964,10.326840,-1.000000,-1.000000,1465826347.41
,,,,,,,,,,,,,,,,29.719949,-95.399105,10.530075,-1.000000,-1.000000,1465826587.00
1465826358.83,-0.588908,-0.106814,-0.265231,-0.004513,0.102177,0.000456,-0.552288,0.106611,-0.826809,0.881939,-0.080152,-0.108357,30.013227,237.749802,-2.272025,,,,,,
1465826358.84,-0.574193,-0.106214,-0.263806,-0.005560,0.107583,-0.000636,-0.540096,0.106015,-0.834899,0.885052,-0.080914,-0.103882,30.013227,237.749802,-2.272025,,,,,,
,,,,,,,,,,,,,,,,29.720029,-95.398964,10.326840,-1.000000,-1.000000,1465826347.41
1465826358.85,-0.559906,-0.105700,-0.262398,-0.000295,0.053521,-0.000285,-0.528143,0.105503,-0.842576,0.885107,-0.076542,-0.096877,30.013227,237.749802,-2.272025,,,,,,
1465826358.86,-0.546575,-0.105070,-0.260952,0.003871,-0.021786,0.003391,-0.516898,0.104877,-0.849598,0.870963,-0.077884,-0.097011,30.963169,237.632675,-1.707509,,,,,,
1465826358.87,-0.533618,-0.104400,-0.259527,0.004959,-0.010016,0.003325,-0.505882,0.104210,-0.856285,0.849449,-0.076866,-0.088418,30.963169,237.632675,-1.707509,,,,,,
1465826358.88,-0.520069,-0.103716,-0.258164,-0.002378,0.071842,0.000682,-0.494269,0.103530,-0.863122,0.837272,-0.078078,-0.069892,30.963169,237.632675,-1.707509,,,,,,
1465826358.89,-0.505851,-0.103028,-0.256864,-0.005466,0.146264,-0.001910,-0.481982,0.102846,-0.870124,0.827304,-0.078523,-0.062035,31.423893,237.573486,-1.513421,,,,,,
1465826358.90,-0.491487,-0.102348,-0.255616,-0.007566,0.161222,-0.003064,-0.469467,0.102170,-0.877019,0.818009,-0.078045,-0.060497,31.423893,237.573486,-1.513421,,,,,,
1465826358.91,-0.477277,-0.101690,-0.254363,-0.005439,0.155993,-0.000893,-0.456989,0.101515,-0.883660,0.811405,-0.076032,-0.055427,31.423893,237.573486,-1.513421,,,,,,
1465826358.92,-0.463052,-0.101066,-0.253125,-0.009685,0.161389,0.000139,-0.444402,0.100894,-0.890128,0.806050,-0.075626,-0.041223,32.247231,237.466293,-0.890690,,,,,,
1465826358.93,-0.449024,-0.100453,-0.251902,-0.009681,0.161469,0.002274,-0.431898,0.100284,-0.896330,0.794233,-0.074558,-0.039614,32.247231,237.466293,-0.890690,,,,,,
1465826358.94,-0.435299,-0.099865,-0.250667,-0.011855,0.123325,0.004646,-0.419581,0.099699,-0.902226,0.788630,-0.074094,-0.030757,32.247231,237.466293,-0.890690,,,,,,
1465826358.95,-0.422912,-0.099257,-0.249433,0.000770,-0.004014,0.005463,-0.408397,0.099094,-0.907410,0.775188,-0.069645,-0.040161,32.655743,237.411591,-0.504322,,,,,,
1465826358.96,-0.411885,-0.098496,-0.248170,0.008100,-0.107991,0.006129,-0.398397,0.098337,-0.911926,0.761404,-0.070963,-0.040451,32.655743,237.411591,-0.504322,,,,,,
1465826358.97,-0.401197,-0.097757,-0.246926,0.010246,-0.102598,0.005039,-0.388656,0.097601,-0.916199,0.748824,-0.068167,-0.022445,32.655743,237.411591,-0.504322,,,,,,
1465826358.98,-0.389977,-0.097017,-0.245743,0.008232,-0.022869,0.000285,-0.378380,0.096864,-0.920568,0.736488,-0.067918,-0.008783,33.474796,237.298035,-0.006862,,,,,,
1465826358.99,-0.378068,-0.096250,-0.244655,0.003039,0.068540,-0.004546,-0.367417,0.096101,-0.925078,0.717073,-0.068635,-0.002428,33.474796,237.298035,-0.006862,,,,,,
1465826359.00,-0.365720,-0.095470,-0.243607,-0.001137,0.133382,-0.001757,-0.355993,0.095325,-0.929614,0.696996,-0.069080,-0.003720,33.474796,237.298035,-0.006862,,,,,,
1465826359.01,-0.353245,-0.094746,-0.242586,-0.006439,0.148321,0.000278,-0.344393,0.094604,-0.934047,0.686678,-0.068252,-0.005238,33.832489,237.247192,0.229540,,,,,,
1465826359.02,-0.340881,-0.094051,-0.241570,-0.004318,0.135655,0.000365,-0.332840,0.093912,-0.938295,0.685516,-0.066172,-0.001936,33.832489,237.247192,0.229540,,,,,,
1465826359.03,-0.328789,-0.093383,-0.240557,-0.003286,0.103878,0.000571,-0.321490,0.093247,-0.942310,0.687320,-0.064988,0.006077,33.832489,237.247192,0.229540,,,,,,
1465826359.04,-0.317241,-0.092693,-0.239542,0.000920,0.054050,-0.000171,-0.310607,0.092560,-0.946021,0.681640,-0.063782,0.011710,34.476917,237.152695,0.926600,,,,,,
1465826359.05,-0.306338,-0.091945,-0.238534,0.002985,-0.001092,0.001247,-0.300295,0.091816,-0.949417,0.674990,-0.064472,0.015091,34.476917,237.152695,0.926600,,,,,,
1465826359.06,-0.296129,-0.091157,-0.237517,0.008251,-0.050927,0.002634,-0.290608,0.091031,-0.952502,0.663915,-0.063382,0.014224,34.476917,237.152695,0.926600,,,,,,
,,,,,,,,,,,,,,,,29.721499,-95.401382,10.326840,-1.000000,-1.000000,1465826588.99
1465826359.07,-0.286412,-0.090345,-0.236510,0.009286,-0.078464,0.003878,-0.281360,0.090222,-0.955352,0.651721,-0.063275,0.018553,34.800377,237.104095,1.224781,,,,,,
,,,,,,,,,,,,,,,,29.721550,-95.401465,10.326840,-1.000000,-1.000000,1465826589.00
1465826359.09,-0.267858,-0.088631,-0.234555,0.010342,-0.096371,0.004002,-0.263628,0.088515,-0.960555,0.627367,-0.064070,0.024581,34.800377,237.104095,1.224781,,,,,,
1465826359.08,-0.277008,-0.089513,-0.235519,0.010340,-0.092195,0.003970,-0.272384,0.089394,-0.958027,0.641937,-0.062630,0.020649,34.800377,237.104095,1.224781,,,,,,
1465826359.10,-0.258955,-0.087756,-0.233622,0.010341,-0.102671,0.004047,-0.255085,0.087644,-0.962938,0.614262,-0.062451,0.024614,35.426044,237.009552,1.543788,,,,,,
1465826359.11,-0.250200,-0.086879,-0.232718,0.008119,-0.095261,0.003912,-0.246664,0.086770,-0.965209,0.602026,-0.062356,0.026168,35.426044,237.009552,1.543788,,,,,,
1465826359.12,-0.241419,-0.086019,-0.231827,0.008148,-0.077147,0.003803,-0.238197,0.085913,-0.967409,0.591957,-0.061377,0.030138,35.426044,237.009552,1.543788,,,,,,
,,,,,,,,,,,,,,,,29.720017,-95.399026,10.931576,-1.000000,-1.000000,1465826589.18
1465826359.13,-0.232539,-0.085224,-0.230967,0.007111,-0.060095,0.003700,-0.229613,0.085121,-0.969553,0.584914,-0.058479,0.034280,35.711014,236.966064,1.653800,,,,,,
1465826359.15,-0.215155,-0.083621,-0.229281,0.008148,-0.091826,0.003909,-0.212753,0.083523,-0.973530,0.573470,-0.057568,0.038868,35.711014,236.966064,1.653800,,,,,,
1465826359.14,-0.223664,-0.084420,-0.230118,0.007118,-0.061092,0.002646,-0.221014,0.084320,-0.971619,0.582037,-0.058624,0.038040,35.711014,236.966064,1.653800,,,,,,
1465826359.16,-0.207207,-0.082814,-0.228441,0.012353,-0.135307,0.006319,-0.205022,0.082719,-0.975256,0.566228,-0.055451,0.036123,36.259712,236.880325,1.966029,,,,,,
1465826359.17,-0.199778,-0.081985,-0.227606,0.013374,-0.174534,0.006570,-0.197785,0.081893,-0.976819,0.558442,-0.055739,0.037549,36.259712,236.880325,1.966029,,,,,,
1465826359.18,-0.192757,-0.081184,-0.226788,0.014411,-0.201021,0.006742,-0.190935,0.081095,-0.978247,0.551637,-0.053278,0.039526,36.536057,236.837051,2.060020,,,,,,
1465826359.19,-0.186143,-0.080305,-0.225979,0.016520,-0.222199,0.006881,-0.184474,0.080218,-0.979558,0.540080,-0.054736,0.040685,36.536057,236.837051,2.060020,,,,,,
1465826359.20,-0.179843,-0.079380,-0.225182,0.018641,-0.231703,0.008011,-0.178312,0.079297,-0.980774,0.527357,-0.055509,0.039367,36.536057,236.837051,2.060020,,,,,,
1465826359.21,-0.173679,-0.078446,-0.224410,0.016516,-0.232707,0.008019,-0.172276,0.078366,-0.981927,0.518467,-0.055890,0.042306,36.808655,236.794571,2.091081,,,,,,
1465826359.22,-0.167594,-0.077570,-0.223652,0.016533,-0.223095,0.007963,-0.166309,0.077492,-0.983024,0.508777,-0.052712,0.042411,36.808655,236.794571,2.091081,,,,,,
1465826359.23,-0.153574,-0.075986,-0.222307,0.017606,-0.225111,0.007985,-0.152530,0.075913,-0.985379,0.495105,-0.052140,0.043927,36.808655,236.794571,2.091081,,,,,,
1465826359.24,-0.147971,-0.075119,-0.221604,0.018656,-0.240985,0.008089,-0.147016,0.075049,-0.986283,0.490095,-0.051031,0.044282,36.808655,236.794571,2.091081,,,,,,
1465826359.25,-0.142683,-0.074278,-0.220905,0.019687,-0.269604,0.009338,-0.141807,0.074210,-0.987109,0.487480,-0.049155,0.043536,37.421997,236.698029,2.134944,,,,,,
1465826359.26,-0.137816,-0.073443,-0.220197,0.019647,-0.303532,0.010619,-0.137009,0.073376,-0.987848,0.480882,-0.047894,0.043375,37.421997,236.698029,2.134944,,,,,,
1465826359.27,-0.133604,-0.072535,-0.219492,0.029165,-0.357641,0.012036,-0.132857,0.072471,-0.988482,0.472807,-0.048393,0.041461,37.421997,236.698029,2.134944,,,,,,
1465826359.28,-0.130001,-0.071589,-0.218799,0.028058,-0.396874,0.011220,-0.129303,0.071528,-0.989022,0.466721,-0.048533,0.040948,37.922020,236.619827,1.975924,,,,,,
1465826359.29,-0.126884,-0.070635,-0.218112,0.032269,-0.437178,0.012545,-0.126228,0.070577,-0.989487,0.463890,-0.048283,0.041032,37.922020,236.619827,1.975924,,,,,,
1465826359.30,-0.124603,-0.069679,-0.217463,0.032221,-0.478541,0.012808,-0.123980,0.069623,-0.989839,0.450197,-0.047665,0.034700,37.922020,236.619827,1.975924,,,,,,
1465826359.31,-0.123086,-0.068718,-0.216820,0.036429,-0.520974,0.014146,-0.122486,0.068664,-0.990092,0.435672,-0.045700,0.033046,38.174332,236.581085,1.739971,,,,,,
1465826359.32,-0.122207,-0.067705,-0.216210,0.038536,-0.544289,0.013233,-0.121624,0.067653,-0.990268,0.415294,-0.047161,0.029071,38.174332,236.581085,1.739971,,,,,,
1465826359.33,-0.121078,-0.066725,-0.215622,0.031138,-0.506015,0.011924,-0.120513,0.066675,-0.990470,0.394332,-0.045160,0.030799,38.414433,236.544510,1.394004,,,,,,
1465826359.34,-0.125496,-0.066442,-0.215454,0.030180,-0.418949,0.012441,-0.124890,0.066393,-0.989947,0.391797,-0.044328,0.037234,38.414433,236.544510,1.394004,,,,,,
1465826359.35,-0.128828,-0.066222,-0.215327,0.022873,-0.307448,0.008542,-0.128190,0.066174,-0.989539,0.391053,-0.043240,0.036918,38.414433,236.544510,1.394004,,,,,,
1465826359.36,-0.131169,-0.066051,-0.215234,0.015542,-0.214000,0.005819,-0.130508,0.066003,-0.989248,0.398346,-0.044213,0.033422,38.414433,236.544510,1.394004,,,,,,
1465826359.37,-0.132895,-0.065916,-0.215149,0.014543,-0.157729,0.007594,-0.132217,0.065868,-0.989030,0.427154,-0.046962,0.039048,38.695435,236.502197,0.538773,,,,,,
1465826359.38,-0.133991,-0.065818,-0.215094,0.007164,-0.108865,0.000894,-0.133301,0.065771,-0.988891,0.486268,-0.031912,0.071532,38.695435,236.502197,0.538773,,,,,,
1465826359.39,-0.136920,-0.065648,-0.214964,0.027040,-0.372234,0.014274,-0.136198,0.065601,-0.988507,0.433989,-0.052417,-0.017779,38.695435,236.502197,0.538773,,,,,,
1465826359.40,-0.142616,-0.065275,-0.214776,0.041634,-0.624945,0.013745,-0.141831,0.065229,-0.987739,0.436798,-0.038632,0.009575,38.764904,236.491425,0.078555,,,,,,
1465826359.41,-0.149542,-0.064831,-0.214534,0.047915,-0.703533,0.018502,-0.148672,0.064786,-0.986762,0.436636,-0.045071,0.025733,38.764904,236.491425,0.078555,,,,,,
1465826359.42,-0.156313,-0.064405,-0.214293,0.043714,-0.661053,0.016102,-0.155355,0.064360,-0.985760,0.429632,-0.047896,0.028881,38.764904,236.491425,0.078555,,,,,,
1465826359.43,-0.162411,-0.063998,-0.214062,0.044858,-0.596287,0.016762,-0.161367,0.063955,-0.984820,0.430868,-0.037954,0.041278,38.834286,236.479248,-0.617983,,,,,,
1465826359.45,-0.174721,-0.063214,-0.213547,0.046873,-0.682303,0.020496,-0.173486,0.063172,-0.982808,0.479883,-0.038468,0.027074,38.834286,236.479248,-0.617983,,,,,,
1465826359.44,-0.168216,-0.063617,-0.213813,0.040612,-0.584608,0.017749,-0.167085,0.063574,-0.983891,0.455125,-0.042288,0.031437,38.834286,236.479248,-0.617983,,,,,,
1465826359.46,-0.182942,-0.062708,-0.213210,0.058333,-0.878751,0.024933,-0.181566,0.062667,-0.981380,0.516725,-0.036635,0.032604,38.969238,236.449280,-2.015085,,,,,,
1465826359.47,-0.194291,-0.062014,-0.212785,0.082358,-1.245091,0.029384,-0.192700,0.061974,-0.979299,0.471356,-0.037423,-0.017238,38.969238,236.449280,-2.015085,,,,,,
1465826359.48,-0.210178,-0.061104,-0.212318,0.105242,-1.682553,0.027892,-0.208245,0.061066,-0.976169,0.303505,-0.055787,-0.123731,38.969238,236.449280,-2.015085,,,,,,
1465826359.49,-0.225836,-0.060135,-0.211748,0.101244,-1.465958,0.031852,-0.223517,0.060098,-0.972846,0.264914,-0.048181,-0.031381,39.043892,236.425323,-3.092191,,,,,,
1465826359.51,-0.233066,-0.059624,-0.211505,-0.016685,0.397632,-0.004436,-0.230551,0.059589,-0.971234,0.221258,-0.050632,0.039441,39.043892,236.425323,-3.092191,,,,,,
1465826359.50,-0.234503,-0.059607,-0.211488,0.041641,-0.630237,0.007391,-0.231947,0.059571,-0.970903,0.228163,-0.055177,0.022660,39.043892,236.425323,-3.092191,,,,,,
1465826359.52,-0.222804,-0.060155,-0.211830,-0.069943,1.206791,-0.023401,-0.220566,0.060118,-0.973518,0.294968,-0.053679,0.036857,39.057568,236.385513,-5.225837,,,,,,
1465826359.53,-0.207878,-0.060953,-0.212286,-0.090802,1.549772,-0.028767,-0.206001,0.060915,-0.976654,0.384971,-0.042986,0.015701,39.057568,236.385513,-5.225837,,,,,,
1465826359.54,-0.193040,-0.061768,-0.212785,-0.087745,1.432984,-0.032289,-0.191477,0.061729,-0.979554,0.419504,-0.043510,-0.015426,39.061607,236.410568,-3.893322,,,,,,
1465826359.55,-0.181396,-0.062379,-0.213154,-0.059466,1.070875,-0.022539,-0.180052,0.062338,-0.981680,0.433286,-0.039008,-0.028452,39.061607,236.410568,-3.893322,,,,,,
1465826359.56,-0.173207,-0.062788,-0.213413,-0.040717,0.745942,-0.016224,-0.172003,0.062747,-0.983096,0.443625,-0.041110,-0.010068,39.061607,236.410568,-3.893322,,,,,,
1465826359.57,-0.167176,-0.063059,-0.213594,-0.026035,0.570731,-0.012982,-0.166068,0.063017,-0.984099,0.433234,-0.038008,0.014281,39.061607,236.410568,-3.893322,,,,,,
1465826359.58,-0.161787,-0.063283,-0.213772,-0.026071,0.539942,-0.013853,-0.160759,0.063241,-0.984966,0.419426,-0.042473,0.021266,38.966255,236.451828,-1.755157,,,,,,
1465826359.59,-0.156057,-0.063537,-0.213934,-0.027078,0.589841,-0.012038,-0.155110,0.063494,-0.985855,0.399251,-0.040285,0.029495,38.966255,236.451828,-1.755157,,,,,,
1465826359.60,-0.149516,-0.063829,-0.214127,-0.033352,0.675859,-0.015777,-0.148656,0.063786,-0.986830,0.406469,-0.044788,0.034300,38.966255,236.451828,-1.755157,,,,,,
1465826359.61,-0.142370,-0.064165,-0.214312,-0.036491,0.724695,-0.012893,-0.141597,0.064121,-0.987845,0.418621,-0.039570,0.036780,38.921696,236.462677,-1.196816,,,,,,
1465826359.62,-0.135303,-0.064493,-0.214493,-0.034400,0.693901,-0.012698,-0.134610,0.064448,-0.988801,0.440076,-0.045527,0.032120,38.921696,236.462677,-1.196816,,,,,,
1465826359.63,-0.129136,-0.064779,-0.214633,-0.028153,0.584527,-0.009877,-0.128508,0.064734,-0.989594,0.457426,-0.041846,0.033875,38.921696,236.462677,-1.196816,,,,,,
1465826359.64,-0.124646,-0.064976,-0.214744,-0.018803,0.400827,-0.007651,-0.124061,0.064930,-0.990148,0.458228,-0.044132,0.021886,38.814140,236.483322,0.165608,,,,,,
1465826359.65,-0.122111,-0.065059,-0.214790,-0.005210,0.207563,-0.003232,-0.121550,0.065014,-0.990454,0.451704,-0.041881,0.019461,38.814140,236.483322,0.165608,,,,,,
1465826359.66,-0.121081,-0.065054,-0.214793,0.002073,0.076949,0.000787,-0.120530,0.065008,-0.990579,0.438020,-0.043340,0.027398,38.814140,236.483322,0.165608,,,,,,
1465826359.68,-0.120124,-0.064962,-0.214768,0.005249,0.062082,0.000884,-0.119583,0.064916,-0.990700,0.422683,-0.042639,0.042305,38.783325,236.487885,0.508945,,,,,,
1465826359.67,-0.120661,-0.065014,-0.214778,0.004152,0.036600,0.001043,-0.120114,0.064968,-0.990632,0.426968,-0.041530,0.035264,38.783325,236.487885,0.508945,,,,,,
1465826359.69,-0.119280,-0.064937,-0.214758,0.002090,0.090752,0.000701,-0.118746,0.064891,-0.990802,0.429598,-0.040737,0.046313,38.783325,236.487885,0.508945,,,,,,
1465826359.70,-0.118455,-0.064914,-0.214731,0.004192,0.071633,0.002952,-0.117929,0.064868,-0.990901,0.438883,-0.040927,0.042460,38.785820,236.487289,0.589044,,,,,,
1465826359.71,-0.118389,-0.064856,-0.214690,0.008333,-0.021808,0.003542,-0.117865,0.064811,-0.990912,0.445196,-0.040137,0.037147,38.785820,236.487289,0.589044,,,,,,
1465826359.72,-0.119674,-0.064688,-0.214595,0.019861,-0.164104,0.007639,-0.119139,0.064643,-0.990771,0.435377,-0.040717,0.023593,38.785820,236.487289,0.589044,,,,,,
1465826359.73,-0.122116,-0.064437,-0.214493,0.028254,-0.267097,0.006165,-0.121560,0.064393,-0.990493,0.438378,-0.040131,0.031906,38.798801,236.485107,0.602480,,,,,,
1465826359.74,-0.125203,-0.064154,-0.214355,0.029246,-0.318076,0.010743,-0.124620,0.064110,-0.990131,0.425706,-0.040169,0.032062,38.798801,236.485107,0.602480,,,,,,
1465826359.75,-0.128481,-0.063858,-0.214197,0.031360,-0.328698,0.011876,-0.127867,0.063814,-0.989736,0.420576,-0.040026,0.035101,38.798801,236.485107,0.602480,,,,,,
1465826359.76,-0.131653,-0.063555,-0.214054,0.031383,-0.313827,0.009654,-0.131008,0.063512,-0.989345,0.419888,-0.040807,0.037776,38.887993,236.471222,-0.039306,,,,,,
1465826359.77,-0.134809,-0.063268,-0.213907,0.031373,-0.320201,0.010758,-0.134133,0.063226,-0.988944,0.416786,-0.043405,0.031501,38.887993,236.471222,-0.039306,,,,,,
1465826359.78,-0.138082,-0.062963,-0.213751,0.033484,-0.332946,0.011905,-0.137371,0.062921,-0.988519,0.414638,-0.041788,0.027124,38.887993,236.471222,-0.039306,,,,,,
1465826359.79,-0.129506,-0.061529,-0.212816,0.032406,-0.345613,0.015182,-0.128900,0.061490,-0.989749,0.417062,-0.044095,0.030109,38.936035,236.462921,-0.433439,,,,,,
1465826359.80,-0.121303,-0.060368,-0.211926,0.038764,-0.379503,0.012212,-0.120785,0.060332,-0.990844,0.419781,-0.035048,0.039290,38.936035,236.462921,-0.433439,,,,,,
1465826359.81,-0.115107,-0.058978,-0.211084,0.040765,-0.479254,0.018167,-0.114654,0.058944,-0.991655,0.400802,-0.041671,0.022386,39.139999,236.428711,-0.670732,,,,,,
1465826359.82,-0.110858,-0.057688,-0.210298,0.049166,-0.582176,0.015631,-0.110447,0.057656,-0.992208,0.405567,-0.038476,0.026479,39.139999,236.428711,-0.670732,,,,,,
1465826359.83,-0.109625,-0.056482,-0.209600,0.051161,-0.683012,0.022656,-0.109231,0.056452,-0.992412,0.384362,-0.038751,0.023326,39.139999,236.428711,-0.670732,,,,,,
1465826359.84,-0.110673,-0.055348,-0.208971,0.058539,-0.753039,0.018847,-0.110279,0.055319,-0.992360,0.393924,-0.039984,0.028340,39.139999,236.428711,-0.670732,,,,,,
1465826359.85,-0.111450,-0.054149,-0.208263,0.061622,-0.834766,0.025753,-0.111056,0.054123,-0.992339,0.378070,-0.035995,0.030120,39.769421,236.321701,-1.168912,,,,,,
1465826359.86,-0.118569,-0.053340,-0.207836,0.068971,-0.923939,0.023127,-0.118123,0.053315,-0.991567,0.378682,-0.038483,0.019170,39.769421,236.321701,-1.168912,,,,,,
1465826359.87,-0.127393,-0.052546,-0.207442,0.072051,-1.011010,0.026870,-0.126873,0.052522,-0.990527,0.357876,-0.038728,0.010089,39.769421,236.321701,-1.168912,,,,,,
1465826359.88,-0.137804,-0.051848,-0.207070,0.074140,-1.044986,0.026020,-0.137184,0.051824,-0.989189,0.345558,-0.041540,0.002296,40.128902,236.246429,-2.866984,,,,,,
1465826359.89,-0.147850,-0.051172,-0.206706,0.071015,-0.986591,0.027780,-0.147119,0.051150,-0.987795,0.346093,-0.041674,0.008898,40.128902,236.246429,-2.866984,,,,,,
1465826359.90,-0.156776,-0.050570,-0.206360,0.061600,-0.858099,0.023771,-0.155935,0.050548,-0.986473,0.352407,-0.039791,0.016945,40.128902,236.246429,-2.866984,,,,,,
1465826359.91,-0.164669,-0.050065,-0.206052,0.054250,-0.774216,0.024302,-0.163720,0.050044,-0.985237,0.365594,-0.037822,0.016975,40.185558,236.219727,-4.035488,,,,,,
1465826359.92,-0.172449,-0.049550,-0.205717,0.056358,-0.791206,0.024411,-0.171385,0.049529,-0.983958,0.381483,-0.037307,0.013423,40.185558,236.219727,-4.035488,,,,,,
1465826359.93,-0.181396,-0.048974,-0.205348,0.065752,-0.939866,0.026417,-0.180186,0.048954,-0.982414,0.397426,-0.033177,0.009055,40.185558,236.219727,-4.035488,,,,,,
1465826359.94,-0.192686,-0.048262,-0.204899,0.082454,-1.201087,0.031265,-0.191273,0.048243,-0.980351,0.409672,-0.033595,-0.006069,40.248772,236.168442,-5.952163,,,,,,
1465826359.95,-0.206793,-0.047395,-0.204368,0.099134,-1.479297,0.036220,-0.205092,0.047377,-0.977595,0.406370,-0.036314,-0.024083,40.248772,236.168442,-5.952163,,,,,,
1465826359.96,-0.222834,-0.046430,-0.203745,0.109579,-1.634337,0.041461,-0.220756,0.046414,-0.974224,0.376793,-0.037624,-0.029621,40.248772,236.168442,-5.952163,,,,,,
1465826359.97,-0.238869,-0.045460,-0.203081,0.107510,-1.584434,0.042210,-0.236359,0.045444,-0.970602,0.375321,-0.035969,-0.006326,40.233871,236.130463,-7.386672,,,,,,
1465826359.98,-0.253987,-0.044571,-0.202443,0.100171,-1.496295,0.039521,-0.251015,0.044556,-0.966957,0.375985,-0.034562,0.005119,40.233871,236.130463,-7.386672,,,,,,
1465826359.99,-0.268764,-0.043705,-0.201780,0.101248,-1.483560,0.041571,-0.265287,0.043691,-0.963179,0.374585,-0.037710,-0.010896,40.233871,236.130463,-7.386672,,,,,,
1465826360.00,-0.284099,-0.042836,-0.201098,0.102215,-1.561072,0.042058,-0.280035,0.042823,-0.959034,0.395575,-0.034934,-0.020397,40.055012,236.026138,-10.870749,,,,,,
1465826360.01,-0.300967,-0.041895,-0.200366,0.113708,-1.736275,0.043169,-0.296184,0.041883,-0.954212,0.388698,-0.037855,-0.041683,40.055012,236.026138,-10.870749,,,,,,
1465826360.02,-0.319371,-0.040874,-0.199533,0.126305,-1.869024,0.050400,-0.313708,0.040863,-0.948640,0.372515,-0.038757,-0.058822,39.875408,235.967163,-12.663980,,,,,,
1465826360.03,-0.338215,-0.039844,-0.198641,0.125215,-1.889198,0.050526,-0.331541,0.039833,-0.942600,0.392011,-0.035073,-0.033444,39.875408,235.967163,-12.663980,,,,,,
1465826360.04,-0.357320,-0.038813,-0.197733,0.129430,-1.926360,0.049699,-0.349501,0.038803,-0.936132,0.404707,-0.036499,-0.030970,39.875408,235.967163,-12.663980,,,,,,
1465826360.05,-0.377383,-0.037765,-0.196734,0.136721,-2.045304,0.056839,-0.368226,0.037756,-0.928969,0.418412,-0.033606,-0.038056,39.598148,235.893616,-14.734446,,,,,,
1465826360.06,-0.399508,-0.036612,-0.195623,0.153456,-2.282100,0.060469,-0.388705,0.036604,-0.920635,0.446215,-0.032224,-0.045597,39.598148,235.893616,-14.734446,,,,,,
1465826360.07,-0.424778,-0.035348,-0.194317,0.174302,-2.626158,0.071164,-0.411861,0.035341,-0.910561,0.466701,-0.028459,-0.047706,39.598148,235.893616,-14.734446,,,,,,
1465826360.08,-0.453981,-0.033908,-0.192779,0.202536,-3.024369,0.081140,-0.438295,0.033901,-0.898192,0.482576,-0.028698,-0.063448,38.664333,235.703094,-19.494669,,,,,,
1465826360.09,-0.487150,-0.032352,-0.190977,0.226504,-3.428945,0.090088,-0.467865,0.032346,-0.883208,0.515884,-0.024854,-0.039232,38.664333,235.703094,-19.494669,,,,,,
1465826360.10,-0.525250,-0.030592,-0.188984,0.260855,-3.974825,0.092393,-0.501195,0.030588,-0.864794,0.500233,-0.030588,-0.082197,38.664333,235.703094,-19.494669,,,,,,
1465826360.11,-0.567993,-0.028702,-0.186568,0.291192,-4.378372,0.111985,-0.537719,0.028698,-0.842635,0.424911,-0.030056,-0.097306,38.664333,235.703094,-19.494669,,,,,,
1465826360.12,-0.612977,-0.026902,-0.183996,0.293125,-4.535520,0.112973,-0.575097,0.026898,-0.817643,0.456780,-0.036862,-0.074447,36.175480,235.343536,-27.123304,,,,,,
1465826360.13,-0.659204,-0.025157,-0.181228,0.309981,-4.665092,0.122318,-0.612294,0.025154,-0.790230,0.437947,-0.024254,-0.054405,36.175480,235.343536,-27.123304,,,,,,
1465826360.14,-0.707279,-0.023477,-0.178264,0.318237,-4.877450,0.121529,-0.649589,0.023475,-0.759923,0.450279,-0.036644,-0.075313,34.031841,235.085983,-31.738583,,,,,,
1465826360.15,-0.758646,-0.021812,-0.175019,0.350779,-5.228956,0.135475,-0.687775,0.021811,-0.725596,0.413224,-0.028128,-0.116659,34.031841,235.085983,-31.738583,,,,,,
1465826360.16,-0.813037,-0.020292,-0.171448,0.362122,-5.510362,0.145767,-0.726229,0.020290,-0.687154,0.426729,-0.038708,-0.099193,34.031841,235.085983,-31.738583,,,,,,
1465826360.17,-0.870721,-0.018787,-0.167597,0.392541,-5.878818,0.145979,-0.764659,0.018786,-0.644161,0.478236,-0.025042,-0.092396,31.225330,234.778305,-36.538311,,,,,,
1465826360.18,-0.932833,-0.017513,-0.163381,0.416435,-6.328016,0.164787,-0.803187,0.017512,-0.595469,0.416682,-0.039286,-0.118749,31.225330,234.778305,-36.538311,,,,,,
1465826360.19,-0.999754,-0.016384,-0.158768,0.453071,-6.822846,0.172184,-0.841225,0.016383,-0.540436,0.434594,-0.021541,-0.126022,31.225330,234.778305,-36.538311,,,,,,
1465826360.20,-1.070976,-0.015535,-0.153797,0.477050,-7.217869,0.182137,-0.877563,0.015534,-0.479210,0.384826,-0.045060,-0.126854,22.571497,233.939865,-46.835724,,,,,,
1465826360.21,-1.145717,-0.014979,-0.148492,0.505354,-7.561925,0.190710,-0.910904,0.014979,-0.412346,0.364273,-0.021723,-0.122672,22.571497,233.939865,-46.835724,,,,,,
1465826360.22,-1.223250,-0.014879,-0.142965,0.522050,-7.818914,0.200853,-0.940107,0.014878,-0.340554,0.318403,-0.045869,-0.121604,22.571497,233.939865,-46.835724,,,,,,
1465826360.23,-1.303165,-0.015178,-0.137276,0.530267,-8.067366,0.197098,-0.964289,0.015178,-0.264418,0.292978,-0.039393,-0.098055,16.202393,233.388168,-51.945778,,,,,,
1465826360.24,-1.385442,-0.015984,-0.131444,0.558708,-8.286155,0.214465,-0.982745,0.015983,-0.184271,0.250125,-0.045112,-0.148859,16.202393,233.388168,-51.945778,,,,,,
1465826360.25,-1.470012,-0.017382,-0.125519,0.564768,-8.533585,0.225603,-0.994775,0.017382,-0.100599,0.203622,-0.041002,-0.077654,8.583688,232.769180,-56.353786,,,,,,
1465826360.26,-1.557385,-0.019274,-0.119579,0.591033,-8.826634,0.220016,-0.999724,0.019273,-0.013408,0.210845,-0.053758,-0.147862,8.583688,232.769180,-56.353786,,,,,,
1465826360.27,-1.647755,-0.021840,-0.113543,0.611921,-9.120817,0.241042,-0.996802,0.021838,0.076864,0.125327,-0.046145,-0.094442,8.583688,232.769180,-56.353786,,,,,,
1465826360.28,-1.741033,-0.025069,-0.107727,0.622194,-9.405410,0.251352,-0.985235,0.025066,0.169363,0.110983,-0.055874,-0.104620,8.583688,232.769180,-56.353786,,,,,,
1465826360.29,-1.837150,-0.028771,-0.101990,0.644201,-9.715416,0.235223,-0.964338,0.028767,0.263107,0.079008,-0.049183,-0.083465,-9.865667,231.399399,-61.545944,,,,,,
1465826360.31,-2.033009,-0.038166,-0.091504,0.645283,-9.672996,0.253054,-0.894416,0.038157,0.445605,-0.202920,-0.063181,-0.052783,-9.865667,231.399399,-61.545944,,,,,,
1465826360.30,-1.935677,-0.033186,-0.096471,0.665254,-9.889595,0.248045,-0.933652,0.033180,0.356642,-0.094348,-0.075141,-0.127836,-9.865667,231.399399,-61.545944,,,,,,
1465826360.32,-2.126247,-0.043265,-0.087282,0.611823,-9.202570,0.239425,-0.848868,0.043252,0.526833,-0.255945,-0.077828,-0.131645,-31.203508,230.027771,-59.535561,,,,,,
1465826360.33,-2.212761,-0.048511,-0.083767,0.571201,-8.482648,0.234870,-0.799978,0.048492,0.598066,-0.336984,-0.077407,-0.045637,-31.203508,230.027771,-59.535561,,,,,,
1465826360.34,-2.293230,-0.053584,-0.081073,0.520781,-7.954871,0.218736,-0.749122,0.053558,0.660263,-0.278054,-0.078217,-0.023377,-31.203508,230.027771,-59.535561,,,,,,
1465826360.35,-2.372139,-0.058781,-0.078763,0.529335,-7.928328,0.217514,-0.694541,0.058747,0.717050,-0.236947,-0.064286,-0.020075,-40.522865,229.503540,-55.829605,,,,,,
1465826360.36,-2.454472,-0.064325,-0.076805,0.551122,-8.377493,0.224610,-0.633002,0.064281,0.771477,-0.246942,-0.067241,-0.009514,-40.522865,229.503540,-55.829605,,,,,,
1465826360.37,-2.542339,-0.070266,-0.075103,0.586660,-8.920069,0.219533,-0.562634,0.070208,0.823719,-0.323123,-0.083300,-0.116352,-40.522865,229.503540,-55.829605,,,,,,
1465826360.38,-2.631022,-0.076608,-0.073936,0.595325,-8.775715,0.235667,-0.487242,0.076533,0.869907,-0.493318,-0.100429,-0.125659,-55.257225,228.823349,-44.915947,,,,,,
1465826360.39,-2.712786,-0.082362,-0.073344,0.520822,-7.954815,0.198511,-0.414377,0.082268,0.906380,-0.478796,-0.082375,0.016213,-55.257225,228.823349,-44.915947,,,,,,
1465826360.40,-2.784870,-0.087577,-0.073304,0.466710,-6.959870,0.189024,-0.347867,0.087466,0.933455,-0.583911,-0.105471,0.061723,-55.257225,228.823349,-44.915947,,,,,,
1465826360.41,-2.847856,-0.092049,-0.073550,0.400764,-6.088044,0.164330,-0.288306,0.091919,0.953116,-0.617899,-0.083344,-0.009772,-55.257225,228.823349,-44.915947,,,,,,
1465826360.43,-2.950583,-0.099327,-0.074622,0.304780,-4.556807,0.129084,-0.188914,0.099164,0.976974,-0.696904,-0.100308,-0.084792,-65.108414,228.530060,-31.077801,,,,,,
1465826360.42,-2.902921,-0.095942,-0.074040,0.350664,-5.313916,0.141330,-0.235325,0.095795,0.967184,-0.660518,-0.105088,-0.045584,-65.108414,228.530060,-31.077801,,,,,,
1465826360.44,-2.988647,-0.102026,-0.075218,0.236912,-3.528877,0.097023,-0.151557,0.101849,0.983187,-0.710503,-0.112759,-0.106036,-67.394356,228.520645,-25.830742,,,,,,
1465826360.45,-3.015530,-0.103930,-0.075724,0.163828,-2.407520,0.069693,-0.125050,0.103743,0.986712,-0.677562,-0.103819,-0.059954,-67.394356,228.520645,-25.830742,,,,,,
1465826360.46,-3.032228,-0.105111,-0.076123,0.098006,-1.429526,0.048591,-0.108545,0.104918,0.988540,-0.665900,-0.103102,-0.081603,-68.545647,228.538101,-22.422138,,,,,,
1465826360.47,-3.040079,-0.105720,-0.076330,0.044817,-0.577872,0.020844,-0.100773,0.105523,0.989298,-0.631374,-0.099008,-0.094385,-68.545647,228.538101,-22.422138,,,,,,
1465826360.48,-3.040374,-0.105739,-0.076488,-0.017097,0.145244,0.017311,-0.100481,0.105542,0.989325,-0.587110,-0.093914,-0.110266,-68.545647,228.538101,-22.422138,,,,,,
1465826360.49,-3.034309,-0.105399,-0.076465,-0.039727,0.734632,-0.014084,-0.106483,0.105204,0.988733,-0.483971,-0.091563,-0.090921,-68.895393,228.556030,-21.130230,,,,,,
1465826360.50,-3.024563,-0.104735,-0.076328,-0.068103,1.027710,-0.018079,-0.116123,0.104544,0.987718,-0.426693,-0.076117,-0.095902,-68.895393,228.556030,-21.130230,,,,,,
1465826360.51,-3.012814,-0.103942,-0.076185,-0.078473,1.221010,-0.036333,-0.127730,0.103755,0.986367,-0.421785,-0.102992,-0.132531,-68.895393,228.556030,-21.130230,,,,,,
1465826360.52,-2.999390,-0.103069,-0.075972,-0.085747,1.381317,-0.026701,-0.140972,0.102886,0.984653,-0.380512,-0.073437,-0.107242,-68.378952,228.570450,-22.600723,,,,,,
1465826360.53,-2.983814,-0.101998,-0.075749,-0.106699,1.623471,-0.047401,-0.156308,0.101821,0.982446,-0.361713,-0.077895,-0.065042,-68.378952,228.570450,-22.600723,,,,,,
1465826360.54,-2.965599,-0.100796,-0.075571,-0.119188,1.880386,-0.031993,-0.174198,0.100626,0.979556,-0.313717,-0.082498,-0.076373,-68.378952,228.570450,-22.600723,,,,,,
1465826360.55,-2.945489,-0.099412,-0.075344,-0.133855,2.035479,-0.055334,-0.193887,0.099249,0.975990,-0.277472,-0.070852,-0.069756,-67.863785,228.565796,-24.147564,,,,,,
1465826360.56,-2.925531,-0.098071,-0.075105,-0.125451,1.963239,-0.043163,-0.213354,0.097913,0.972056,-0.295587,-0.082243,-0.146998,-67.863785,228.565796,-24.147564,,,,,,
1465826360.57,-2.906811,-0.096746,-0.074922,-0.123453,1.843281,-0.051989,-0.231542,0.096595,0.968017,-0.278238,-0.072867,-0.107971,-67.863785,228.565796,-24.147564,,,,,,
1465826360.58,-2.888897,-0.095515,-0.074716,-0.113963,1.776371,-0.047302,-0.248875,0.095370,0.963829,-0.286510,-0.081439,-0.135139,-67.863785,228.565796,-24.147564,,,,,,
1465826360.59,-2.871089,-0.094247,-0.074571,-0.120328,1.791245,-0.049531,-0.266031,0.094107,0.959360,-0.275901,-0.071646,-0.096186,-66.269753,228.573471,-28.167408,,,,,,
1465826360.60,-2.852403,-0.092963,-0.074458,-0.122344,1.895279,-0.041670,-0.283944,0.092829,0.954337,-0.235984,-0.075648,-0.098593,-66.269753,228.573471,-28.167408,,,,,,
1465826360.62,-2.814977,-0.090319,-0.074326,-0.114015,1.741320,-0.042825,-0.319532,0.090196,0.943273,-0.185809,-0.076265,-0.149679,-65.452042,228.577911,-29.984928,,,,,,
1465826360.61,-2.833058,-0.091595,-0.074390,-0.129731,1.934593,-0.050439,-0.302390,0.091467,0.948786,-0.190530,-0.068305,-0.071054,-65.452042,228.577911,-29.984928,,,,,,
1465826360.63,-2.800238,-0.089267,-0.074278,-0.091049,1.379227,-0.038402,-0.333431,0.089148,0.938550,-0.194447,-0.072531,-0.142667,-65.452042,228.577911,-29.984928,,,,,,
1465826360.64,-2.788983,-0.088503,-0.074242,-0.064870,1.047900,-0.024589,-0.343996,0.088387,0.934802,-0.187788,-0.077187,-0.165362,-63.609970,228.611115,-33.491077,,,,,,
1465826360.65,-2.780191,-0.087883,-0.074245,-0.055557,0.832349,-0.023228,-0.352221,0.087770,0.931792,-0.178327,-0.070191,-0.115157,-63.609970,228.611115,-33.491077,,,,,,
1465826360.66,-2.773046,-0.087409,-0.074254,-0.041930,0.675172,-0.013713,-0.358885,0.087298,0.929291,-0.171023,-0.072451,-0.142608,-63.609970,228.611115,-33.491077,,,,,,
1465826360.67,-2.767585,-0.087031,-0.074268,-0.033632,0.501029,-0.011548,-0.363967,0.086922,0.927347,-0.170503,-0.066109,-0.123407,-63.044861,228.622772,-34.465958,,,,,,
1465826360.68,-2.764274,-0.086821,-0.074279,-0.015834,0.270591,-0.003698,-0.367042,0.086711,0.926154,-0.167260,-0.069515,-0.158011,-63.044861,228.622772,-34.465958,,,,,,
1465826360.69,-2.752882,-0.083577,-0.073375,-0.000196,0.003078,-0.000942,-0.377673,0.083479,0.922168,-0.163373,-0.067244,-0.140857,-63.044861,228.622772,-34.465958,,,,,,
1465826360.71,-2.749224,-0.081162,-0.072536,0.032190,-0.480018,0.011699,-0.381119,0.081073,0.920964,-0.168853,-0.065128,-0.134175,-62.639351,228.601685,-35.334087,,,,,,
1465826360.70,-2.754836,-0.083731,-0.073356,0.019690,-0.261339,0.007123,-0.375866,0.083633,0.922893,-0.169697,-0.070068,-0.163173,-62.639351,228.601685,-35.334087,,,,,,
1465826360.72,-2.755367,-0.081615,-0.072514,0.045801,-0.657358,0.017083,-0.375441,0.081524,0.923254,-0.175402,-0.070813,-0.142462,-62.639351,228.601685,-35.334087,,,,,,
1465826360.74,-2.772138,-0.082849,-0.072503,0.064602,-0.937701,0.025246,-0.359868,0.082754,0.929326,-0.197840,-0.070944,-0.138036,-62.899788,228.562897,-35.121834,,,,,,
1465826360.73,-2.763094,-0.082184,-0.072506,0.055189,-0.809207,0.020173,-0.368279,0.082092,0.926084,-0.187813,-0.068893,-0.130018,-62.899788,228.562897,-35.121834,,,,,,
1465826360.75,-2.782033,-0.083494,-0.072487,0.070835,-1.057691,0.028134,-0.350636,0.083397,0.932791,-0.209133,-0.068611,-0.131781,-62.899788,228.562897,-35.121834,,,,,,
1465826360.76,-2.793194,-0.084311,-0.072517,0.077121,-1.133094,0.032871,-0.340181,0.084211,0.936582,-0.210601,-0.068357,-0.129865,-62.899788,228.562897,-35.121834,,,,,,
1465826360.77,-2.804989,-0.085162,-0.072577,0.078107,-1.193620,0.034316,-0.329087,0.085059,0.940461,-0.207184,-0.066413,-0.113343,-62.899788,228.562897,-35.121834,,,,,,
1465826360.78,-2.817659,-0.086092,-0.072621,0.088628,-1.294497,0.034959,-0.317120,0.085985,0.944480,-0.219456,-0.068728,-0.128546,-64.448555,228.530426,-32.421341,,,,,,
1465826360.79,-2.831137,-0.086972,-0.072624,0.093787,-1.428280,0.034739,-0.304337,0.086862,0.948596,-0.249511,-0.069193,-0.135623,-64.448555,228.530426,-32.421341,,,,,,
1465826360.80,-2.846138,-0.088054,-0.072660,0.104322,-1.514298,0.037418,-0.290047,0.087941,0.952963,-0.290870,-0.075871,-0.146475,-65.137672,228.516495,-31.116142,,,,,,
1465826360.81,-2.860751,-0.089121,-0.072753,0.096976,-1.425109,0.038980,-0.276065,0.089003,0.957009,-0.301740,-0.074171,-0.120065,-65.137672,228.516495,-31.116142,,,,,,
1465826360.82,-2.873193,-0.090017,-0.072861,0.078132,-1.174505,0.034196,-0.264115,0.089896,0.960293,-0.304381,-0.074958,-0.095562,-65.137672,228.516495,-31.116142,,,,,,
1465826360.83,-2.883011,-0.090743,-0.072969,0.063556,-0.919650,0.027261,-0.254657,0.090618,0.962776,-0.299969,-0.074673,-0.094856,-65.865685,228.504288,-29.638222,,,,,,
1465826360.84,-2.890886,-0.091294,-0.073065,0.048864,-0.753993,0.023014,-0.247056,0.091167,0.964703,-0.301177,-0.075603,-0.111782,-65.865685,228.504288,-29.638222,,,,,,
1465826360.85,-2.897919,-0.091807,-0.073143,0.047883,-0.690278,0.020484,-0.240253,0.091679,0.966371,-0.300427,-0.075092,-0.120042,-66.366371,228.502747,-28.511753,,,,,,
1465826360.86,-2.904526,-0.092305,-0.073203,0.045812,-0.648858,0.017029,-0.233853,0.092174,0.967893,-0.305866,-0.073863,-0.125211,-66.366371,228.502747,-28.511753,,,,,,
1465826360.87,-2.910442,-0.092747,-0.073263,0.040595,-0.567091,0.014382,-0.228113,0.092614,0.969220,-0.309485,-0.075891,-0.120679,-66.686401,228.503723,-27.746904,,,,,,
1465826360.88,-2.915051,-0.093078,-0.073311,0.028007,-0.420550,0.011322,-0.223636,0.092944,0.970231,-0.310070,-0.074847,-0.107499,-66.686401,228.503723,-27.746904,,,,,,
1465826360.89,-2.917939,-0.093295,-0.073353,0.017587,-0.244277,0.007012,-0.220829,0.093159,0.970853,-0.305203,-0.076360,-0.101270,-66.686401,228.503723,-27.746904,,,,,,
1465826360.90,-2.919136,-0.093409,-0.073369,0.008214,-0.080749,0.003849,-0.219664,0.093274,0.971106,-0.303407,-0.076550,-0.101523,-67.106071,228.502274,-26.728432,,,,,,
1465826360.91,-2.919058,-0.093427,-0.073382,-0.000156,0.033936,0.000992,-0.219740,0.093291,0.971088,-0.301500,-0.074919,-0.107623,-67.106071,228.502274,-26.728432,,,,,,
1465826360.92,-2.918034,-0.093366,-0.073380,-0.006426,0.123140,-0.002767,-0.220736,0.093230,0.970868,-0.299253,-0.075942,-0.109768,-67.106071,228.502274,-26.728432,,,,,,
1465826360.93,-2.916195,-0.093259,-0.073366,-0.011644,0.205966,-0.004356,-0.222523,0.093124,0.970470,-0.296078,-0.074279,-0.111797,-67.106071,228.502274,-26.728432,,,,,,
1465826360.94,-2.913389,-0.093096,-0.073338,-0.015775,0.304721,-0.007108,-0.225248,0.092961,0.969856,-0.294023,-0.074666,-0.106621,-67.058105,228.503647,-26.836903,,,,,,
1465826360.95,-2.909537,-0.092857,-0.073310,-0.025221,0.411971,-0.008855,-0.228988,0.092724,0.969003,-0.289582,-0.074398,-0.109872,-67.058105,228.503647,-26.836903,,,,,,
1465826360.96,-2.904615,-0.092547,-0.073255,-0.030405,0.518163,-0.012720,-0.233762,0.092415,0.967892,-0.284671,-0.073876,-0.105908,-67.058105,228.503647,-26.836903,,,,,,
1465826360.98,-2.892020,-0.091707,-0.073153,-0.044033,0.682758,-0.016959,-0.245952,0.091578,0.964946,-0.268559,-0.071620,-0.104030,-66.911659,228.504105,-27.196024,,,,,,
1465826360.97,-2.898700,-0.092158,-0.073209,-0.037737,0.612670,-0.014384,-0.239491,0.092028,0.966527,-0.275616,-0.071642,-0.105398,-66.911659,228.504105,-27.196024,,,,,,
1465826360.99,-2.884969,-0.091229,-0.073106,-0.045067,0.709300,-0.016062,-0.252761,0.091102,0.963230,-0.258561,-0.072899,-0.110310,-66.911659,228.504105,-27.196024,,,,,,
1465826361.00,-2.868259,-0.088418,-0.072196,-0.047194,0.709369,-0.017131,-0.268888,0.088302,0.959115,-0.250033,-0.070495,-0.108972,-66.363335,228.507309,-28.482143,,,,,,
1465826361.01,-2.854933,-0.086400,-0.071606,-0.044007,0.704100,-0.017096,-0.281695,0.086292,0.955616,-0.242109,-0.070408,-0.114689,-66.363335,228.507309,-28.482143,,,,,,
1465826361.02,-2.839236,-0.083779,-0.070847,-0.046108,0.725397,-0.018299,-0.296727,0.083681,0.951289,-0.231182,-0.067828,-0.106883,-66.363335,228.507309,-28.482143,,,,,,
1465826361.03,-2.821833,-0.080906,-0.069990,-0.049258,0.759446,-0.019582,-0.313310,0.080818,0.946206,-0.226332,-0.063423,-0.106347,-66.121391,228.449402,-29.491722,,,,,,
1465826361.04,-2.804247,-0.078090,-0.069186,-0.051324,0.807298,-0.022016,-0.329975,0.078011,0.940761,-0.218578,-0.060570,-0.103786,-66.121391,228.449402,-29.491722,,,,,,
1465826361.05,-2.790609,-0.076271,-0.068771,-0.054452,0.863604,-0.020245,-0.342822,0.076197,0.936305,-0.211393,-0.059718,-0.100993,-66.121391,228.449402,-29.491722,,,,,,
1465826361.06,-2.775583,-0.074145,-0.068321,-0.057576,0.917801,-0.021654,-0.356909,0.074077,0.931197,-0.191370,-0.057063,-0.093932,-65.497726,228.331085,-31.715681,,,,,,
1465826361.07,-2.765046,-0.073165,-0.068267,-0.061807,0.942229,-0.020747,-0.366728,0.073100,0.927452,-0.165026,-0.057810,-0.088707,-65.497726,228.331085,-31.715681,,,,,,
1465826361.08,-2.755612,-0.072413,-0.068259,-0.057628,0.879580,-0.019286,-0.375481,0.072350,0.924002,-0.144569,-0.054894,-0.090674,-65.497726,228.331085,-31.715681,,,,,,
1465826361.09,-2.747653,-0.071793,-0.068261,-0.045066,0.713926,-0.015041,-0.382841,0.071731,0.921025,-0.128573,-0.055526,-0.105016,-65.034576,228.316055,-32.759731,,,,,,
1465826361.10,-2.740474,-0.070885,-0.068160,-0.031509,0.489885,-0.011494,-0.389468,0.070826,0.918313,-0.122160,-0.053217,-0.107522,-65.034576,228.316055,-32.759731,,,,,,
1465826361.11,-2.731388,-0.068807,-0.067764,-0.015831,0.264800,-0.004746,-0.397854,0.068753,0.914869,-0.114643,-0.051480,-0.107496,-65.034576,228.316055,-32.759731,,,,,,
1465826361.12,-2.723826,-0.066685,-0.067340,-0.002333,0.066248,-0.000373,-0.404818,0.066636,0.911966,-0.108030,-0.048448,-0.100656,-64.398369,228.306030,-34.060650,,,,,,
1465826361.13,-2.718405,-0.064752,-0.066943,0.009164,-0.100432,0.003875,-0.409809,0.064706,0.909874,-0.104077,-0.048151,-0.097938,-64.398369,228.306030,-34.060650,,,,,,
1465826361.14,-2.714953,-0.063154,-0.066573,0.018542,-0.259677,0.007011,-0.412989,0.063112,0.908547,-0.103872,-0.044222,-0.092903,-64.398369,228.306030,-34.060650,,,,,,
1465826361.15,-2.713305,-0.061741,-0.066217,0.027930,-0.411492,0.010099,-0.414523,0.061702,0.907945,-0.105512,-0.044658,-0.094560,-64.503204,228.267136,-34.122997,,,,,,
1465826361.16,-2.713837,-0.060768,-0.065895,0.039453,-0.556944,0.014215,-0.414064,0.060730,0.908220,-0.112730,-0.043198,-0.094056,-64.503204,228.267136,-34.122997,,,,,,
1465826361.17,-2.717306,-0.060388,-0.065675,0.046753,-0.674795,0.017089,-0.410921,0.060351,0.909671,-0.124510,-0.045794,-0.097614,-64.503204,228.267136,-34.122997,,,,,,
1465826361.18,-2.722428,-0.060305,-0.065504,0.050919,-0.749109,0.017559,-0.406258,0.060269,0.911769,-0.139366,-0.046338,-0.095134,-65.141693,228.192734,-33.399975,,,,,,
1465826361.19,-2.727893,-0.060331,-0.065337,0.051964,-0.760782,0.019761,-0.401268,0.060295,0.913974,-0.156944,-0.045906,-0.097507,-65.141693,228.192734,-33.399975,,,,,,
1465826361.20,-2.730198,-0.059713,-0.065008,0.047779,-0.704467,0.017273,-0.399175,0.059677,0.914930,-0.171778,-0.045639,-0.092161,-65.141693,228.192734,-33.399975,,,,,,
1465826361.21,-2.733880,-0.059597,-0.064835,0.040472,-0.587650,0.016532,-0.395807,0.059562,0.916400,-0.181738,-0.046073,-0.087131,-65.567856,228.168304,-32.726212,,,,,,
1465826361.22,-2.738599,-0.059942,-0.064824,0.030031,-0.430486,0.011279,-0.391470,0.059906,0.918239,-0.184565,-0.045166,-0.081172,-65.567856,228.168304,-32.726212,,,,,,
1465826361.23,-2.741779,-0.060188,-0.064822,0.020637,-0.281826,0.009272,-0.388542,0.060152,0.919465,-0.187737,-0.045702,-0.082551,-65.567856,228.168304,-32.726212,,,,,,
1465826361.24,-2.743669,-0.060325,-0.064830,0.009086,-0.159701,0.004237,-0.386801,0.060288,0.920191,-0.185068,-0.044312,-0.087244,-66.137642,228.131149,-31.826214,,,,,,
1465826361.25,-2.737337,-0.058811,-0.064405,0.006006,-0.067277,0.003652,-0.392655,0.058777,0.917806,-0.178009,-0.045257,-0.087056,-66.137642,228.131149,-31.826214,,,,,,
1465826361.26,-2.737340,-0.058837,-0.064406,0.001862,0.020860,0.000966,-0.392651,0.058803,0.917806,-0.174381,-0.044154,-0.087575,-66.137642,228.131149,-31.826214,,,,,,
1465826361.28,-2.734593,-0.058667,-0.064421,-0.013863,0.212001,-0.003442,-0.395175,0.058633,0.916733,-0.170895,-0.042962,-0.082870,-66.207344,228.105331,-31.866451,,,,,,
1465826361.27,-2.736457,-0.058790,-0.064397,-0.005470,0.112188,-0.002807,-0.393463,0.058757,0.917461,-0.171647,-0.044383,-0.084850,-66.207344,228.105331,-31.866451,,,,,,
1465826361.29,-2.725090,-0.056949,-0.064040,-0.019060,0.307620,-0.008307,-0.403909,0.056918,0.913027,-0.161994,-0.042972,-0.078569,-66.207344,228.105331,-31.866451,,,,,,
1465826361.30,-2.721370,-0.056728,-0.064037,-0.021081,0.392568,-0.009906,-0.407307,0.056698,0.911530,-0.157329,-0.043041,-0.076538,-66.060654,228.084198,-32.318775,,,,,,
1465826361.31,-2.716903,-0.056432,-0.064046,-0.029507,0.463716,-0.011425,-0.411382,0.056402,0.909716,-0.149470,-0.041860,-0.078768,-66.060654,228.084198,-32.318775,,,,,,
1465826361.32,-2.706142,-0.054731,-0.063746,-0.029450,0.510472,-0.011720,-0.421187,0.054704,0.905322,-0.138551,-0.039552,-0.072910,-66.060654,228.084198,-32.318775,,,,,,
1465826361.33,-2.695630,-0.053114,-0.063498,-0.034727,0.545552,-0.014077,-0.430719,0.053089,0.900923,-0.124121,-0.037174,-0.072234,-65.841164,228.086090,-32.750523,,,,,,
1465826361.34,-2.686093,-0.051650,-0.063328,-0.036846,0.556193,-0.013083,-0.439324,0.051627,0.896844,-0.104484,-0.035651,-0.065545,-65.841164,228.086090,-32.750523,,,,,,
1465826361.35,-2.677912,-0.050425,-0.063221,-0.033708,0.513735,-0.011750,-0.446675,0.050404,0.893275,-0.088451,-0.034718,-0.066524,-65.841164,228.086090,-32.750523,,,,,,
1465826361.36,-2.670824,-0.049333,-0.063137,-0.028502,0.422431,-0.010109,-0.453020,0.049313,0.890136,-0.076262,-0.031795,-0.065673,-65.296806,228.037598,-34.148216,,,,,,
1465826361.37,-2.664837,-0.048254,-0.063035,-0.018023,0.293956,-0.006100,-0.458365,0.048236,0.887454,-0.066766,-0.031680,-0.070178,-65.296806,228.037598,-34.148216,,,,,,
1465826361.39,-2.656982,-0.046360,-0.062792,0.001847,0.016835,0.000977,-0.465364,0.046344,0.883906,-0.058700,-0.028003,-0.067148,-65.109833,228.026291,-34.577961,,,,,,
1465826361.38,-2.660191,-0.047218,-0.062917,-0.009682,0.156991,-0.003106,-0.462506,0.047201,0.885359,-0.059390,-0.030294,-0.068312,-65.109833,228.026291,-34.577961,,,,,,
1465826361.40,-2.655172,-0.045596,-0.062658,0.010201,-0.109513,0.003906,-0.466979,0.045580,0.883093,-0.059419,-0.028383,-0.065252,-65.109833,228.026291,-34.577961,,,,,,
1465826361.41,-2.654631,-0.044973,-0.062522,0.015379,-0.223116,0.005686,-0.467470,0.044958,0.882865,-0.058302,-0.026617,-0.066291,-65.086792,228.009583,-34.731258,,,,,,
1465826361.42,-2.655020,-0.044451,-0.062369,0.023770,-0.321854,0.007377,-0.467137,0.044436,0.883068,-0.065013,-0.026461,-0.066524,-65.086792,228.009583,-34.731258,,,,,,
1465826361.43,-2.656026,-0.043914,-0.062193,0.026881,-0.387670,0.007792,-0.466260,0.043900,0.883558,-0.075229,-0.029175,-0.065763,-65.086792,228.009583,-34.731258,,,,,,
1465826361.44,-2.657330,-0.043460,-0.062029,0.031097,-0.417391,0.010110,-0.465116,0.043447,0.884183,-0.083925,-0.028554,-0.065717,-65.435417,227.965729,-34.362072,,,,,,
1465826361.45,-2.658466,-0.043040,-0.061845,0.028981,-0.405691,0.010033,-0.464120,0.043027,0.884726,-0.093543,-0.027783,-0.063102,-65.435417,227.965729,-34.362072,,,,,,
1465826361.46,-2.659096,-0.042569,-0.061668,0.025851,-0.355762,0.008651,-0.463572,0.042556,0.885037,-0.098761,-0.028701,-0.061337,-65.435417,227.965729,-34.362072,,,,,,
1465826361.47,-2.658881,-0.042080,-0.061492,0.020629,-0.275040,0.007074,-0.463772,0.042067,0.884955,-0.106602,-0.027831,-0.058905,-65.435417,227.965729,-34.362072,,,,,,
1465826361.48,-2.657601,-0.041497,-0.061349,0.012245,-0.168832,0.005333,-0.464915,0.041485,0.884383,-0.109487,-0.028286,-0.058943,-65.869812,227.913223,-33.876965,,,,,,
1465826361.49,-2.655408,-0.040874,-0.061212,0.007056,-0.063685,0.002538,-0.466866,0.040862,0.883384,-0.107597,-0.027740,-0.053962,-65.869812,227.913223,-33.876965,,,,,,
1465826361.50,-2.652266,-0.040236,-0.061098,-0.003468,0.034028,0.000849,-0.469651,0.040225,0.881935,-0.105788,-0.025378,-0.053932,-65.869812,227.913223,-33.876965,,,,,,
1465826361.51,-2.648338,-0.039553,-0.060985,-0.007611,0.122187,-0.002903,-0.473125,0.039543,0.880107,-0.101323,-0.025154,-0.052898,-65.937042,227.891617,-33.891514,,,,,,
1465826361.52,-2.643801,-0.038835,-0.060891,-0.013901,0.199722,-0.004461,-0.477126,0.038825,0.877977,-0.094743,-0.024406,-0.051454,-65.937042,227.891617,-33.891514,,,,,,
1465826361.53,-2.638779,-0.038036,-0.060838,-0.014882,0.270873,-0.002780,-0.481545,0.038027,0.875596,-0.085899,-0.026537,-0.048234,-65.883919,227.873550,-34.115604,,,,,,
1465826361.54,-2.633456,-0.036957,-0.060779,-0.016904,0.347355,-0.009650,-0.486218,0.036949,0.873056,-0.071933,-0.036781,-0.036340,-65.883919,227.873550,-34.115604,,,,,,
1465826361.55,-2.627586,-0.036191,-0.060775,-0.016927,0.353699,0.005211,-0.491348,0.036183,0.870211,-0.076065,-0.026097,-0.056018,-65.883919,227.873550,-34.115604,,,,,,
1465826361.56,-2.622818,-0.035795,-0.060776,-0.027512,0.360159,-0.022516,-0.495499,0.035788,0.867871,-0.036652,-0.005347,-0.026074,-65.580582,227.852783,-34.831345,,,,,,
1465826361.57,-2.617931,-0.034873,-0.060711,0.006349,0.269770,0.025984,-0.499751,0.034866,0.865467,-0.055257,-0.041488,-0.071186,-65.580582,227.852783,-34.831345,,,,,,
1465826361.58,-2.615814,-0.034782,-0.060822,-0.012846,0.177520,-0.016035,-0.501583,0.034775,0.864410,-0.080677,-0.028611,0.094055,-65.580582,227.852783,-34.831345,,,,,,
1465826361.59,-2.615011,-0.034802,-0.060829,-0.001362,0.044703,0.015678,-0.502276,0.034795,0.864007,0.001208,0.021418,-0.168679,-43.461323,216.153152,-23.008911,,,,,,
1465826361.60,-2.614960,-0.034665,-0.060779,-0.003456,0.005535,-0.026656,-0.502323,0.034658,0.863985,-0.020931,0.023661,-0.045656,-43.461323,216.153152,-23.008911,,,,,,
1465826361.61,-2.615243,-0.034799,-0.060869,0.000659,-0.041304,0.016220,-0.502076,0.034792,0.864123,-0.050842,-0.067949,-0.027072,-43.461323,216.153152,-23.008911,,,,,,
1465826361.63,-2.615541,-0.034195,-0.060751,0.014413,-0.135758,0.000858,-0.501829,0.034188,0.864291,-0.043703,-0.033639,-0.041934,-43.377682,216.160782,-23.094940,,,,,,
1465826361.62,-2.615818,-0.034837,-0.060783,0.015557,-0.061462,0.007845,-0.501579,0.034830,0.864410,-0.021019,-0.010966,-0.042984,-43.377682,216.160782,-23.094940,,,,,,
1465826361.64,-2.616983,-0.034312,-0.060719,0.008005,-0.146381,0.004112,-0.500580,0.034305,0.865010,-0.035476,-0.004627,-0.029408,-43.377682,216.160782,-23.094940,,,,,,
1465826361.65,-2.618722,-0.034316,-0.060673,0.003711,-0.181407,0.000069,-0.499076,0.034309,0.865879,-0.029977,0.040565,-0.100178,-43.377682,216.160782,-23.094940,,,,,,
1465826361.66,-2.620748,-0.034323,-0.060653,0.000501,-0.205806,-0.007232,-0.497320,0.034316,0.866888,-0.062143,-0.030059,-0.042059,-43.546650,216.150253,-22.874302,,,,,,
1465826361.67,-2.621038,-0.033533,-0.060561,0.015366,-0.210096,0.009839,-0.497082,0.033527,0.867056,-0.071354,-0.036060,-0.026464,-43.546650,216.150253,-22.874302,,,,,,
1465826361.68,-2.622745,-0.033677,-0.060522,0.013323,-0.151679,0.003084,-0.495599,0.033670,0.867899,-0.070396,-0.050577,-0.032511,-43.546650,216.150253,-22.874302,,,,,,
1465826361.69,-2.623694,-0.033794,-0.060511,0.008080,-0.077367,0.009000,-0.494773,0.033788,0.868365,-0.067849,-0.007359,-0.038852,-43.704765,216.143173,-22.638470,,,,,,
1465826361.70,-2.623782,-0.033696,-0.060518,-0.013066,0.010826,-0.010735,-0.494698,0.033690,0.868412,-0.063225,0.003160,-0.051197,-43.704765,216.143173,-22.638470,,,,,,
1465826361.72,-2.619721,-0.033692,-0.060451,-0.018235,0.136132,-0.010462,-0.498221,0.033685,0.866396,-0.072077,-0.028299,-0.038072,-43.746265,216.141266,-22.576515,,,,,,
1465826361.71,-2.620933,-0.033894,-0.060436,-0.014054,0.077725,-0.007962,-0.497166,0.033887,0.866993,-0.054759,0.011660,-0.069142,-43.746265,216.141266,-22.576515,,,,,,
1465826361.73,-2.618174,-0.033597,-0.060469,-0.006514,0.158397,-0.001010,-0.499562,0.033590,0.865627,-0.079036,-0.053198,-0.015194,-43.746265,216.141266,-22.576515,,,,,,
1465826361.74,-2.616602,-0.033538,-0.060498,-0.007574,0.158404,-0.003140,-0.500923,0.033532,0.864842,-0.074470,-0.050164,-0.027607,-43.650139,216.138809,-22.785131,,,,,,
1465826361.75,-2.613317,-0.033237,-0.060468,-0.010797,0.141419,0.000156,-0.503767,0.033231,0.863200,-0.050738,-0.008985,-0.045665,-43.650139,216.138809,-22.785131,,,,,,
1465826361.76,-2.611997,-0.033045,-0.060459,-0.015045,0.131897,-0.011497,-0.504908,0.033039,0.862540,-0.033544,0.016979,-0.069556,-43.650139,216.138809,-22.785131,,,,,,
1465826361.77,-2.610749,-0.032975,-0.060491,-0.005507,0.121231,0.004546,-0.505986,0.032969,0.861911,-0.048213,-0.038981,-0.018253,-43.650139,216.138809,-22.785131,,,,,,
1465826361.79,-2.607563,-0.032214,-0.060505,0.005072,0.071323,0.006997,-0.508741,0.032208,0.860317,-0.040697,-0.032834,-0.018688,-43.543739,216.138519,-22.990501,,,,,,
1465826361.78,-2.609595,-0.033008,-0.060519,0.005127,0.110607,0.004623,-0.506979,0.033002,0.861326,-0.049219,-0.057050,-0.018370,-43.543739,216.138519,-22.990501,,,,,,
1465826361.80,-2.607174,-0.032234,-0.060503,0.001840,0.027814,-0.001249,-0.509076,0.032228,0.860118,-0.025210,0.005049,-0.062007,-43.543739,216.138519,-22.990501,,,,,,
1465826361.81,-2.607262,-0.032255,-0.060503,0.000708,-0.022096,0.001192,-0.509000,0.032249,0.860162,-0.033724,-0.004463,-0.054620,-43.551399,216.137466,-22.985882,,,,,,
1465826361.82,-2.606340,-0.031539,-0.060450,0.001729,-0.059245,-0.000705,-0.509805,0.031534,0.859712,-0.040961,-0.026743,-0.033983,-43.551399,216.137466,-22.985882,,,,,,
1465826361.83,-2.607204,-0.031642,-0.060444,0.012316,-0.095372,0.006984,-0.509060,0.031637,0.860149,-0.048053,-0.039419,-0.027080,-43.551399,216.137466,-22.985882,,,,,,
1465826361.84,-2.608194,-0.031795,-0.060429,0.014445,-0.097494,0.005935,-0.508206,0.031790,0.860649,-0.044758,-0.025747,-0.029457,-43.617409,216.133072,-22.901852,,,,,,
1465826361.85,-2.609094,-0.031971,-0.060400,0.016589,-0.085815,0.005863,-0.507428,0.031965,0.861101,-0.045672,-0.013716,-0.042681,-43.617409,216.133072,-22.901852,,,,,,
1465826361.86,-2.608094,-0.031960,-0.060334,0.010236,-0.062433,0.002516,-0.508289,0.031954,0.860593,-0.043805,-0.005755,-0.044813,-43.632832,216.131729,-22.885235,,,,,,
1465826361.87,-2.608607,-0.032024,-0.060325,0.004928,-0.048630,0.003489,-0.507847,0.032018,0.860852,-0.055691,-0.013799,-0.037793,-43.632832,216.131729,-22.885235,,,,,,
1465826361.88,-2.609061,-0.032079,-0.060320,0.003877,-0.041191,0.001312,-0.507455,0.032073,0.861081,-0.055717,-0.019439,-0.035032,-43.632832,216.131729,-22.885235,,,,,,
1465826361.89,-2.609330,-0.032157,-0.060313,0.007092,-0.021024,0.003318,-0.507222,0.032151,0.861215,-0.054271,-0.019257,-0.039377,-43.629955,216.128128,-22.924610,,,,,,
1465826361.90,-2.607519,-0.031681,-0.060236,0.005017,0.018284,-0.000125,-0.508789,0.031676,0.860308,-0.051438,-0.018904,-0.034915,-43.629955,216.128128,-22.924610,,,,,,
1465826361.91,-2.607018,-0.031685,-0.060249,-0.003451,0.061816,0.001722,-0.509220,0.031680,0.860053,-0.050457,-0.011828,-0.034934,-43.629955,216.128128,-22.924610,,,,,,
1465826361.92,-2.604590,-0.030853,-0.060203,-0.000223,0.087314,-0.000565,-0.511319,0.030848,0.858837,-0.049136,-0.029307,-0.030117,-43.629955,216.128128,-22.924610,,,,,,
1465826361.93,-2.602153,-0.030188,-0.060198,-0.001289,0.095804,0.004701,-0.513421,0.030183,0.857606,-0.044501,-0.024553,-0.030305,-43.644936,216.123566,-22.939178,,,,,,
1465826361.94,-2.599941,-0.029713,-0.060184,0.002983,0.105369,0.003580,-0.515325,0.029709,0.856480,-0.035960,-0.019074,-0.025563,-43.644936,216.123566,-22.939178,,,,,,
1465826361.95,-2.597660,-0.029928,-0.060164,0.000863,0.111751,0.002473,-0.517273,0.029924,0.855297,-0.023696,0.005583,-0.044201,-43.644936,216.123566,-22.939178,,,,,,
1465826361.96,-2.595422,-0.030227,-0.060149,-0.006570,0.120268,-0.001845,-0.519181,0.030223,0.854130,-0.020721,0.011693,-0.040592,-43.640507,216.114700,-23.030983,,,,,,
1465826361.97,-2.593259,-0.030388,-0.060147,-0.012975,0.103295,-0.003874,-0.521025,0.030383,0.853000,-0.017350,0.009106,-0.048343,-43.640507,216.114700,-23.030983,,,,,,
1465826361.98,-2.591530,-0.029978,-0.060125,-0.010885,0.069328,-0.005788,-0.522506,0.029974,0.852109,-0.023042,-0.010870,-0.030759,-43.640507,216.114700,-23.030983,,,,,,
1465826361.99,-2.590302,-0.029322,-0.060094,-0.006691,0.018365,-0.005466,-0.523562,0.029318,0.851483,-0.026044,-0.022238,-0.027096,-43.490112,216.115128,-23.309565,,,,,,
1465826362.00,-2.589610,-0.028596,-0.060062,-0.000364,-0.024113,-0.002001,-0.524162,0.028592,0.851138,-0.026329,-0.028165,-0.022235,-43.490112,216.115128,-23.309565,,,,,,
1465826362.01,-2.589231,-0.027968,-0.060020,0.004908,-0.060217,0.000358,-0.524494,0.027964,0.850955,-0.026623,-0.026667,-0.027484,-43.490112,216.115128,-23.309565,,,,,,
1465826362.02,-2.589139,-0.027584,-0.059982,0.007004,-0.084637,0.001577,-0.524578,0.027580,0.850916,-0.029179,-0.018608,-0.024210,-43.693680,216.101547,-23.053511,,,,,,
1465826362.03,-2.589094,-0.027271,-0.059948,0.006989,-0.092069,0.003751,-0.524621,0.027267,0.850899,-0.030250,-0.016861,-0.027566,-43.693680,216.101547,-23.053511,,,,,,
1465826362.04,-2.589036,-0.026958,-0.059912,0.008059,-0.086755,0.003718,-0.524674,0.026955,0.850876,-0.033798,-0.017128,-0.022324,-43.782890,216.095627,-22.939316,,,,,,
1465826362.05,-2.588779,-0.026752,-0.059862,0.007014,-0.071879,0.002558,-0.524896,0.026749,0.850746,-0.035056,-0.012833,-0.027412,-43.782890,216.095627,-22.939316,,,,,,
1465826362.06,-2.588300,-0.026641,-0.059826,0.003859,-0.042138,0.001304,-0.525305,0.026638,0.850497,-0.032480,-0.007382,-0.028353,-43.782890,216.095627,-22.939316,,,,,,
1465826362.08,-2.586409,-0.026474,-0.059768,-0.003502,0.029025,-0.001280,-0.526915,0.026471,0.849506,-0.030290,-0.005169,-0.027957,-43.850502,216.089554,-22.867455,,,,,,
1465826362.07,-2.587510,-0.026601,-0.059796,0.000706,-0.010273,0.000036,-0.525977,0.026598,0.850083,-0.031091,-0.003023,-0.031052,-43.850502,216.089554,-22.867455,,,,,,
1465826362.09,-2.584949,-0.026085,-0.059752,-0.005589,0.061950,-0.002554,-0.528160,0.026082,0.848744,-0.032936,-0.014730,-0.023869,-43.850502,216.089554,-22.867455,,,,,,
1465826362.10,-2.583319,-0.025601,-0.059745,-0.006628,0.085313,-0.001638,-0.529549,0.025598,0.847893,-0.031333,-0.019006,-0.019951,-43.858803,216.081741,-22.925276,,,,,,
1465826362.11,-2.581687,-0.025198,-0.059753,-0.005561,0.089562,-0.000600,-0.530938,0.025195,0.847036,-0.027763,-0.016391,-0.017736,-43.858803,216.081741,-22.925276,,,,,,
1465826362.12,-2.580066,-0.024978,-0.059758,-0.005559,0.091690,-0.000614,-0.532313,0.024976,0.846179,-0.020681,-0.008588,-0.026904,-43.858803,216.081741,-22.925276,,,,,,
1465826362.14,-2.577335,-0.024503,-0.059758,-0.005655,0.072558,-0.001625,-0.534629,0.024501,0.844732,-0.014779,-0.009379,-0.023901,-43.885616,216.078369,-22.905680,,,,,,
1465826362.13,-2.578630,-0.024744,-0.059756,-0.005644,0.081049,-0.001678,-0.533530,0.024742,0.845419,-0.016946,-0.008629,-0.023931,-43.885616,216.078369,-22.905680,,,,,,
1465826362.15,-2.576257,-0.024285,-0.059752,-0.003550,0.053447,-0.001504,-0.535541,0.024282,0.844160,-0.012905,-0.008703,-0.022260,-43.885616,216.078369,-22.905680,,,,,,
1465826362.16,-2.575415,-0.024082,-0.059747,-0.001442,0.038580,-0.000344,-0.536255,0.024080,0.843713,-0.008042,-0.008638,-0.023095,-43.866455,216.074677,-22.977177,,,,,,
1465826362.17,-2.574693,-0.023979,-0.059746,-0.002524,0.024780,-0.000259,-0.536865,0.023977,0.843328,-0.008805,-0.003835,-0.023778,-43.866455,216.074677,-22.977177,,,,,,
1465826362.18,-2.574089,-0.023921,-0.059746,-0.005730,0.012049,-0.002312,-0.537375,0.023918,0.843004,-0.008707,-0.000939,-0.025957,-43.866455,216.074677,-22.977177,,,,,,
1465826362.19,-2.573731,-0.023868,-0.059719,-0.001496,-0.011305,-0.004290,-0.537677,0.023866,0.842813,-0.008282,-0.001298,-0.024179,-43.866852,216.073166,-22.990665,,,,,,
1465826362.20,-2.573575,-0.023669,-0.059678,-0.000458,-0.030418,-0.003105,-0.537811,0.023666,0.842733,-0.011444,-0.008972,-0.020238,-43.866852,216.073166,-22.990665,,,,,,
1465826362.21,-2.573494,-0.023390,-0.059655,-0.001543,-0.044221,-0.001956,-0.537883,0.023387,0.842695,-0.016835,-0.012813,-0.018583,-43.866852,216.073166,-22.990665,,,,,,
1465826362.22,-2.573531,-0.023030,-0.059636,0.002693,-0.058029,0.000263,-0.537857,0.023028,0.842722,-0.021409,-0.018481,-0.014048,-43.924561,216.066147,-22.946373,,,,,,
1465826362.23,-2.573631,-0.022741,-0.059610,0.005879,-0.062278,0.001357,-0.537776,0.022739,0.842781,-0.017812,-0.016743,-0.018761,-43.924561,216.066147,-22.946373,,,,,,
1465826362.24,-2.573612,-0.022533,-0.059596,0.001640,-0.045284,0.001245,-0.537795,0.022531,0.842775,-0.019411,-0.012353,-0.018571,-43.924561,216.066147,-22.946373,,,,,,
1465826362.25,-2.573352,-0.022318,-0.059581,0.001660,-0.027232,0.002196,-0.538016,0.022316,0.842639,-0.022089,-0.012123,-0.020008,-43.924561,216.066147,-22.946373,,,,,,
1465826362.26,-2.572909,-0.022104,-0.059576,0.001696,0.000380,0.000958,-0.538392,0.022102,0.842405,-0.019713,-0.011787,-0.016752,-44.059372,216.057785,-22.765947,,,,,,
1465826362.27,-2.572150,-0.021929,-0.059557,0.001729,0.025870,-0.000267,-0.539033,0.021927,0.841999,-0.021544,-0.009811,-0.018970,-44.059372,216.057785,-22.765947,,,,,,
1465826362.29,-2.570108,-0.021587,-0.059540,-0.001420,0.060920,-0.001556,-0.540756,0.021585,0.840903,-0.017838,-0.007074,-0.020712,-44.081631,216.054810,-22.750824,,,,,,
1465826362.28,-2.571222,-0.021738,-0.059541,-0.001437,0.048173,-0.000411,-0.539817,0.021736,0.841502,-0.019937,-0.009392,-0.016505,-44.081631,216.054810,-22.750824,,,,,,
1465826362.30,-2.569057,-0.021441,-0.059547,-0.002483,0.067285,0.001596,-0.541641,0.021439,0.840337,-0.014115,-0.006928,-0.014790,-44.081631,216.054810,-22.750824,,,,,,
1465826362.31,-2.567986,-0.021643,-0.059568,-0.009922,0.071550,-0.002695,-0.542538,0.021641,0.839752,-0.001178,0.013286,-0.031967,-44.078117,216.052399,-22.780638,,,,,,
1465826362.32,-2.566908,-0.021422,-0.059546,-0.007776,0.080054,-0.005940,-0.543445,0.021420,0.839171,-0.007061,-0.006635,-0.017531,-44.078117,216.052399,-22.780638,,,,,,
1465826362.33,-2.565940,-0.021019,-0.059563,-0.004598,0.074733,-0.001646,-0.544262,0.021017,0.838652,-0.010547,-0.018133,-0.001890,-44.078117,216.052399,-22.780638,,,,,,
1465826362.34,-2.565022,-0.020850,-0.059566,-0.001419,0.063053,-0.001570,-0.545033,0.020849,0.838155,-0.001704,-0.007375,-0.018484,-44.045425,216.050842,-22.858492,,,,,,
